{
  "type": "FeatureCollection",
  "features": [
    {
      "type": "Feature",
      "geometry": {
        "type": "Point",
        "coordinates": [
          -96.726,
          17.114
        ]
      },
      "properties": {
        "id": 747,
        "title": "Lluvia 2010->",
        "location": "Paraje 3 Arroyos, Guadalupe Victoria, Oaxaca, Oaxaca",
        "total_7_days": 0,
        "total_30_days": 177.0
      }
    },
    {
      "type": "Feature",
      "geometry": {
        "type": "Point",
        "coordinates": [
          151.153,
          -28.639
        ]
      },
      "properties": {
        "id": 443,
        "title": "Allambie",
        "location": "Brush Creek, QLD",
        "total_7_days": 0.5,
        "total_30_days": 5.0
      }
    },
    {
      "type": "Feature",
      "geometry": {
        "type": "Point",
        "coordinates": [
          152.784,
          -26.592
        ]
      },
      "properties": {
        "id": 453,
        "title": "Delicia@Mapleton",
        "location": "Coolabine, QLD",
        "total_7_days": 0.01,
        "total_30_days": 46.53
      }
    },
    {
      "type": "Feature",
      "geometry": {
        "type": "Point",
        "coordinates": [
          152.807,
          -30.611
        ]
      },
      "properties": {
        "id": 619,
        "title": "Windy Hill",
        "location": "Argents Hill, NSW",
        "total_7_days": 0,
        "total_30_days": 29.0
      }
    },
    {
      "type": "Feature",
      "geometry": {
        "type": "Point",
        "coordinates": [
          133.333,
          -26.974
        ]
      },
      "properties": {
        "id": 395,
        "title": "Belaradah, Wangandary Upper",
        "location": "Wangandary Upper, VIC",
        "total_7_days": 1.0,
        "total_30_days": 50.0
      }
    },
    {
      "type": "Feature",
      "geometry": {
        "type": "Point",
        "coordinates": [
          172.867,
          -43.691
        ]
      },
      "properties": {
        "id": 721,
        "title": "Korimako Reserve",
        "location": "Akaroa, Canterbury ",
        "total_7_days": 0,
        "total_30_days": 41.0
      }
    },
    {
      "type": "Feature",
      "geometry": {
        "type": "Point",
        "coordinates": [
          149.014,
          -34.626
        ]
      },
      "properties": {
        "id": 475,
        "title": "Lynsdale Park",
        "location": "Blakney Creek, NSW",
        "total_7_days": 10.5,
        "total_30_days": 44.5
      }
    },
    {
      "type": "Feature",
      "geometry": {
        "type": "Point",
        "coordinates": [
          133.333,
          -26.974
        ]
      },
      "properties": {
        "id": 704,
        "title": "BF Depot",
        "location": "Beechforest, VIC",
        "total_7_days": 82.5,
        "total_30_days": 217.5
      }
    },
    {
      "type": "Feature",
      "geometry": {
        "type": "Point",
        "coordinates": [
          152.751,
          -26.691
        ]
      },
      "properties": {
        "id": 476,
        "title": "Donovans Knob",
        "location": "Curramore, QLD",
        "total_7_days": 0,
        "total_30_days": 33.0
      }
    },
    {
      "type": "Feature",
      "geometry": {
        "type": "Point",
        "coordinates": [
          133.333,
          -26.974
        ]
      },
      "properties": {
        "id": 737,
        "title": "Glenholm",
        "location": "Lalalty, Nsw",
        "total_7_days": 0,
        "total_30_days": 29.5
      }
    },
    {
      "type": "Feature",
      "geometry": {
        "type": "Point",
        "coordinates": [
          146.007,
          -17.808
        ]
      },
      "properties": {
        "id": 59,
        "title": "El Arish Rain",
        "location": "El Arish, QLD",
        "total_7_days": 4.0,
        "total_30_days": 212.0
      }
    },
    {
      "type": "Feature",
      "geometry": {
        "type": "Point",
        "coordinates": [
          133.333,
          -26.974
        ]
      },
      "properties": {
        "id": 668,
        "title": "Taylor St",
        "location": "Ashburton, VIC",
        "total_7_days": 18.5,
        "total_30_days": 83.0
      }
    },
    {
      "type": "Feature",
      "geometry": {
        "type": "Point",
        "coordinates": [
          133.333,
          -26.974
        ]
      },
      "properties": {
        "id": 633,
        "title": "South Yass",
        "location": "Yass, NSW",
        "total_7_days": 5.0,
        "total_30_days": 48.0
      }
    },
    {
      "type": "Feature",
      "geometry": {
        "type": "Point",
        "coordinates": [
          133.333,
          -26.974
        ]
      },
      "properties": {
        "id": 714,
        "title": "Kersbrook",
        "location": "Kersbrook, SA",
        "total_7_days": 42.5,
        "total_30_days": 106.5
      }
    },
    {
      "type": "Feature",
      "geometry": {
        "type": "Point",
        "coordinates": [
          151.153,
          -28.629
        ]
      },
      "properties": {
        "id": 486,
        "title": "Allambie - House",
        "location": "Brush Creek, QLD",
        "total_7_days": 0.5,
        "total_30_days": 3.0
      }
    },
    {
      "type": "Feature",
      "geometry": {
        "type": "Point",
        "coordinates": [
          133.333,
          -26.974
        ]
      },
      "properties": {
        "id": 515,
        "title": "57",
        "location": "Blackbutt, QLD",
        "total_7_days": 0,
        "total_30_days": 3.5
      }
    },
    {
      "type": "Feature",
      "geometry": {
        "type": "Point",
        "coordinates": [
          150.485,
          -33.517
        ]
      },
      "properties": {
        "id": 485,
        "title": "Noonameena",
        "location": "Bilpin, NSW",
        "total_7_days": 0,
        "total_30_days": 50.5
      }
    },
    {
      "type": "Feature",
      "geometry": {
        "type": "Point",
        "coordinates": [
          133.333,
          -26.974
        ]
      },
      "properties": {
        "id": 726,
        "title": "Ballagin",
        "location": "Wagin, WA",
        "total_7_days": 1.0,
        "total_30_days": 27.75
      }
    },
    {
      "type": "Feature",
      "geometry": {
        "type": "Point",
        "coordinates": [
          117.333,
          -35.002
        ]
      },
      "properties": {
        "id": 501,
        "title": "My Readings",
        "location": "Ocean Beach, WA",
        "total_7_days": 13.5,
        "total_30_days": 89.0
      }
    },
    {
      "type": "Feature",
      "geometry": {
        "type": "Point",
        "coordinates": [
          133.333,
          -26.974
        ]
      },
      "properties": {
        "id": 694,
        "title": "No 9 Wildehondweg ",
        "location": "Woodland Hills",
        "total_7_days": 0,
        "total_30_days": 6.0
      }
    },
    {
      "type": "Feature",
      "geometry": {
        "type": "Point",
        "coordinates": [
          141.608,
          -38.132
        ]
      },
      "properties": {
        "id": 152,
        "title": "Kerlie Park",
        "location": "Heywood, VIC",
        "total_7_days": 25.25,
        "total_30_days": 94.5
      }
    },
    {
      "type": "Feature",
      "geometry": {
        "type": "Point",
        "coordinates": [
          150.298,
          -34.657
        ]
      },
      "properties": {
        "id": 643,
        "title": "Bundanoon Anglican Church",
        "location": "Bundanoon, NSW",
        "total_7_days": 0,
        "total_30_days": 36.8
      }
    },
    {
      "type": "Feature",
      "geometry": {
        "type": "Point",
        "coordinates": [
          133.333,
          -26.974
        ]
      },
      "properties": {
        "id": 518,
        "title": "Debbie's rain gauge",
        "location": "Tolaga Bay",
        "total_7_days": 0.8,
        "total_30_days": 53.8
      }
    },
    {
      "type": "Feature",
      "geometry": {
        "type": "Point",
        "coordinates": [
          133.333,
          -26.974
        ]
      },
      "properties": {
        "id": 743,
        "title": "Millpool",
        "location": "Bodmin, Cornwall",
        "total_7_days": 3.02,
        "total_30_days": 4.91
      }
    },
    {
      "type": "Feature",
      "geometry": {
        "type": "Point",
        "coordinates": [
          133.333,
          -26.974
        ]
      },
      "properties": {
        "id": 733,
        "title": "Garland Rd",
        "location": "Bundanoon, NSW",
        "total_7_days": 8.0,
        "total_30_days": 43.5
      }
    },
    {
      "type": "Feature",
      "geometry": {
        "type": "Point",
        "coordinates": [
          151.139,
          -33.824
        ]
      },
      "properties": {
        "id": 487,
        "title": "Boronia Park",
        "location": "Hunters Hill, NSW",
        "total_7_days": 0,
        "total_30_days": 20.0
      }
    },
    {
      "type": "Feature",
      "geometry": {
        "type": "Point",
        "coordinates": [
          152.787,
          -25.364
        ]
      },
      "properties": {
        "id": 468,
        "title": "Moorabinda drive",
        "location": "Sunshine Acres, QLD",
        "total_7_days": 0,
        "total_30_days": 76.5
      }
    },
    {
      "type": "Feature",
      "geometry": {
        "type": "Point",
        "coordinates": [
          133.333,
          -26.974
        ]
      },
      "properties": {
        "id": 730,
        "title": "Fat Goat farm",
        "location": "Noman's Lake, WA",
        "total_7_days": 2.0,
        "total_30_days": 27.0
      }
    },
    {
      "type": "Feature",
      "geometry": {
        "type": "Point",
        "coordinates": [
          115.878,
          -32.049
        ]
      },
      "properties": {
        "id": 138,
        "title": "Willetton WA",
        "location": "Willetton, WA",
        "total_7_days": 5.1,
        "total_30_days": 63.3
      }
    },
    {
      "type": "Feature",
      "geometry": {
        "type": "Point",
        "coordinates": [
          150.786,
          -31.527
        ]
      },
      "properties": {
        "id": 299,
        "title": "Wallabadah Rd  Quirindi",
        "location": "Quirindi, NSW",
        "total_7_days": 0,
        "total_30_days": 23.0
      }
    },
    {
      "type": "Feature",
      "geometry": {
        "type": "Point",
        "coordinates": [
          133.333,
          -26.974
        ]
      },
      "properties": {
        "id": 554,
        "title": "Rendezvous Road",
        "location": "Busselton, WA",
        "total_7_days": 7.0,
        "total_30_days": 59.0
      }
    },
    {
      "type": "Feature",
      "geometry": {
        "type": "Point",
        "coordinates": [
          152.953,
          -27.455
        ]
      },
      "properties": {
        "id": 38,
        "title": "Jim's rain guage",
        "location": "The Gap, QLD",
        "total_7_days": 0,
        "total_30_days": 9.4
      }
    },
    {
      "type": "Feature",
      "geometry": {
        "type": "Point",
        "coordinates": [
          149.585,
          -33.412
        ]
      },
      "properties": {
        "id": 445,
        "title": "Limbrick's gauge",
        "location": "Bathurst, NSW",
        "total_7_days": 0,
        "total_30_days": 76.0
      }
    },
    {
      "type": "Feature",
      "geometry": {
        "type": "Point",
        "coordinates": [
          133.333,
          -26.974
        ]
      },
      "properties": {
        "id": 638,
        "title": "Highfield at Oldbury Rd",
        "location": "Sutton Forest, NSW",
        "total_7_days": 3.0,
        "total_30_days": 25.0
      }
    },
    {
      "type": "Feature",
      "geometry": {
        "type": "Point",
        "coordinates": [
          133.333,
          -26.974
        ]
      },
      "properties": {
        "id": 748,
        "title": "bolgart west",
        "location": "Bolgart, wa",
        "total_7_days": 1.0,
        "total_30_days": 25.0
      }
    },
    {
      "type": "Feature",
      "geometry": {
        "type": "Point",
        "coordinates": [
          133.333,
          -26.974
        ]
      },
      "properties": {
        "id": 653,
        "title": "Quoit House",
        "location": "Marlesford, Woodbridge ",
        "total_7_days": 38.0,
        "total_30_days": 87.0
      }
    },
    {
      "type": "Feature",
      "geometry": {
        "type": "Point",
        "coordinates": [
          133.333,
          -26.974
        ]
      },
      "properties": {
        "id": 652,
        "title": "Awatahi",
        "location": "Hikuai",
        "total_7_days": 4.0,
        "total_30_days": 70.0
      }
    },
    {
      "type": "Feature",
      "geometry": {
        "type": "Point",
        "coordinates": [
          148.444,
          -33.909
        ]
      },
      "properties": {
        "id": 465,
        "title": "Rubyvale",
        "location": "Bumbaldry, NSW",
        "total_7_days": 11.0,
        "total_30_days": 46.0
      }
    },
    {
      "type": "Feature",
      "geometry": {
        "type": "Point",
        "coordinates": [
          133.333,
          -26.974
        ]
      },
      "properties": {
        "id": 624,
        "title": "ErsnmyneManton",
        "location": "Manton, NSW",
        "total_7_days": 7.0,
        "total_30_days": 44.0
      }
    },
    {
      "type": "Feature",
      "geometry": {
        "type": "Point",
        "coordinates": [
          150.569,
          -33.726
        ]
      },
      "properties": {
        "id": 720,
        "title": "Hazelbrook",
        "location": "Hazelbrook, NSW",
        "total_7_days": 1.75,
        "total_30_days": 40.5
      }
    },
    {
      "type": "Feature",
      "geometry": {
        "type": "Point",
        "coordinates": [
          138.552,
          -34.898
        ]
      },
      "properties": {
        "id": 507,
        "title": "104",
        "location": "Beverley, SA",
        "total_7_days": 43.0,
        "total_30_days": 83.0
      }
    },
    {
      "type": "Feature",
      "geometry": {
        "type": "Point",
        "coordinates": [
          133.333,
          -26.974
        ]
      },
      "properties": {
        "id": 603,
        "title": "Barragga Bay",
        "location": "Barragga Bay, NSW",
        "total_7_days": 0.5,
        "total_30_days": 17.0
      }
    },
    {
      "type": "Feature",
      "geometry": {
        "type": "Point",
        "coordinates": [
          133.333,
          -26.974
        ]
      },
      "properties": {
        "id": 608,
        "title": "44 Grays Point",
        "location": "Grays Point, NSW",
        "total_7_days": 5.5,
        "total_30_days": 30.5
      }
    },
    {
      "type": "Feature",
      "geometry": {
        "type": "Point",
        "coordinates": [
          151.94,
          28.9
        ]
      },
      "properties": {
        "id": 370,
        "title": "Simjojims Rain Gauge",
        "location": "Wallangarra, QLD",
        "total_7_days": 0,
        "total_30_days": 10.0
      }
    },
    {
      "type": "Feature",
      "geometry": {
        "type": "Point",
        "coordinates": [
          115.801,
          -32.036
        ]
      },
      "properties": {
        "id": 571,
        "title": "Keith 6156",
        "location": "Melville, WA",
        "total_7_days": 13.5,
        "total_30_days": 63.5
      }
    },
    {
      "type": "Feature",
      "geometry": {
        "type": "Point",
        "coordinates": [
          133.333,
          -26.974
        ]
      },
      "properties": {
        "id": 697,
        "title": "craigs rain gauge",
        "location": "Croydon North, VIC",
        "total_7_days": 9.5,
        "total_30_days": 62.5
      }
    },
    {
      "type": "Feature",
      "geometry": {
        "type": "Point",
        "coordinates": [
          133.333,
          -26.974
        ]
      },
      "properties": {
        "id": 669,
        "title": "Taylor St (Auto)",
        "location": "Ashburton, VIC",
        "total_7_days": 6.0,
        "total_30_days": 28.5
      }
    },
    {
      "type": "Feature",
      "geometry": {
        "type": "Point",
        "coordinates": [
          133.333,
          -26.974
        ]
      },
      "properties": {
        "id": 681,
        "title": "Garden Drive - Rain Gauge",
        "location": "Urangan. Hervey Bay, QLD",
        "total_7_days": 0,
        "total_30_days": 40.0
      }
    },
    {
      "type": "Feature",
      "geometry": {
        "type": "Point",
        "coordinates": [
          133.333,
          -26.974
        ]
      },
      "properties": {
        "id": 696,
        "title": "Rain1",
        "location": "Caldera , Panama",
        "total_7_days": 75.0,
        "total_30_days": 455.0
      }
    },
    {
      "type": "Feature",
      "geometry": {
        "type": "Point",
        "coordinates": [
          148.612,
          -32.296
        ]
      },
      "properties": {
        "id": 225,
        "title": "Tannermount Rain Gauge",
        "location": "Dubbo, NSW",
        "total_7_days": 0,
        "total_30_days": 36.0
      }
    },
    {
      "type": "Feature",
      "geometry": {
        "type": "Point",
        "coordinates": [
          133.333,
          -26.974
        ]
      },
      "properties": {
        "id": 712,
        "title": "Kenton Valley",
        "location": "Kenton Valley, SA",
        "total_7_days": 40.5,
        "total_30_days": 121.5
      }
    }
  ]
}