{
  "type": "FeatureCollection",
  "features": [
    {
      "type": "Feature",
      "geometry": {
        "type": "Point",
        "coordinates": [
          153.035,
          -27.455
        ]
      },
      "properties": {
        "id": 879,
        "location": "Brisbane, Australia",
        "updated_at": "2023-03-13 08:34:34 UTC",
        "last_record_at": "2023-03-13 00:00:00 UTC",
        "total_7_days": 84.0,
        "total_30_days": 96.8
      }
    },
    {
      "type": "Feature",
      "geometry": {
        "type": "Point",
        "coordinates": [
          "24.000",
          "-29.000"
        ]
      },
      "properties": {
        "id": 694,
        "location": "Woodland Hills, South Africa",
        "updated_at": "2023-03-11 17:13:31 UTC",
        "last_record_at": "2023-03-11 00:00:00 UTC",
        "total_7_days": 69.0,
        "total_30_days": 136.0
      }
    },
    {
      "type": "Feature",
      "geometry": {
        "type": "Point",
        "coordinates": [
          "133.000",
          "-27.000"
        ]
      },
      "properties": {
        "id": 704,
        "location": "Beechforest, Australia",
        "updated_at": "2023-03-10 00:03:30 UTC",
        "last_record_at": "2023-03-10 00:00:00 UTC",
        "total_7_days": 37.0,
        "total_30_days": 121.5
      }
    },
    {
      "type": "Feature",
      "geometry": {
        "type": "Point",
        "coordinates": [
          151.953,
          -24.99
        ]
      },
      "properties": {
        "id": 943,
        "location": "Bundaberg, Australia",
        "updated_at": "2023-03-12 07:13:58 UTC",
        "last_record_at": "2023-03-11 00:00:00 UTC",
        "total_7_days": 48.0,
        "total_30_days": 48.0
      }
    },
    {
      "type": "Feature",
      "geometry": {
        "type": "Point",
        "coordinates": [
          153.035,
          -27.455
        ]
      },
      "properties": {
        "id": 888,
        "location": "Brisbane, Australia",
        "updated_at": "2023-03-12 19:56:14 UTC",
        "last_record_at": "2023-03-13 00:00:00 UTC",
        "total_7_days": 36.0,
        "total_30_days": 36.0
      }
    },
    {
      "type": "Feature",
      "geometry": {
        "type": "Point",
        "coordinates": [
          115.801,
          -32.035
        ]
      },
      "properties": {
        "id": 571,
        "location": "Melville, Australia",
        "updated_at": "2023-03-02 23:14:56 UTC",
        "last_record_at": "2023-03-03 00:00:00 UTC",
        "total_7_days": 0,
        "total_30_days": 0.5
      }
    },
    {
      "type": "Feature",
      "geometry": {
        "type": "Point",
        "coordinates": [
          150.298,
          -34.657
        ]
      },
      "properties": {
        "id": 643,
        "location": "Bundanoon, Australia",
        "updated_at": "2023-03-12 20:53:25 UTC",
        "last_record_at": "2023-03-13 00:00:00 UTC",
        "total_7_days": 26.0,
        "total_30_days": 69.2
      }
    },
    {
      "type": "Feature",
      "geometry": {
        "type": "Point",
        "coordinates": [
          133.0,
          -27.0
        ]
      },
      "properties": {
        "id": 122,
        "location": "Kilsyth, Yarra Ranges, Australia",
        "updated_at": "2023-03-07 23:23:10 UTC",
        "last_record_at": "2023-03-07 00:00:00 UTC",
        "total_7_days": 7.0,
        "total_30_days": 24.0
      }
    },
    {
      "type": "Feature",
      "geometry": {
        "type": "Point",
        "coordinates": [
          27.703,
          -26.158
        ]
      },
      "properties": {
        "id": 1126,
        "location": "Johannesburg, South Africa",
        "updated_at": "2023-03-12 21:39:25 UTC",
        "last_record_at": "2023-03-12 00:00:00 UTC",
        "total_7_days": 23.0,
        "total_30_days": 87.0
      }
    },
    {
      "type": "Feature",
      "geometry": {
        "type": "Point",
        "coordinates": [
          "133.000",
          "-27.000"
        ]
      },
      "properties": {
        "id": 714,
        "location": "Kersbrook, Australia",
        "updated_at": "2023-03-08 06:25:41 UTC",
        "last_record_at": "2023-03-08 00:00:00 UTC",
        "total_7_days": 10.5,
        "total_30_days": 28.5
      }
    },
    {
      "type": "Feature",
      "geometry": {
        "type": "Point",
        "coordinates": [
          -5.801,
          57.374
        ]
      },
      "properties": {
        "id": 1119,
        "location": "Stirling, United Kingdom of Great Britain and Northern Ireland",
        "updated_at": "2023-03-13 09:53:53 UTC",
        "last_record_at": "2023-03-13 00:00:00 UTC",
        "total_7_days": 33.6,
        "total_30_days": 110.0
      }
    },
    {
      "type": "Feature",
      "geometry": {
        "type": "Point",
        "coordinates": [
          149.014,
          -34.626
        ]
      },
      "properties": {
        "id": 475,
        "location": "Blakney Creek",
        "updated_at": "2023-03-05 07:36:27 UTC",
        "last_record_at": "2023-03-04 00:00:00 UTC",
        "total_7_days": 0,
        "total_30_days": 42.5
      }
    },
    {
      "type": "Feature",
      "geometry": {
        "type": "Point",
        "coordinates": [
          "133.000",
          "-27.000"
        ]
      },
      "properties": {
        "id": 669,
        "location": "Ashburton, Australia",
        "updated_at": "2023-03-07 23:08:00 UTC",
        "last_record_at": "2023-03-08 00:00:00 UTC",
        "total_7_days": 0.9,
        "total_30_days": 8.1
      }
    },
    {
      "type": "Feature",
      "geometry": {
        "type": "Point",
        "coordinates": [
          151.94,
          28.9
        ]
      },
      "properties": {
        "id": 370,
        "location": "Wallangarra, Australia",
        "updated_at": "2023-03-12 22:32:24 UTC",
        "last_record_at": "2023-03-12 00:00:00 UTC",
        "total_7_days": 22.0,
        "total_30_days": 47.0
      }
    },
    {
      "type": "Feature",
      "geometry": {
        "type": "Point",
        "coordinates": [
          28.229,
          -25.707
        ]
      },
      "properties": {
        "id": 921,
        "location": "Pretoria, South Africa",
        "updated_at": "2023-03-04 20:08:46 UTC",
        "last_record_at": "2023-03-03 00:00:00 UTC",
        "total_7_days": 0,
        "total_30_days": 231.0
      }
    },
    {
      "type": "Feature",
      "geometry": {
        "type": "Point",
        "coordinates": [
          25.912,
          -24.646
        ]
      },
      "properties": {
        "id": 833,
        "location": "Gaborone, Botswana",
        "updated_at": "2023-03-07 17:24:34 UTC",
        "last_record_at": "2023-03-06 00:00:00 UTC",
        "total_7_days": 0,
        "total_30_days": 155.0
      }
    },
    {
      "type": "Feature",
      "geometry": {
        "type": "Point",
        "coordinates": [
          176.854,
          -39.418
        ]
      },
      "properties": {
        "id": 835,
        "location": "Napier, New Zealand",
        "updated_at": "2023-03-13 00:17:47 UTC",
        "last_record_at": "2023-03-10 00:00:00 UTC",
        "total_7_days": 9.0,
        "total_30_days": 320.0
      }
    },
    {
      "type": "Feature",
      "geometry": {
        "type": "Point",
        "coordinates": [
          "133.000",
          "-27.000"
        ]
      },
      "properties": {
        "id": 515,
        "location": "Blackbutt, Australia",
        "updated_at": "2023-03-12 22:47:32 UTC",
        "last_record_at": "2023-03-12 00:00:00 UTC",
        "total_7_days": 51.5,
        "total_30_days": 96.0
      }
    },
    {
      "type": "Feature",
      "geometry": {
        "type": "Point",
        "coordinates": [
          1.17,
          52.07
        ]
      },
      "properties": {
        "id": 1147,
        "location": "Ipswich, United Kingdom of Great Britain and Northern Ireland",
        "updated_at": "2023-03-13 07:04:56 UTC",
        "last_record_at": "2023-03-12 00:00:00 UTC",
        "total_7_days": 35.0,
        "total_30_days": 43.0
      }
    },
    {
      "type": "Feature",
      "geometry": {
        "type": "Point",
        "coordinates": [
          153.133,
          -26.8
        ]
      },
      "properties": {
        "id": 837,
        "location": "Caloundra, Australia",
        "updated_at": "2023-03-09 23:34:35 UTC",
        "last_record_at": "2023-03-09 00:00:00 UTC",
        "total_7_days": 2.0,
        "total_30_days": 98.5
      }
    },
    {
      "type": "Feature",
      "geometry": {
        "type": "Point",
        "coordinates": [
          115.747,
          -32.523
        ]
      },
      "properties": {
        "id": 1118,
        "location": "Mandurah, Australia",
        "updated_at": "2023-03-06 06:58:44 UTC",
        "last_record_at": "2023-03-02 00:00:00 UTC",
        "total_7_days": 0,
        "total_30_days": 3.0
      }
    },
    {
      "type": "Feature",
      "geometry": {
        "type": "Point",
        "coordinates": [
          28.264,
          -25.82
        ]
      },
      "properties": {
        "id": 992,
        "location": "Pretoria, South Africa",
        "updated_at": "2023-03-04 17:41:52 UTC",
        "last_record_at": "2023-03-03 00:00:00 UTC",
        "total_7_days": 0,
        "total_30_days": 92.0
      }
    },
    {
      "type": "Feature",
      "geometry": {
        "type": "Point",
        "coordinates": [
          141.573,
          -38.114
        ]
      },
      "properties": {
        "id": 152,
        "location": "Heywood, Australia",
        "updated_at": "2023-03-11 23:18:24 UTC",
        "last_record_at": "2023-03-11 00:00:00 UTC",
        "total_7_days": 18.5,
        "total_30_days": 47.75
      }
    },
    {
      "type": "Feature",
      "geometry": {
        "type": "Point",
        "coordinates": [
          29.45,
          -23.89
        ]
      },
      "properties": {
        "id": 939,
        "location": "Polokwane, South Africa",
        "updated_at": "2023-03-05 04:36:18 UTC",
        "last_record_at": "2023-03-03 00:00:00 UTC",
        "total_7_days": 0,
        "total_30_days": 64.0
      }
    },
    {
      "type": "Feature",
      "geometry": {
        "type": "Point",
        "coordinates": [
          -84.423,
          33.763
        ]
      },
      "properties": {
        "id": 1169,
        "location": "Atlanta, United States of America",
        "updated_at": "2023-03-03 19:53:51 UTC",
        "last_record_at": "2023-03-02 00:00:00 UTC",
        "total_7_days": 0,
        "total_30_days": 2.35
      }
    },
    {
      "type": "Feature",
      "geometry": {
        "type": "Point",
        "coordinates": [
          151.884,
          -25.246
        ]
      },
      "properties": {
        "id": 944,
        "location": "Bundaberg, Australia",
        "updated_at": "2023-03-12 05:25:48 UTC",
        "last_record_at": "2023-03-11 00:00:00 UTC",
        "total_7_days": 35.0,
        "total_30_days": 75.0
      }
    },
    {
      "type": "Feature",
      "geometry": {
        "type": "Point",
        "coordinates": [
          153.035,
          -27.455
        ]
      },
      "properties": {
        "id": 887,
        "location": "Brisbane, Australia",
        "updated_at": "2023-03-12 21:52:51 UTC",
        "last_record_at": "2023-03-13 00:00:00 UTC",
        "total_7_days": 39.5,
        "total_30_days": 58.5
      }
    },
    {
      "type": "Feature",
      "geometry": {
        "type": "Point",
        "coordinates": [
          0.0,
          0.0
        ]
      },
      "properties": {
        "id": 653,
        "location": "Marlesford, Woodbridge, England",
        "updated_at": "2023-03-12 11:17:07 UTC",
        "last_record_at": "2023-03-12 00:00:00 UTC",
        "total_7_days": 30.0,
        "total_30_days": 38.0
      }
    },
    {
      "type": "Feature",
      "geometry": {
        "type": "Point",
        "coordinates": [
          151.153,
          -28.629
        ]
      },
      "properties": {
        "id": 486,
        "location": "Brush Creek",
        "updated_at": "2023-03-12 08:41:46 UTC",
        "last_record_at": "2023-03-12 00:00:00 UTC",
        "total_7_days": 28.0,
        "total_30_days": 53.0
      }
    },
    {
      "type": "Feature",
      "geometry": {
        "type": "Point",
        "coordinates": [
          28.03,
          -26.17
        ]
      },
      "properties": {
        "id": 776,
        "location": "Johannesburg, South Africa",
        "updated_at": "2023-03-13 06:31:07 UTC",
        "last_record_at": "2023-03-12 00:00:00 UTC",
        "total_7_days": 71.0,
        "total_30_days": 141.0
      }
    },
    {
      "type": "Feature",
      "geometry": {
        "type": "Point",
        "coordinates": [
          151.153,
          -28.639
        ]
      },
      "properties": {
        "id": 443,
        "location": "Brush Creek",
        "updated_at": "2023-03-12 08:41:39 UTC",
        "last_record_at": "2023-03-12 00:00:00 UTC",
        "total_7_days": 23.5,
        "total_30_days": 46.5
      }
    },
    {
      "type": "Feature",
      "geometry": {
        "type": "Point",
        "coordinates": [
          152.02,
          -28.229
        ]
      },
      "properties": {
        "id": 819,
        "location": "Warwick, Australia",
        "updated_at": "2023-03-12 23:08:12 UTC",
        "last_record_at": "2023-03-13 00:00:00 UTC",
        "total_7_days": 55.1,
        "total_30_days": 122.05
      }
    },
    {
      "type": "Feature",
      "geometry": {
        "type": "Point",
        "coordinates": [
          153.349,
          -28.4
        ]
      },
      "properties": {
        "id": 1143,
        "location": "Australia",
        "updated_at": "2023-03-12 19:57:52 UTC",
        "last_record_at": "2023-03-13 00:00:00 UTC",
        "total_7_days": 21.0,
        "total_30_days": 164.0
      }
    },
    {
      "type": "Feature",
      "geometry": {
        "type": "Point",
        "coordinates": [
          152.953,
          -27.455
        ]
      },
      "properties": {
        "id": 38,
        "location": "The Gap, Australia",
        "updated_at": "2023-03-12 21:03:31 UTC",
        "last_record_at": "2023-03-13 00:00:00 UTC",
        "total_7_days": 46.3,
        "total_30_days": 106.1
      }
    },
    {
      "type": "Feature",
      "geometry": {
        "type": "Point",
        "coordinates": [
          152.807,
          -30.611
        ]
      },
      "properties": {
        "id": 619,
        "location": "Argents Hill, Australia",
        "updated_at": "2023-03-12 22:00:43 UTC",
        "last_record_at": "2023-03-12 00:00:00 UTC",
        "total_7_days": 10.6,
        "total_30_days": 119.0
      }
    },
    {
      "type": "Feature",
      "geometry": {
        "type": "Point",
        "coordinates": [
          153.396,
          -28.119
        ]
      },
      "properties": {
        "id": 936,
        "location": "Gold Coast, Australia",
        "updated_at": "2023-03-12 20:11:26 UTC",
        "last_record_at": "2023-03-13 00:00:00 UTC",
        "total_7_days": 33.0,
        "total_30_days": 135.0
      }
    },
    {
      "type": "Feature",
      "geometry": {
        "type": "Point",
        "coordinates": [
          19.031,
          -34.203
        ]
      },
      "properties": {
        "id": 1207,
        "location": "Hermanus, South Africa",
        "updated_at": "2023-03-11 06:07:29 UTC",
        "last_record_at": "2023-03-10 00:00:00 UTC",
        "total_7_days": 6.0,
        "total_30_days": 106.0
      }
    },
    {
      "type": "Feature",
      "geometry": {
        "type": "Point",
        "coordinates": [
          148.444,
          -33.909
        ]
      },
      "properties": {
        "id": 465,
        "location": "Bumbaldry",
        "updated_at": "2023-03-13 12:04:59 UTC",
        "last_record_at": "2023-03-13 00:00:00 UTC",
        "total_7_days": 30.0,
        "total_30_days": 30.0
      }
    },
    {
      "type": "Feature",
      "geometry": {
        "type": "Point",
        "coordinates": [
          "133.000",
          "-27.000"
        ]
      },
      "properties": {
        "id": 638,
        "location": "Sutton Forest, Australia",
        "updated_at": "2023-03-13 07:36:08 UTC",
        "last_record_at": "2023-03-13 00:00:00 UTC",
        "total_7_days": 8.0,
        "total_30_days": 28.0
      }
    },
    {
      "type": "Feature",
      "geometry": {
        "type": "Point",
        "coordinates": [
          133.0,
          -27.0
        ]
      },
      "properties": {
        "id": 812,
        "location": "Australia",
        "updated_at": "2023-03-12 03:37:30 UTC",
        "last_record_at": "2023-03-12 00:00:00 UTC",
        "total_7_days": 46.0,
        "total_30_days": 67.0
      }
    },
    {
      "type": "Feature",
      "geometry": {
        "type": "Point",
        "coordinates": [
          144.25,
          -23.45
        ]
      },
      "properties": {
        "id": 1158,
        "location": "Longreach, Australia",
        "updated_at": "2023-03-12 21:00:03 UTC",
        "last_record_at": "2023-03-12 00:00:00 UTC",
        "total_7_days": 90.0,
        "total_30_days": 90.0
      }
    },
    {
      "type": "Feature",
      "geometry": {
        "type": "Point",
        "coordinates": [
          153.477,
          -28.759
        ]
      },
      "properties": {
        "id": 892,
        "location": "Lismore, Australia",
        "updated_at": "2023-03-12 19:15:16 UTC",
        "last_record_at": "2023-03-12 00:00:00 UTC",
        "total_7_days": 9.4,
        "total_30_days": 246.4
      }
    },
    {
      "type": "Feature",
      "geometry": {
        "type": "Point",
        "coordinates": [
          0.0,
          0.0
        ]
      },
      "properties": {
        "id": 743,
        "location": "Bodmin, United Kingdom",
        "updated_at": "2023-03-12 23:45:01 UTC",
        "last_record_at": "2023-03-12 00:00:00 UTC",
        "total_7_days": 2.15,
        "total_30_days": 3.03
      }
    },
    {
      "type": "Feature",
      "geometry": {
        "type": "Point",
        "coordinates": [
          152.462,
          -31.898
        ]
      },
      "properties": {
        "id": 775,
        "location": "Taree, Australia",
        "updated_at": "2023-03-12 21:34:03 UTC",
        "last_record_at": "2023-03-12 00:00:00 UTC",
        "total_7_days": 21.0,
        "total_30_days": 71.0
      }
    },
    {
      "type": "Feature",
      "geometry": {
        "type": "Point",
        "coordinates": [
          18.472,
          -33.937
        ]
      },
      "properties": {
        "id": 884,
        "location": "Cape Town, South Africa",
        "updated_at": "2023-03-06 17:22:09 UTC",
        "last_record_at": "2023-03-06 00:00:00 UTC",
        "total_7_days": 0,
        "total_30_days": 50.0
      }
    },
    {
      "type": "Feature",
      "geometry": {
        "type": "Point",
        "coordinates": [
          "133.000",
          "-27.000"
        ]
      },
      "properties": {
        "id": 668,
        "location": "Ashburton, Australia",
        "updated_at": "2023-03-05 22:09:27 UTC",
        "last_record_at": "2023-03-06 00:00:00 UTC",
        "total_7_days": 0,
        "total_30_days": 20.5
      }
    },
    {
      "type": "Feature",
      "geometry": {
        "type": "Point",
        "coordinates": [
          150.485,
          -33.517
        ]
      },
      "properties": {
        "id": 485,
        "location": "Bilpin",
        "updated_at": "2023-03-12 20:41:50 UTC",
        "last_record_at": "2023-03-13 00:00:00 UTC",
        "total_7_days": 14.0,
        "total_30_days": 108.5
      }
    },
    {
      "type": "Feature",
      "geometry": {
        "type": "Point",
        "coordinates": [
          -2.733,
          52.717
        ]
      },
      "properties": {
        "id": 1028,
        "location": "Shrewsbury, United Kingdom of Great Britain and Northern Ireland",
        "updated_at": "2023-03-13 08:33:09 UTC",
        "last_record_at": "2023-03-13 00:00:00 UTC",
        "total_7_days": 33.0,
        "total_30_days": 44.0
      }
    },
    {
      "type": "Feature",
      "geometry": {
        "type": "Point",
        "coordinates": [
          133.0,
          -27.0
        ]
      },
      "properties": {
        "id": 813,
        "location": "Australia",
        "updated_at": "2023-03-12 03:38:40 UTC",
        "last_record_at": "2023-03-12 00:00:00 UTC",
        "total_7_days": 22.0,
        "total_30_days": 39.5
      }
    },
    {
      "type": "Feature",
      "geometry": {
        "type": "Point",
        "coordinates": [
          152.02,
          -28.229
        ]
      },
      "properties": {
        "id": 940,
        "location": "Warwick, Australia",
        "updated_at": "2023-03-12 22:39:44 UTC",
        "last_record_at": "2023-03-12 00:00:00 UTC",
        "total_7_days": 28.0,
        "total_30_days": 58.0
      }
    },
    {
      "type": "Feature",
      "geometry": {
        "type": "Point",
        "coordinates": [
          152.938,
          -29.712
        ]
      },
      "properties": {
        "id": 1142,
        "location": "Grafton, Australia",
        "updated_at": "2023-03-12 19:35:23 UTC",
        "last_record_at": "2023-03-12 00:00:00 UTC",
        "total_7_days": 37.5,
        "total_30_days": 75.5
      }
    },
    {
      "type": "Feature",
      "geometry": {
        "type": "Point",
        "coordinates": [
          173.247,
          -41.293
        ]
      },
      "properties": {
        "id": 1070,
        "location": "Nelson, New Zealand",
        "updated_at": "2023-03-05 18:57:00 UTC",
        "last_record_at": "2023-03-06 00:00:00 UTC",
        "total_7_days": 0,
        "total_30_days": 52.5
      }
    },
    {
      "type": "Feature",
      "geometry": {
        "type": "Point",
        "coordinates": [
          144.332,
          -37.385
        ]
      },
      "properties": {
        "id": 765,
        "location": "Australia",
        "updated_at": "2023-03-07 22:41:33 UTC",
        "last_record_at": "2023-03-08 00:00:00 UTC",
        "total_7_days": 2.0,
        "total_30_days": 24.0
      }
    },
    {
      "type": "Feature",
      "geometry": {
        "type": "Point",
        "coordinates": [
          143.58,
          -38.34
        ]
      },
      "properties": {
        "id": 814,
        "location": "Colac, Australia",
        "updated_at": "2023-03-08 21:06:37 UTC",
        "last_record_at": "2023-03-09 00:00:00 UTC",
        "total_7_days": 24.0,
        "total_30_days": 63.0
      }
    },
    {
      "type": "Feature",
      "geometry": {
        "type": "Point",
        "coordinates": [
          -68.888,
          9.0
        ]
      },
      "properties": {
        "id": 1072,
        "location": "Acarigua, Venezuela (Bolivarian Republic of)",
        "updated_at": "2023-03-12 13:10:14 UTC",
        "last_record_at": "2023-03-11 00:00:00 UTC",
        "total_7_days": 2.0,
        "total_30_days": 3.0
      }
    },
    {
      "type": "Feature",
      "geometry": {
        "type": "Point",
        "coordinates": [
          145.469,
          -17.27
        ]
      },
      "properties": {
        "id": 1138,
        "location": "Atherton, Australia",
        "updated_at": "2023-03-07 22:08:29 UTC",
        "last_record_at": "2023-03-07 00:00:00 UTC",
        "total_7_days": 42.0,
        "total_30_days": 52.5
      }
    },
    {
      "type": "Feature",
      "geometry": {
        "type": "Point",
        "coordinates": [
          152.95,
          -27.083
        ]
      },
      "properties": {
        "id": 1135,
        "location": "Caboolture, Australia",
        "updated_at": "2023-03-12 22:16:04 UTC",
        "last_record_at": "2023-03-13 00:00:00 UTC",
        "total_7_days": 63.5,
        "total_30_days": 134.0
      }
    },
    {
      "type": "Feature",
      "geometry": {
        "type": "Point",
        "coordinates": [
          146.259,
          -20.081
        ]
      },
      "properties": {
        "id": 958,
        "location": "Charters Towers, Australia",
        "updated_at": "2023-03-13 01:25:15 UTC",
        "last_record_at": "2023-03-12 00:00:00 UTC",
        "total_7_days": 52.0,
        "total_30_days": 112.0
      }
    },
    {
      "type": "Feature",
      "geometry": {
        "type": "Point",
        "coordinates": [
          117.333,
          -35.002
        ]
      },
      "properties": {
        "id": 501,
        "location": "Ocean Beach, Australia",
        "updated_at": "2023-03-10 22:33:39 UTC",
        "last_record_at": "2023-03-10 00:00:00 UTC",
        "total_7_days": 11.0,
        "total_30_days": 23.0
      }
    },
    {
      "type": "Feature",
      "geometry": {
        "type": "Point",
        "coordinates": [
          152.351,
          -24.879
        ]
      },
      "properties": {
        "id": 947,
        "location": "Bundaberg, Australia",
        "updated_at": "2023-03-13 11:43:41 UTC",
        "last_record_at": "2023-03-13 00:00:00 UTC",
        "total_7_days": 55.5,
        "total_30_days": 79.0
      }
    },
    {
      "type": "Feature",
      "geometry": {
        "type": "Point",
        "coordinates": [
          "133.000",
          "-27.000"
        ]
      },
      "properties": {
        "id": 395,
        "location": "Wangandary Upper, Australia",
        "updated_at": "2023-03-13 05:18:59 UTC",
        "last_record_at": "2023-03-12 00:00:00 UTC",
        "total_7_days": 9.0,
        "total_30_days": 26.0
      }
    },
    {
      "type": "Feature",
      "geometry": {
        "type": "Point",
        "coordinates": [
          "174.000",
          "-41.000"
        ]
      },
      "properties": {
        "id": 652,
        "location": "Hikuai, New Zealand",
        "updated_at": "2023-03-10 20:49:15 UTC",
        "last_record_at": "2023-03-10 00:00:00 UTC",
        "total_7_days": 5.0,
        "total_30_days": 577.0
      }
    },
    {
      "type": "Feature",
      "geometry": {
        "type": "Point",
        "coordinates": [
          152.344,
          -27.587
        ]
      },
      "properties": {
        "id": 754,
        "location": "Toowoomba, Australia",
        "updated_at": "2023-03-12 22:10:00 UTC",
        "last_record_at": "2023-03-13 00:00:00 UTC",
        "total_7_days": 25.5,
        "total_30_days": 34.0
      }
    },
    {
      "type": "Feature",
      "geometry": {
        "type": "Point",
        "coordinates": [
          144.25,
          -23.45
        ]
      },
      "properties": {
        "id": 959,
        "location": "Longreach, Australia",
        "updated_at": "2023-03-12 23:45:32 UTC",
        "last_record_at": "2023-03-13 00:00:00 UTC",
        "total_7_days": 74.5,
        "total_30_days": 96.5
      }
    },
    {
      "type": "Feature",
      "geometry": {
        "type": "Point",
        "coordinates": [
          "133.000",
          "-27.000"
        ]
      },
      "properties": {
        "id": 733,
        "location": "Bundanoon, Australia",
        "updated_at": "2023-03-12 21:59:14 UTC",
        "last_record_at": "2023-03-12 00:00:00 UTC",
        "total_7_days": 26.0,
        "total_30_days": 86.0
      }
    },
    {
      "type": "Feature",
      "geometry": {
        "type": "Point",
        "coordinates": [
          152.919,
          -31.445
        ]
      },
      "properties": {
        "id": 810,
        "location": "Port Macquarie, Australia",
        "updated_at": "2023-03-13 03:24:57 UTC",
        "last_record_at": "2023-03-13 00:00:00 UTC",
        "total_7_days": 70.0,
        "total_30_days": 148.5
      }
    },
    {
      "type": "Feature",
      "geometry": {
        "type": "Point",
        "coordinates": [
          149.585,
          -33.412
        ]
      },
      "properties": {
        "id": 445,
        "location": "Bathurst",
        "updated_at": "2023-03-08 04:54:32 UTC",
        "last_record_at": "2023-03-07 00:00:00 UTC",
        "total_7_days": 1.0,
        "total_30_days": 10.5
      }
    },
    {
      "type": "Feature",
      "geometry": {
        "type": "Point",
        "coordinates": [
          30.98,
          -29.865
        ]
      },
      "properties": {
        "id": 1079,
        "location": "Durban, South Africa",
        "updated_at": "2023-03-07 10:49:47 UTC",
        "last_record_at": "2023-03-06 00:00:00 UTC",
        "total_7_days": 0,
        "total_30_days": 93.0
      }
    },
    {
      "type": "Feature",
      "geometry": {
        "type": "Point",
        "coordinates": [
          146.007,
          -17.808
        ]
      },
      "properties": {
        "id": 59,
        "location": "El arish",
        "updated_at": "2023-03-10 05:43:41 UTC",
        "last_record_at": "2023-03-10 00:00:00 UTC",
        "total_7_days": 160.0,
        "total_30_days": 833.5
      }
    },
    {
      "type": "Feature",
      "geometry": {
        "type": "Point",
        "coordinates": [
          147.06,
          -38.11
        ]
      },
      "properties": {
        "id": 911,
        "location": "Sale, Australia",
        "updated_at": "2023-03-05 20:20:18 UTC",
        "last_record_at": "2023-03-06 00:00:00 UTC",
        "total_7_days": 0,
        "total_30_days": 25.0
      }
    },
    {
      "type": "Feature",
      "geometry": {
        "type": "Point",
        "coordinates": [
          152.351,
          -24.879
        ]
      },
      "properties": {
        "id": 948,
        "location": "Bundaberg, Australia",
        "updated_at": "2023-03-04 04:41:58 UTC",
        "last_record_at": "2023-03-03 00:00:00 UTC",
        "total_7_days": 0,
        "total_30_days": 21.0
      }
    },
    {
      "type": "Feature",
      "geometry": {
        "type": "Point",
        "coordinates": [
          150.786,
          -31.527
        ]
      },
      "properties": {
        "id": 299,
        "location": "Quirindi",
        "updated_at": "2023-03-12 21:00:21 UTC",
        "last_record_at": "2023-03-12 00:00:00 UTC",
        "total_7_days": 16.5,
        "total_30_days": 38.5
      }
    },
    {
      "type": "Feature",
      "geometry": {
        "type": "Point",
        "coordinates": [
          150.917,
          -31.103
        ]
      },
      "properties": {
        "id": 816,
        "location": "Tamworth, Australia",
        "updated_at": "2023-03-12 21:03:44 UTC",
        "last_record_at": "2023-03-13 00:00:00 UTC",
        "total_7_days": 91.8,
        "total_30_days": 94.8
      }
    },
    {
      "type": "Feature",
      "geometry": {
        "type": "Point",
        "coordinates": [
          149.57,
          -33.42
        ]
      },
      "properties": {
        "id": 952,
        "location": "Bathurst, Australia",
        "updated_at": "2023-03-12 22:58:43 UTC",
        "last_record_at": "2023-03-12 00:00:00 UTC",
        "total_7_days": 1.0,
        "total_30_days": 9.75
      }
    },
    {
      "type": "Feature",
      "geometry": {
        "type": "Point",
        "coordinates": [
          144.93,
          -17.345
        ]
      },
      "properties": {
        "id": 818,
        "location": "Atherton, Australia",
        "updated_at": "2023-03-12 01:54:51 UTC",
        "last_record_at": "2023-03-12 00:00:00 UTC",
        "total_7_days": 25.0,
        "total_30_days": 99.0
      }
    },
    {
      "type": "Feature",
      "geometry": {
        "type": "Point",
        "coordinates": [
          153.474,
          -28.282
        ]
      },
      "properties": {
        "id": 1167,
        "location": "Australia",
        "updated_at": "2023-03-12 19:53:23 UTC",
        "last_record_at": "2023-03-13 00:00:00 UTC",
        "total_7_days": 25.0,
        "total_30_days": 194.0
      }
    },
    {
      "type": "Feature",
      "geometry": {
        "type": "Point",
        "coordinates": [
          "151.956",
          "-27.564"
        ]
      },
      "properties": {
        "id": 710,
        "location": "Toowoomba, Australia",
        "updated_at": "2023-03-11 03:16:01 UTC",
        "last_record_at": "2023-03-10 00:00:00 UTC",
        "total_7_days": 5.0,
        "total_30_days": 37.0
      }
    },
    {
      "type": "Feature",
      "geometry": {
        "type": "Point",
        "coordinates": [
          30.97,
          -25.474
        ]
      },
      "properties": {
        "id": 950,
        "location": "Nelspruit, South Africa",
        "updated_at": "2023-03-13 05:55:52 UTC",
        "last_record_at": "2023-03-12 00:00:00 UTC",
        "total_7_days": 0.5,
        "total_30_days": 198.5
      }
    },
    {
      "type": "Feature",
      "geometry": {
        "type": "Point",
        "coordinates": [
          140.767,
          -36.316
        ]
      },
      "properties": {
        "id": 1030,
        "location": "Bordertown, Australia",
        "updated_at": "2023-03-06 04:36:07 UTC",
        "last_record_at": "2023-03-06 00:00:00 UTC",
        "total_7_days": 0,
        "total_30_days": 13.6
      }
    },
    {
      "type": "Feature",
      "geometry": {
        "type": "Point",
        "coordinates": [
          145.75,
          -16.931
        ]
      },
      "properties": {
        "id": 1146,
        "location": "Cairns, Australia",
        "updated_at": "2023-03-10 01:04:54 UTC",
        "last_record_at": "2023-03-10 00:00:00 UTC",
        "total_7_days": 112.0,
        "total_30_days": 722.0
      }
    },
    {
      "type": "Feature",
      "geometry": {
        "type": "Point",
        "coordinates": [
          -3.533,
          55.883
        ]
      },
      "properties": {
        "id": 938,
        "location": "Livingston, United Kingdom of Great Britain and Northern Ireland",
        "updated_at": "2023-03-13 06:53:50 UTC",
        "last_record_at": "2023-03-12 00:00:00 UTC",
        "total_7_days": 12.0,
        "total_30_days": 54.5
      }
    },
    {
      "type": "Feature",
      "geometry": {
        "type": "Point",
        "coordinates": [
          153.568,
          -28.861
        ]
      },
      "properties": {
        "id": 941,
        "location": "Ballina, Australia",
        "updated_at": "2023-03-10 21:46:06 UTC",
        "last_record_at": "2023-03-10 00:00:00 UTC",
        "total_7_days": 1.0,
        "total_30_days": 284.0
      }
    },
    {
      "type": "Feature",
      "geometry": {
        "type": "Point",
        "coordinates": [
          21.25,
          48.73
        ]
      },
      "properties": {
        "id": 1076,
        "location": "Kosice, Slovakia",
        "updated_at": "2023-03-11 08:40:28 UTC",
        "last_record_at": "2023-03-10 00:00:00 UTC",
        "total_7_days": 13.0,
        "total_30_days": 22.0
      }
    },
    {
      "type": "Feature",
      "geometry": {
        "type": "Point",
        "coordinates": [
          18.5,
          -12.5
        ]
      },
      "properties": {
        "id": 1128,
        "location": "Angola",
        "updated_at": "2023-03-11 06:56:27 UTC",
        "last_record_at": "2023-03-10 00:00:00 UTC",
        "total_7_days": 14.0,
        "total_30_days": 60.0
      }
    },
    {
      "type": "Feature",
      "geometry": {
        "type": "Point",
        "coordinates": [
          145.824,
          -38.432
        ]
      },
      "properties": {
        "id": 994,
        "location": "Melbourne, Australia",
        "updated_at": "2023-03-07 13:20:08 UTC",
        "last_record_at": "2023-03-02 00:00:00 UTC",
        "total_7_days": 0,
        "total_30_days": 2.0
      }
    },
    {
      "type": "Feature",
      "geometry": {
        "type": "Point",
        "coordinates": [
          144.564,
          -37.421
        ]
      },
      "properties": {
        "id": 373,
        "location": "Macedon, Australia",
        "updated_at": "2023-03-05 22:01:29 UTC",
        "last_record_at": "2023-03-06 00:00:00 UTC",
        "total_7_days": 0,
        "total_30_days": 23.0
      }
    },
    {
      "type": "Feature",
      "geometry": {
        "type": "Point",
        "coordinates": [
          147.61,
          -37.83
        ]
      },
      "properties": {
        "id": 815,
        "location": "Bairnsdale, Australia",
        "updated_at": "2023-03-05 20:10:13 UTC",
        "last_record_at": "2023-03-05 00:00:00 UTC",
        "total_7_days": 0,
        "total_30_days": 11.0
      }
    },
    {
      "type": "Feature",
      "geometry": {
        "type": "Point",
        "coordinates": [
          26.22,
          -29.078
        ]
      },
      "properties": {
        "id": 768,
        "location": "Bloemfontein, South Africa",
        "updated_at": "2023-03-12 04:46:46 UTC",
        "last_record_at": "2023-03-11 00:00:00 UTC",
        "total_7_days": 64.0,
        "total_30_days": 135.0
      }
    },
    {
      "type": "Feature",
      "geometry": {
        "type": "Point",
        "coordinates": [
          152.35,
          -27.459
        ]
      },
      "properties": {
        "id": 129,
        "location": "Spring Creek",
        "updated_at": "2023-03-12 20:22:36 UTC",
        "last_record_at": "2023-03-12 00:00:00 UTC",
        "total_7_days": 61.0,
        "total_30_days": 72.0
      }
    },
    {
      "type": "Feature",
      "geometry": {
        "type": "Point",
        "coordinates": [
          145.283,
          -38.1
        ]
      },
      "properties": {
        "id": 836,
        "location": "Cranbourne, Australia",
        "updated_at": "2023-03-08 07:16:44 UTC",
        "last_record_at": "2023-03-08 00:00:00 UTC",
        "total_7_days": 18.0,
        "total_30_days": 22.0
      }
    },
    {
      "type": "Feature",
      "geometry": {
        "type": "Point",
        "coordinates": [
          138.552,
          -34.898
        ]
      },
      "properties": {
        "id": 507,
        "location": "Beverley, Australia",
        "updated_at": "2023-03-07 22:10:22 UTC",
        "last_record_at": "2023-03-08 00:00:00 UTC",
        "total_7_days": 4.5,
        "total_30_days": 21.5
      }
    },
    {
      "type": "Feature",
      "geometry": {
        "type": "Point",
        "coordinates": [
          121.861,
          -33.833
        ]
      },
      "properties": {
        "id": 904,
        "location": "Esperance, Australia",
        "updated_at": "2023-03-11 11:29:50 UTC",
        "last_record_at": "2023-03-11 00:00:00 UTC",
        "total_7_days": 3.6,
        "total_30_days": 15.4
      }
    },
    {
      "type": "Feature",
      "geometry": {
        "type": "Point",
        "coordinates": [
          -2.487,
          51.826
        ]
      },
      "properties": {
        "id": 885,
        "location": "United Kingdom of Great Britain and Northern Ireland",
        "updated_at": "2023-03-13 07:04:37 UTC",
        "last_record_at": "2023-03-13 00:00:00 UTC",
        "total_7_days": 1.55,
        "total_30_days": 2.3
      }
    },
    {
      "type": "Feature",
      "geometry": {
        "type": "Point",
        "coordinates": [
          133.0,
          -27.0
        ]
      },
      "properties": {
        "id": 1132,
        "location": "Australia",
        "updated_at": "2023-03-11 20:36:37 UTC",
        "last_record_at": "2023-03-11 00:00:00 UTC",
        "total_7_days": 62.0,
        "total_30_days": 75.0
      }
    },
    {
      "type": "Feature",
      "geometry": {
        "type": "Point",
        "coordinates": [
          152.787,
          -25.364
        ]
      },
      "properties": {
        "id": 468,
        "location": "Sunshine Acres",
        "updated_at": "2023-03-13 07:19:06 UTC",
        "last_record_at": "2023-03-13 00:00:00 UTC",
        "total_7_days": 91.5,
        "total_30_days": 147.5
      }
    },
    {
      "type": "Feature",
      "geometry": {
        "type": "Point",
        "coordinates": [
          30.902,
          -25.534
        ]
      },
      "properties": {
        "id": 951,
        "location": "Nelspruit, South Africa",
        "updated_at": "2023-03-07 04:07:40 UTC",
        "last_record_at": "2023-03-07 00:00:00 UTC",
        "total_7_days": 8.0,
        "total_30_days": 99.0
      }
    },
    {
      "type": "Feature",
      "geometry": {
        "type": "Point",
        "coordinates": [
          31.157,
          -25.681
        ]
      },
      "properties": {
        "id": 923,
        "location": "Nelspruit, South Africa",
        "updated_at": "2023-03-07 10:44:52 UTC",
        "last_record_at": "2023-03-07 00:00:00 UTC",
        "total_7_days": 8.0,
        "total_30_days": 148.0
      }
    },
    {
      "type": "Feature",
      "geometry": {
        "type": "Point",
        "coordinates": [
          146.77,
          -19.25
        ]
      },
      "properties": {
        "id": 1035,
        "location": "Townsville, Australia",
        "updated_at": "2023-02-19 21:10:14 UTC",
        "last_record_at": "2023-02-20 00:00:00 UTC",
        "total_7_days": 0,
        "total_30_days": 79.0
      }
    },
    {
      "type": "Feature",
      "geometry": {
        "type": "Point",
        "coordinates": [
          27.984,
          -26.011
        ]
      },
      "properties": {
        "id": 1124,
        "location": "Johannesburg, South Africa",
        "updated_at": "2023-03-01 17:13:51 UTC",
        "last_record_at": "2023-02-28 00:00:00 UTC",
        "total_7_days": 0,
        "total_30_days": 114.0
      }
    },
    {
      "type": "Feature",
      "geometry": {
        "type": "Point",
        "coordinates": [
          "133.000",
          "-27.000"
        ]
      },
      "properties": {
        "id": 712,
        "location": "Kenton Valley, Australia",
        "updated_at": "2023-02-25 08:52:56 UTC",
        "last_record_at": "2023-02-24 00:00:00 UTC",
        "total_7_days": 0,
        "total_30_days": 13.5
      }
    },
    {
      "type": "Feature",
      "geometry": {
        "type": "Point",
        "coordinates": [
          144.25,
          -23.45
        ]
      },
      "properties": {
        "id": 1162,
        "location": "Longreach, Australia",
        "updated_at": "2023-02-19 21:13:34 UTC",
        "last_record_at": "2023-02-07 00:00:00 UTC"
      }
    },
    {
      "type": "Feature",
      "geometry": {
        "type": "Point",
        "coordinates": [
          28.58,
          -20.17
        ]
      },
      "properties": {
        "id": 770,
        "location": "Bulawayo, Zimbabwe",
        "updated_at": "2023-02-19 07:51:59 UTC",
        "last_record_at": "2023-02-19 00:00:00 UTC",
        "total_7_days": 0,
        "total_30_days": 132.0
      }
    },
    {
      "type": "Feature",
      "geometry": {
        "type": "Point",
        "coordinates": [
          144.25,
          -23.45
        ]
      },
      "properties": {
        "id": 1159,
        "location": "Longreach, Australia",
        "updated_at": "2023-02-09 08:53:36 UTC",
        "last_record_at": "2023-02-07 00:00:00 UTC"
      }
    },
    {
      "type": "Feature",
      "geometry": {
        "type": "Point",
        "coordinates": [
          152.02,
          -28.229
        ]
      },
      "properties": {
        "id": 882,
        "location": "Warwick, Australia",
        "updated_at": "2023-02-15 02:58:42 UTC",
        "last_record_at": "2023-02-14 00:00:00 UTC",
        "total_7_days": 0,
        "total_30_days": 3.0
      }
    },
    {
      "type": "Feature",
      "geometry": {
        "type": "Point",
        "coordinates": [
          144.442,
          -37.396
        ]
      },
      "properties": {
        "id": 1203,
        "location": "Sunbury, Australia",
        "updated_at": "2023-02-27 22:49:32 UTC",
        "last_record_at": "2023-02-28 00:00:00 UTC",
        "total_7_days": 0,
        "total_30_days": 4.5
      }
    },
    {
      "type": "Feature",
      "geometry": {
        "type": "Point",
        "coordinates": [
          -2.717,
          52.05
        ]
      },
      "properties": {
        "id": 1205,
        "location": "Hereford, United Kingdom of Great Britain and Northern Ireland",
        "updated_at": "2023-03-03 15:10:58 UTC",
        "last_record_at": "2023-02-01 00:00:00 UTC"
      }
    },
    {
      "type": "Feature",
      "geometry": {
        "type": "Point",
        "coordinates": [
          "24.000",
          "-29.000"
        ]
      },
      "properties": {
        "id": 706,
        "location": "Lone Hill, Johannesburg, South Africa, South Africa",
        "updated_at": "2023-02-04 12:32:35 UTC",
        "last_record_at": "2023-02-03 00:00:00 UTC"
      }
    },
    {
      "type": "Feature",
      "geometry": {
        "type": "Point",
        "coordinates": [
          -0.883,
          52.25
        ]
      },
      "properties": {
        "id": 830,
        "location": "Northampton, United Kingdom of Great Britain and Northern Ireland",
        "updated_at": "2023-02-25 13:51:09 UTC",
        "last_record_at": "2023-02-24 00:00:00 UTC",
        "total_7_days": 0,
        "total_30_days": 9.9
      }
    },
    {
      "type": "Feature",
      "geometry": {
        "type": "Point",
        "coordinates": [
          "133.000",
          "-27.000"
        ]
      },
      "properties": {
        "id": 681,
        "location": "Urangan. Hervey Bay, Australia",
        "updated_at": "2023-02-14 21:41:47 UTC",
        "last_record_at": "2023-02-14 00:00:00 UTC",
        "total_7_days": 0,
        "total_30_days": 23.0
      }
    },
    {
      "type": "Feature",
      "geometry": {
        "type": "Point",
        "coordinates": [
          27.24,
          -25.65
        ]
      },
      "properties": {
        "id": 1165,
        "location": "Rustenburg, South Africa",
        "updated_at": "2023-02-12 04:55:51 UTC",
        "last_record_at": "2023-02-12 00:00:00 UTC",
        "total_7_days": 0,
        "total_30_days": 17.0
      }
    },
    {
      "type": "Feature",
      "geometry": {
        "type": "Point",
        "coordinates": [
          17.084,
          -22.57
        ]
      },
      "properties": {
        "id": 823,
        "location": "Windhoek, Namibia",
        "updated_at": "2023-02-28 04:10:38 UTC",
        "last_record_at": "2023-02-27 00:00:00 UTC",
        "total_7_days": 0,
        "total_30_days": 2.0
      }
    },
    {
      "type": "Feature",
      "geometry": {
        "type": "Point",
        "coordinates": [
          144.25,
          -23.45
        ]
      },
      "properties": {
        "id": 1157,
        "location": "Longreach, Australia",
        "updated_at": "2023-02-19 21:12:10 UTC",
        "last_record_at": "2023-02-07 00:00:00 UTC"
      }
    },
    {
      "type": "Feature",
      "geometry": {
        "type": "Point",
        "coordinates": [
          149.129,
          -35.283
        ]
      },
      "properties": {
        "id": 905,
        "location": "Canberra, Australia",
        "updated_at": "2023-02-21 21:55:08 UTC",
        "last_record_at": "2023-02-22 00:00:00 UTC",
        "total_7_days": 0,
        "total_30_days": 27.0
      }
    },
    {
      "type": "Feature",
      "geometry": {
        "type": "Point",
        "coordinates": [
          28.229,
          -25.707
        ]
      },
      "properties": {
        "id": 1202,
        "location": "Pretoria, South Africa",
        "updated_at": "2023-02-18 15:38:14 UTC",
        "last_record_at": "2023-02-17 00:00:00 UTC",
        "total_7_days": 0,
        "total_30_days": 23.0
      }
    },
    {
      "type": "Feature",
      "geometry": {
        "type": "Point",
        "coordinates": [
          150.469,
          -33.726
        ]
      },
      "properties": {
        "id": 720,
        "location": "Hazelbrook, Australia",
        "updated_at": "2023-02-28 04:20:31 UTC",
        "last_record_at": "2023-02-28 00:00:00 UTC",
        "total_7_days": 0,
        "total_30_days": 64.75
      }
    },
    {
      "type": "Feature",
      "geometry": {
        "type": "Point",
        "coordinates": [
          150.738,
          -35.071
        ]
      },
      "properties": {
        "id": 927,
        "location": "Australia",
        "updated_at": "2023-02-09 21:16:40 UTC",
        "last_record_at": "2023-02-10 00:00:00 UTC"
      }
    },
    {
      "type": "Feature",
      "geometry": {
        "type": "Point",
        "coordinates": [
          172.867,
          -43.691
        ]
      },
      "properties": {
        "id": 721,
        "location": "Akaroa, New Zealand",
        "updated_at": "2023-02-15 07:57:17 UTC",
        "last_record_at": "2023-02-15 00:00:00 UTC",
        "total_7_days": 0,
        "total_30_days": 102.0
      }
    },
    {
      "type": "Feature",
      "geometry": {
        "type": "Point",
        "coordinates": [
          144.25,
          -23.45
        ]
      },
      "properties": {
        "id": 1075,
        "location": "Longreach, Australia",
        "updated_at": "2023-02-20 22:57:09 UTC",
        "last_record_at": "2023-02-21 00:00:00 UTC",
        "total_7_days": 0,
        "total_30_days": 7.6
      }
    },
    {
      "type": "Feature",
      "geometry": {
        "type": "Point",
        "coordinates": [
          174.323,
          -35.726
        ]
      },
      "properties": {
        "id": 1029,
        "location": "Whangarei, New Zealand",
        "updated_at": "2023-02-28 19:14:44 UTC",
        "last_record_at": "2023-02-27 00:00:00 UTC",
        "total_7_days": 0,
        "total_30_days": 327.0
      }
    },
    {
      "type": "Feature",
      "geometry": {
        "type": "Point",
        "coordinates": [
          27.24,
          -25.65
        ]
      },
      "properties": {
        "id": 1168,
        "location": "Rustenburg, South Africa",
        "updated_at": "2023-02-28 03:47:57 UTC",
        "last_record_at": "2023-02-28 00:00:00 UTC",
        "total_7_days": 0,
        "total_30_days": 48.0
      }
    },
    {
      "type": "Feature",
      "geometry": {
        "type": "Point",
        "coordinates": [
          144.25,
          -23.45
        ]
      },
      "properties": {
        "id": 1161,
        "location": "Longreach, Australia",
        "updated_at": "2023-02-19 21:13:22 UTC",
        "last_record_at": "2023-02-07 00:00:00 UTC"
      }
    },
    {
      "type": "Feature",
      "geometry": {
        "type": "Point",
        "coordinates": [
          17.084,
          -22.57
        ]
      },
      "properties": {
        "id": 894,
        "location": "Windhoek, Namibia",
        "updated_at": "2023-02-28 05:44:23 UTC",
        "last_record_at": "2023-02-27 00:00:00 UTC",
        "total_7_days": 0,
        "total_30_days": 26.0
      }
    },
    {
      "type": "Feature",
      "geometry": {
        "type": "Point",
        "coordinates": [
          144.25,
          -23.45
        ]
      },
      "properties": {
        "id": 1163,
        "location": "Longreach, Australia",
        "updated_at": "2023-02-19 21:13:09 UTC",
        "last_record_at": "2023-02-07 00:00:00 UTC"
      }
    },
    {
      "type": "Feature",
      "geometry": {
        "type": "Point",
        "coordinates": [
          145.763,
          -16.888
        ]
      },
      "properties": {
        "id": 1204,
        "location": "Cairns, Australia",
        "updated_at": "2023-02-26 21:36:07 UTC",
        "last_record_at": "2023-02-27 00:00:00 UTC",
        "total_7_days": 0,
        "total_30_days": 27.0
      }
    },
    {
      "type": "Feature",
      "geometry": {
        "type": "Point",
        "coordinates": [
          145.34,
          -17.35
        ]
      },
      "properties": {
        "id": 1139,
        "location": "Atherton, Australia",
        "updated_at": "2023-02-10 23:42:09 UTC",
        "last_record_at": "2023-02-10 00:00:00 UTC"
      }
    },
    {
      "type": "Feature",
      "geometry": {
        "type": "Point",
        "coordinates": [
          "133.000",
          "-27.000"
        ]
      },
      "properties": {
        "id": 633,
        "location": "Yass, Australia",
        "updated_at": "2023-03-02 02:03:37 UTC",
        "last_record_at": "2023-02-21 00:00:00 UTC",
        "total_7_days": 0,
        "total_30_days": 22.0
      }
    },
    {
      "type": "Feature",
      "geometry": {
        "type": "Point",
        "coordinates": [
          174.763,
          -36.848
        ]
      },
      "properties": {
        "id": 767,
        "location": "Auckland, New Zealand",
        "updated_at": "2023-02-28 19:50:58 UTC",
        "last_record_at": "2023-02-28 00:00:00 UTC",
        "total_7_days": 0,
        "total_30_days": 243.0
      }
    },
    {
      "type": "Feature",
      "geometry": {
        "type": "Point",
        "coordinates": [
          "133.000",
          "-27.000"
        ]
      },
      "properties": {
        "id": 603,
        "location": "Barragga Bay, Australia",
        "updated_at": "2023-03-01 06:35:26 UTC",
        "last_record_at": "2023-02-28 00:00:00 UTC",
        "total_7_days": 0,
        "total_30_days": 6.8
      }
    },
    {
      "type": "Feature",
      "geometry": {
        "type": "Point",
        "coordinates": [
          144.25,
          -23.45
        ]
      },
      "properties": {
        "id": 1160,
        "location": "Longreach, Australia",
        "updated_at": "2023-02-09 08:53:15 UTC",
        "last_record_at": "2023-02-07 00:00:00 UTC"
      }
    },
    {
      "type": "Feature",
      "geometry": {
        "type": "Point",
        "coordinates": [
          178.018,
          -38.663
        ]
      },
      "properties": {
        "id": 518,
        "location": "Gisborne, New Zealand",
        "updated_at": "2023-03-06 23:29:56 UTC",
        "last_record_at": "2023-02-28 00:00:00 UTC",
        "total_7_days": 0,
        "total_30_days": 646.6
      }
    },
    {
      "type": "Feature",
      "geometry": {
        "type": "Point",
        "coordinates": [
          148.898,
          -34.847
        ]
      },
      "properties": {
        "id": 1156,
        "location": "Goulburn, Australia",
        "updated_at": "2023-01-30 22:05:25 UTC",
        "last_record_at": "2023-01-31 00:00:00 UTC"
      }
    },
    {
      "type": "Feature",
      "geometry": {
        "type": "Point",
        "coordinates": [
          -90.649,
          38.501
        ]
      },
      "properties": {
        "id": 1145,
        "location": "Eureka, United States of America",
        "updated_at": "2023-01-08 07:38:41 UTC",
        "last_record_at": "2023-01-07 00:00:00 UTC"
      }
    },
    {
      "type": "Feature",
      "geometry": {
        "type": "Point",
        "coordinates": [
          80.74,
          16.08
        ]
      },
      "properties": {
        "id": 1077,
        "location": "Guntur, India",
        "updated_at": "2023-01-31 10:00:06 UTC",
        "last_record_at": "2023-01-22 00:00:00 UTC"
      }
    },
    {
      "type": "Feature",
      "geometry": {
        "type": "Point",
        "coordinates": [
          145.681,
          -17.557
        ]
      },
      "properties": {
        "id": 1137,
        "location": "Innisfail, Australia",
        "updated_at": "2023-01-31 14:05:04 UTC",
        "last_record_at": "2023-01-31 00:00:00 UTC"
      }
    },
    {
      "type": "Feature",
      "geometry": {
        "type": "Point",
        "coordinates": [
          151.139,
          -33.824
        ]
      },
      "properties": {
        "id": 487,
        "location": "Hunters Hill",
        "updated_at": "2023-01-28 06:38:06 UTC",
        "last_record_at": "2023-01-24 00:00:00 UTC"
      }
    },
    {
      "type": "Feature",
      "geometry": {
        "type": "Point",
        "coordinates": [
          144.396,
          -38.167
        ]
      },
      "properties": {
        "id": 928,
        "location": "Geelong, Australia",
        "updated_at": "2023-01-24 06:29:33 UTC",
        "last_record_at": "2023-01-24 00:00:00 UTC"
      }
    },
    {
      "type": "Feature",
      "geometry": {
        "type": "Point",
        "coordinates": [
          118.78,
          -32.75
        ]
      },
      "properties": {
        "id": 917,
        "location": "Australia",
        "updated_at": "2023-01-31 03:37:40 UTC",
        "last_record_at": "2023-01-31 00:00:00 UTC"
      }
    },
    {
      "type": "Feature",
      "geometry": {
        "type": "Point",
        "coordinates": [
          -85.511,
          36.148
        ]
      },
      "properties": {
        "id": 1133,
        "location": "Cookeville, United States of America",
        "updated_at": "2023-01-03 22:07:29 UTC",
        "last_record_at": "2023-01-03 00:00:00 UTC"
      }
    },
    {
      "type": "Feature",
      "geometry": {
        "type": "Point",
        "coordinates": [
          153.613,
          -28.657
        ]
      },
      "properties": {
        "id": 1144,
        "location": "Byron Bay, Australia",
        "updated_at": "2023-01-04 23:51:15 UTC",
        "last_record_at": "2023-01-05 00:00:00 UTC"
      }
    },
    {
      "type": "Feature",
      "geometry": {
        "type": "Point",
        "coordinates": [
          118.87,
          -32.78
        ]
      },
      "properties": {
        "id": 875,
        "location": "Narrogin, Australia",
        "updated_at": "2023-01-31 03:57:34 UTC",
        "last_record_at": "2023-01-31 00:00:00 UTC"
      }
    },
    {
      "type": "Feature",
      "geometry": {
        "type": "Point",
        "coordinates": [
          145.469,
          -17.27
        ]
      },
      "properties": {
        "id": 1148,
        "location": "Atherton, Australia",
        "updated_at": "2023-02-04 04:02:17 UTC",
        "last_record_at": "2023-01-31 00:00:00 UTC"
      }
    },
    {
      "type": "Feature",
      "geometry": {
        "type": "Point",
        "coordinates": [
          118.78,
          -32.87
        ]
      },
      "properties": {
        "id": 874,
        "location": "Australia",
        "updated_at": "2023-01-31 03:19:13 UTC",
        "last_record_at": "2023-01-31 00:00:00 UTC"
      }
    },
    {
      "type": "Feature",
      "geometry": {
        "type": "Point",
        "coordinates": [
          145.469,
          -17.27
        ]
      },
      "properties": {
        "id": 1164,
        "location": "Atherton, Australia",
        "updated_at": "2023-01-31 14:16:33 UTC",
        "last_record_at": "2023-01-31 00:00:00 UTC"
      }
    },
    {
      "type": "Feature",
      "geometry": {
        "type": "Point",
        "coordinates": [
          -0.533,
          53.233
        ]
      },
      "properties": {
        "id": 1141,
        "location": "Lincoln, United Kingdom of Great Britain and Northern Ireland",
        "updated_at": "2023-01-08 10:45:34 UTC",
        "last_record_at": "2023-01-08 00:00:00 UTC"
      }
    },
    {
      "type": "Feature",
      "geometry": {
        "type": "Point",
        "coordinates": [
          80.72,
          16.074
        ]
      },
      "properties": {
        "id": 1078,
        "location": "Guntur, India",
        "updated_at": "2023-01-31 09:58:44 UTC",
        "last_record_at": "2023-01-14 00:00:00 UTC"
      }
    },
    {
      "type": "Feature",
      "geometry": {
        "type": "Point",
        "coordinates": [
          131.1,
          -13.249
        ]
      },
      "properties": {
        "id": 1140,
        "location": "Adelaide River, Australia",
        "updated_at": "2023-01-30 02:16:15 UTC",
        "last_record_at": "2023-01-30 00:00:00 UTC"
      }
    },
    {
      "type": "Feature",
      "geometry": {
        "type": "Point",
        "coordinates": [
          152.755,
          -26.37
        ]
      },
      "properties": {
        "id": 209,
        "location": "Coles Creek, Australia",
        "updated_at": "2023-01-04 22:47:34 UTC",
        "last_record_at": "2023-01-04 00:00:00 UTC"
      }
    },
    {
      "type": "Feature",
      "geometry": {
        "type": "Point",
        "coordinates": [
          "133.000",
          "-27.000"
        ]
      },
      "properties": {
        "id": 563,
        "location": "St Morris, Australia",
        "updated_at": "2023-01-10 00:07:39 UTC",
        "last_record_at": "2022-12-21 00:00:00 UTC"
      }
    },
    {
      "type": "Feature",
      "geometry": {
        "type": "Point",
        "coordinates": [
          24.827,
          -28.471
        ]
      },
      "properties": {
        "id": 826,
        "location": "Kimberley, South Africa",
        "updated_at": "2023-01-01 05:25:44 UTC",
        "last_record_at": "2022-12-31 00:00:00 UTC"
      }
    },
    {
      "type": "Feature",
      "geometry": {
        "type": "Point",
        "coordinates": [
          18.435,
          -33.92
        ]
      },
      "properties": {
        "id": 1153,
        "location": "Cape Town, South Africa",
        "updated_at": "2023-01-21 15:55:37 UTC",
        "last_record_at": "2022-12-30 00:00:00 UTC"
      }
    },
    {
      "type": "Feature",
      "geometry": {
        "type": "Point",
        "coordinates": [
          152.784,
          -26.592
        ]
      },
      "properties": {
        "id": 453,
        "location": "Coolabine",
        "updated_at": "2023-01-01 02:06:14 UTC",
        "last_record_at": "2022-12-31 00:00:00 UTC"
      }
    },
    {
      "type": "Feature",
      "geometry": {
        "type": "Point",
        "coordinates": [
          -124.142,
          40.586
        ]
      },
      "properties": {
        "id": 1130,
        "location": "Fortuna, United States of America",
        "updated_at": "2022-12-02 02:56:03 UTC",
        "last_record_at": "2022-12-01 00:00:00 UTC"
      }
    },
    {
      "type": "Feature",
      "geometry": {
        "type": "Point",
        "coordinates": [
          25.263,
          -28.405
        ]
      },
      "properties": {
        "id": 827,
        "location": "South Africa",
        "updated_at": "2022-12-31 13:19:47 UTC",
        "last_record_at": "2022-12-28 00:00:00 UTC"
      }
    },
    {
      "type": "Feature",
      "geometry": {
        "type": "Point",
        "coordinates": [
          -124.142,
          40.586
        ]
      },
      "properties": {
        "id": 1131,
        "location": "Fortuna, United States of America",
        "updated_at": "2022-12-04 18:48:54 UTC",
        "last_record_at": "2022-12-03 00:00:00 UTC"
      }
    },
    {
      "type": "Feature",
      "geometry": {
        "type": "Point",
        "coordinates": [
          -100.518,
          31.411
        ]
      },
      "properties": {
        "id": 586,
        "location": "Early, United states",
        "updated_at": "2023-01-29 21:24:41 UTC",
        "last_record_at": "2022-12-10 00:00:00 UTC"
      }
    },
    {
      "type": "Feature",
      "geometry": {
        "type": "Point",
        "coordinates": [
          115.878,
          -32.049
        ]
      },
      "properties": {
        "id": 138,
        "location": "Willetton, Australia",
        "updated_at": "2022-11-23 00:11:51 UTC",
        "last_record_at": "2022-11-23 00:00:00 UTC"
      }
    },
    {
      "type": "Feature",
      "geometry": {
        "type": "Point",
        "coordinates": [
          115.882,
          -32.12
        ]
      },
      "properties": {
        "id": 903,
        "location": "Perth, Australia",
        "updated_at": "2022-11-23 02:09:14 UTC",
        "last_record_at": "2022-11-23 00:00:00 UTC"
      }
    },
    {
      "type": "Feature",
      "geometry": {
        "type": "Point",
        "coordinates": [
          149.211,
          -35.355
        ]
      },
      "properties": {
        "id": 1121,
        "location": "Queanbeyan, Australia",
        "updated_at": "2022-11-06 02:02:51 UTC",
        "last_record_at": "2022-11-05 00:00:00 UTC"
      }
    },
    {
      "type": "Feature",
      "geometry": {
        "type": "Point",
        "coordinates": [
          119.069,
          -32.731
        ]
      },
      "properties": {
        "id": 1071,
        "location": "Australia",
        "updated_at": "2022-11-23 02:15:35 UTC",
        "last_record_at": "2022-11-23 00:00:00 UTC"
      }
    },
    {
      "type": "Feature",
      "geometry": {
        "type": "Point",
        "coordinates": [
          "133.000",
          "-27.000"
        ]
      },
      "properties": {
        "id": 748,
        "location": "Bolgart, Australia",
        "updated_at": "2022-11-23 09:20:32 UTC",
        "last_record_at": "2022-11-23 00:00:00 UTC"
      }
    },
    {
      "type": "Feature",
      "geometry": {
        "type": "Point",
        "coordinates": [
          29.45,
          -23.89
        ]
      },
      "properties": {
        "id": 1122,
        "location": "Polokwane, South Africa",
        "updated_at": "2022-11-06 19:28:32 UTC",
        "last_record_at": "2022-11-04 00:00:00 UTC"
      }
    },
    {
      "type": "Feature",
      "geometry": {
        "type": "Point",
        "coordinates": [
          146.77,
          -19.25
        ]
      },
      "properties": {
        "id": 1129,
        "location": "Townsville, Australia",
        "updated_at": "2022-11-27 21:51:30 UTC",
        "last_record_at": "2022-11-28 00:00:00 UTC"
      }
    },
    {
      "type": "Feature",
      "geometry": {
        "type": "Point",
        "coordinates": [
          115.705,
          -31.634
        ]
      },
      "properties": {
        "id": 764,
        "location": "Perth, Australia",
        "updated_at": "2022-11-18 09:33:07 UTC",
        "last_record_at": "2022-11-18 00:00:00 UTC"
      }
    },
    {
      "type": "Feature",
      "geometry": {
        "type": "Point",
        "coordinates": [
          145.65,
          -35.92
        ]
      },
      "properties": {
        "id": 995,
        "location": "Cobram, Australia",
        "updated_at": "2022-11-21 05:23:35 UTC",
        "last_record_at": "2022-11-21 00:00:00 UTC"
      }
    },
    {
      "type": "Feature",
      "geometry": {
        "type": "Point",
        "coordinates": [
          "133.000",
          "-27.000"
        ]
      },
      "properties": {
        "id": 697,
        "location": "CROYDON NORTH, Australia",
        "updated_at": "2022-11-06 02:27:08 UTC",
        "last_record_at": "2022-11-04 00:00:00 UTC"
      }
    },
    {
      "type": "Feature",
      "geometry": {
        "type": "Point",
        "coordinates": [
          144.396,
          -38.167
        ]
      },
      "properties": {
        "id": 755,
        "location": "Geelong, Australia",
        "updated_at": "2022-11-16 11:59:26 UTC",
        "last_record_at": "2022-11-16 00:00:00 UTC"
      }
    },
    {
      "type": "Feature",
      "geometry": {
        "type": "Point",
        "coordinates": [
          144.28,
          -36.76
        ]
      },
      "properties": {
        "id": 1123,
        "location": "Bendigo, Australia",
        "updated_at": "2022-11-19 23:17:06 UTC",
        "last_record_at": "2022-11-18 00:00:00 UTC"
      }
    },
    {
      "type": "Feature",
      "geometry": {
        "type": "Point",
        "coordinates": [
          138.833,
          -35.374
        ]
      },
      "properties": {
        "id": 1127,
        "location": "Australia",
        "updated_at": "2022-11-19 04:02:10 UTC",
        "last_record_at": "2022-11-19 00:00:00 UTC"
      }
    },
    {
      "type": "Feature",
      "geometry": {
        "type": "Point",
        "coordinates": [
          144.975,
          -37.82
        ]
      },
      "properties": {
        "id": 1116,
        "location": "Melbourne, Australia",
        "updated_at": "2022-10-14 02:50:20 UTC",
        "last_record_at": "2022-10-13 00:00:00 UTC"
      }
    },
    {
      "type": "Feature",
      "geometry": {
        "type": "Point",
        "coordinates": [
          "133.000",
          "-27.000"
        ]
      },
      "properties": {
        "id": 737,
        "location": "Lalalty, Australia",
        "updated_at": "2022-10-29 00:07:38 UTC",
        "last_record_at": "2022-10-28 00:00:00 UTC"
      }
    },
    {
      "type": "Feature",
      "geometry": {
        "type": "Point",
        "coordinates": [
          -86.784,
          36.171
        ]
      },
      "properties": {
        "id": 1073,
        "location": "Nashville, United States of America",
        "updated_at": "2022-10-30 12:25:01 UTC",
        "last_record_at": "2022-10-30 00:00:00 UTC"
      }
    },
    {
      "type": "Feature",
      "geometry": {
        "type": "Point",
        "coordinates": [
          115.84,
          -31.955
        ]
      },
      "properties": {
        "id": 873,
        "location": "Perth, Australia",
        "updated_at": "2022-09-06 01:22:04 UTC",
        "last_record_at": "2022-09-06 00:00:00 UTC"
      }
    },
    {
      "type": "Feature",
      "geometry": {
        "type": "Point",
        "coordinates": [
          -81.0,
          27.0
        ]
      },
      "properties": {
        "id": 1080,
        "location": "United States of America",
        "updated_at": "2022-09-11 19:22:33 UTC",
        "last_record_at": "2022-09-09 00:00:00 UTC"
      }
    },
    {
      "type": "Feature",
      "geometry": {
        "type": "Point",
        "coordinates": [
          -2.583,
          51.45
        ]
      },
      "properties": {
        "id": 942,
        "location": "Bristol, United Kingdom of Great Britain and Northern Ireland",
        "updated_at": "2022-08-17 20:43:00 UTC",
        "last_record_at": "2022-08-16 00:00:00 UTC"
      }
    },
    {
      "type": "Feature",
      "geometry": {
        "type": "Point",
        "coordinates": [
          151.841,
          -26.539
        ]
      },
      "properties": {
        "id": 991,
        "location": "Kingaroy, Australia",
        "updated_at": "2022-08-13 07:46:58 UTC",
        "last_record_at": "2022-08-13 00:00:00 UTC"
      }
    },
    {
      "type": "Feature",
      "geometry": {
        "type": "Point",
        "coordinates": [
          145.911,
          -17.26
        ]
      },
      "properties": {
        "id": 822,
        "location": "Cairns, Australia",
        "updated_at": "2022-07-05 05:19:22 UTC",
        "last_record_at": "2022-07-05 00:00:00 UTC"
      }
    }
  ]
}