{
  "type": "FeatureCollection",
  "features": [
    {
      "type": "Feature",
      "geometry": {
        "type": "Point",
        "coordinates": [
          19.031,
          -34.203
        ]
      },
      "properties": {
        "id": 1207,
        "location": "Hermanus, South Africa",
        "updated_at": "2023-06-26 05:47:47 UTC",
        "last_record_at": "2023-06-26 00:00:00 UTC",
        "total_7_days": 8.0,
        "total_30_days": 352.0
      }
    },
    {
      "type": "Feature",
      "geometry": {
        "type": "Point",
        "coordinates": [
          "133.000",
          "-27.000"
        ]
      },
      "properties": {
        "id": 712,
        "location": "Kenton Valley, Australia",
        "updated_at": "2023-06-26 22:49:03 UTC",
        "last_record_at": "2023-06-26 00:00:00 UTC",
        "total_7_days": 87.0,
        "total_30_days": 203.5
      }
    },
    {
      "type": "Feature",
      "geometry": {
        "type": "Point",
        "coordinates": [
          "133.000",
          "-27.000"
        ]
      },
      "properties": {
        "id": 669,
        "location": "Ashburton, Australia",
        "updated_at": "2023-06-28 11:00:48 UTC",
        "last_record_at": "2023-06-28 00:00:00 UTC",
        "total_7_days": 8.1,
        "total_30_days": 29.4
      }
    },
    {
      "type": "Feature",
      "geometry": {
        "type": "Point",
        "coordinates": [
          21.25,
          48.73
        ]
      },
      "properties": {
        "id": 1076,
        "location": "Kosice, Slovakia",
        "updated_at": "2023-06-27 16:51:36 UTC",
        "last_record_at": "2023-06-27 00:00:00 UTC",
        "total_7_days": 58.0,
        "total_30_days": 109.0
      }
    },
    {
      "type": "Feature",
      "geometry": {
        "type": "Point",
        "coordinates": [
          148.444,
          -33.909
        ]
      },
      "properties": {
        "id": 465,
        "location": "Bumbaldry",
        "updated_at": "2023-06-28 08:25:22 UTC",
        "last_record_at": "2023-06-25 00:00:00 UTC",
        "total_7_days": 13.0,
        "total_30_days": 47.0
      }
    },
    {
      "type": "Feature",
      "geometry": {
        "type": "Point",
        "coordinates": [
          151.953,
          -24.99
        ]
      },
      "properties": {
        "id": 943,
        "location": "Bundaberg, Australia",
        "updated_at": "2023-06-12 09:40:06 UTC",
        "last_record_at": "2023-06-06 00:00:00 UTC",
        "total_7_days": 0,
        "total_30_days": 15.0
      }
    },
    {
      "type": "Feature",
      "geometry": {
        "type": "Point",
        "coordinates": [
          150.469,
          -33.726
        ]
      },
      "properties": {
        "id": 720,
        "location": "Hazelbrook, Australia",
        "updated_at": "2023-06-23 08:20:32 UTC",
        "last_record_at": "2023-06-23 00:00:00 UTC",
        "total_7_days": 6.86,
        "total_30_days": 27.43
      }
    },
    {
      "type": "Feature",
      "geometry": {
        "type": "Point",
        "coordinates": [
          152.919,
          -31.445
        ]
      },
      "properties": {
        "id": 810,
        "location": "Port Macquarie, Australia",
        "updated_at": "2023-06-16 00:25:38 UTC",
        "last_record_at": "2023-06-14 00:00:00 UTC",
        "total_7_days": 0,
        "total_30_days": 8.5
      }
    },
    {
      "type": "Feature",
      "geometry": {
        "type": "Point",
        "coordinates": [
          153.035,
          -27.455
        ]
      },
      "properties": {
        "id": 879,
        "location": "Brisbane, Australia",
        "updated_at": "2023-06-05 00:07:50 UTC",
        "last_record_at": "2023-06-05 00:00:00 UTC",
        "total_7_days": 0,
        "total_30_days": 7.8
      }
    },
    {
      "type": "Feature",
      "geometry": {
        "type": "Point",
        "coordinates": [
          30.97,
          -25.474
        ]
      },
      "properties": {
        "id": 950,
        "location": "Nelspruit, South Africa",
        "updated_at": "2023-06-13 06:13:10 UTC",
        "last_record_at": "2023-06-12 00:00:00 UTC",
        "total_7_days": 0,
        "total_30_days": 8.0
      }
    },
    {
      "type": "Feature",
      "geometry": {
        "type": "Point",
        "coordinates": [
          121.861,
          -33.833
        ]
      },
      "properties": {
        "id": 904,
        "location": "Esperance, Australia",
        "updated_at": "2023-06-28 01:18:59 UTC",
        "last_record_at": "2023-06-28 00:00:00 UTC",
        "total_7_days": 117.8,
        "total_30_days": 219.4
      }
    },
    {
      "type": "Feature",
      "geometry": {
        "type": "Point",
        "coordinates": [
          141.573,
          -38.114
        ]
      },
      "properties": {
        "id": 152,
        "location": "Heywood, Australia",
        "updated_at": "2023-06-28 01:17:18 UTC",
        "last_record_at": "2023-06-27 00:00:00 UTC",
        "total_7_days": 26.75,
        "total_30_days": 146.5
      }
    },
    {
      "type": "Feature",
      "geometry": {
        "type": "Point",
        "coordinates": [
          119.069,
          -32.731
        ]
      },
      "properties": {
        "id": 1071,
        "location": "Australia",
        "updated_at": "2023-06-18 03:19:23 UTC",
        "last_record_at": "2023-06-18 00:00:00 UTC",
        "total_7_days": 0,
        "total_30_days": 28.75
      }
    },
    {
      "type": "Feature",
      "geometry": {
        "type": "Point",
        "coordinates": [
          115.878,
          -32.049
        ]
      },
      "properties": {
        "id": 138,
        "location": "Willetton, Australia",
        "updated_at": "2023-06-25 03:15:42 UTC",
        "last_record_at": "2023-06-25 00:00:00 UTC",
        "total_7_days": 14.9,
        "total_30_days": 257.6
      }
    },
    {
      "type": "Feature",
      "geometry": {
        "type": "Point",
        "coordinates": [
          27.703,
          -26.158
        ]
      },
      "properties": {
        "id": 1126,
        "location": "Johannesburg, South Africa",
        "updated_at": "2023-06-12 21:37:36 UTC",
        "last_record_at": "2023-06-12 00:00:00 UTC",
        "total_7_days": 0,
        "total_30_days": 2.0
      }
    },
    {
      "type": "Feature",
      "geometry": {
        "type": "Point",
        "coordinates": [
          152.938,
          -29.712
        ]
      },
      "properties": {
        "id": 1142,
        "location": "Grafton, Australia",
        "updated_at": "2023-06-22 20:39:36 UTC",
        "last_record_at": "2023-06-22 00:00:00 UTC",
        "total_7_days": 2.0,
        "total_30_days": 10.5
      }
    },
    {
      "type": "Feature",
      "geometry": {
        "type": "Point",
        "coordinates": [
          153.133,
          -26.8
        ]
      },
      "properties": {
        "id": 837,
        "location": "Caloundra, Australia",
        "updated_at": "2023-06-08 02:09:01 UTC",
        "last_record_at": "2023-06-06 00:00:00 UTC",
        "total_7_days": 0,
        "total_30_days": 19.0
      }
    },
    {
      "type": "Feature",
      "geometry": {
        "type": "Point",
        "coordinates": [
          0.0,
          0.0
        ]
      },
      "properties": {
        "id": 653,
        "location": "Marlesford, Woodbridge, England",
        "updated_at": "2023-06-26 09:59:36 UTC",
        "last_record_at": "2023-06-21 00:00:00 UTC",
        "total_7_days": 0,
        "total_30_days": 10.0
      }
    },
    {
      "type": "Feature",
      "geometry": {
        "type": "Point",
        "coordinates": [
          "133.000",
          "-27.000"
        ]
      },
      "properties": {
        "id": 668,
        "location": "Ashburton, Australia",
        "updated_at": "2023-06-25 00:42:33 UTC",
        "last_record_at": "2023-06-25 00:00:00 UTC",
        "total_7_days": 10.5,
        "total_30_days": 69.0
      }
    },
    {
      "type": "Feature",
      "geometry": {
        "type": "Point",
        "coordinates": [
          152.807,
          -30.611
        ]
      },
      "properties": {
        "id": 619,
        "location": "Argents Hill, Australia",
        "updated_at": "2023-06-22 22:29:26 UTC",
        "last_record_at": "2023-06-22 00:00:00 UTC",
        "total_7_days": 3.8,
        "total_30_days": 48.3
      }
    },
    {
      "type": "Feature",
      "geometry": {
        "type": "Point",
        "coordinates": [
          -84.423,
          33.763
        ]
      },
      "properties": {
        "id": 1169,
        "location": "Atlanta, United States of America",
        "updated_at": "2023-06-24 01:02:45 UTC",
        "last_record_at": "2023-06-21 00:00:00 UTC",
        "total_7_days": 0,
        "total_30_days": 4.9
      }
    },
    {
      "type": "Feature",
      "geometry": {
        "type": "Point",
        "coordinates": [
          133.0,
          -27.0
        ]
      },
      "properties": {
        "id": 122,
        "location": "Kilsyth, Yarra Ranges, Australia",
        "updated_at": "2023-06-26 09:08:26 UTC",
        "last_record_at": "2023-06-25 00:00:00 UTC",
        "total_7_days": 3.0,
        "total_30_days": 78.0
      }
    },
    {
      "type": "Feature",
      "geometry": {
        "type": "Point",
        "coordinates": [
          141.433,
          -31.95
        ]
      },
      "properties": {
        "id": 1209,
        "location": "Broken Hill, Australia",
        "updated_at": "2023-06-28 07:32:42 UTC",
        "last_record_at": "2023-06-28 00:00:00 UTC",
        "total_7_days": 25.9,
        "total_30_days": 66.8
      }
    },
    {
      "type": "Feature",
      "geometry": {
        "type": "Point",
        "coordinates": [
          150.917,
          -31.103
        ]
      },
      "properties": {
        "id": 816,
        "location": "Tamworth, Australia",
        "updated_at": "2023-06-23 00:44:29 UTC",
        "last_record_at": "2023-06-23 00:00:00 UTC",
        "total_7_days": 26.0,
        "total_30_days": 62.0
      }
    },
    {
      "type": "Feature",
      "geometry": {
        "type": "Point",
        "coordinates": [
          115.84,
          -31.955
        ]
      },
      "properties": {
        "id": 873,
        "location": "Perth, Australia",
        "updated_at": "2023-06-26 05:18:07 UTC",
        "last_record_at": "2023-06-25 00:00:00 UTC",
        "total_7_days": 24.6,
        "total_30_days": 238.9
      }
    },
    {
      "type": "Feature",
      "geometry": {
        "type": "Point",
        "coordinates": [
          138.552,
          -34.898
        ]
      },
      "properties": {
        "id": 507,
        "location": "Beverley, Australia",
        "updated_at": "2023-06-25 23:57:59 UTC",
        "last_record_at": "2023-06-26 00:00:00 UTC",
        "total_7_days": 54.0,
        "total_30_days": 121.5
      }
    },
    {
      "type": "Feature",
      "geometry": {
        "type": "Point",
        "coordinates": [
          0.0,
          0.0
        ]
      },
      "properties": {
        "id": 743,
        "location": "Bodmin, United Kingdom",
        "updated_at": "2023-06-21 02:11:01 UTC",
        "last_record_at": "2023-06-21 00:00:00 UTC",
        "total_7_days": 0,
        "total_30_days": 2.0
      }
    },
    {
      "type": "Feature",
      "geometry": {
        "type": "Point",
        "coordinates": [
          118.78,
          -32.75
        ]
      },
      "properties": {
        "id": 917,
        "location": "Australia",
        "updated_at": "2023-06-27 09:03:15 UTC",
        "last_record_at": "2023-06-27 00:00:00 UTC",
        "total_7_days": 8.0,
        "total_30_days": 63.25
      }
    },
    {
      "type": "Feature",
      "geometry": {
        "type": "Point",
        "coordinates": [
          153.477,
          -28.759
        ]
      },
      "properties": {
        "id": 892,
        "location": "Lismore, Australia",
        "updated_at": "2023-06-13 20:14:42 UTC",
        "last_record_at": "2023-06-13 00:00:00 UTC",
        "total_7_days": 0,
        "total_30_days": 13.3
      }
    },
    {
      "type": "Feature",
      "geometry": {
        "type": "Point",
        "coordinates": [
          174.763,
          -36.848
        ]
      },
      "properties": {
        "id": 767,
        "location": "Auckland, New Zealand",
        "updated_at": "2023-06-17 22:35:31 UTC",
        "last_record_at": "2023-06-17 00:00:00 UTC",
        "total_7_days": 0,
        "total_30_days": 34.0
      }
    },
    {
      "type": "Feature",
      "geometry": {
        "type": "Point",
        "coordinates": [
          133.0,
          -27.0
        ]
      },
      "properties": {
        "id": 1132,
        "location": "Australia",
        "updated_at": "2023-06-04 20:25:34 UTC",
        "last_record_at": "2023-06-04 00:00:00 UTC",
        "total_7_days": 0,
        "total_30_days": 3.0
      }
    },
    {
      "type": "Feature",
      "geometry": {
        "type": "Point",
        "coordinates": [
          147.06,
          -38.11
        ]
      },
      "properties": {
        "id": 911,
        "location": "Sale, Australia",
        "updated_at": "2023-06-22 22:10:43 UTC",
        "last_record_at": "2023-06-23 00:00:00 UTC",
        "total_7_days": 5.0,
        "total_30_days": 35.0
      }
    },
    {
      "type": "Feature",
      "geometry": {
        "type": "Point",
        "coordinates": [
          143.58,
          -38.34
        ]
      },
      "properties": {
        "id": 814,
        "location": "Colac, Australia",
        "updated_at": "2023-06-27 22:55:04 UTC",
        "last_record_at": "2023-06-28 00:00:00 UTC",
        "total_7_days": 33.0,
        "total_30_days": 124.0
      }
    },
    {
      "type": "Feature",
      "geometry": {
        "type": "Point",
        "coordinates": [
          144.564,
          -37.421
        ]
      },
      "properties": {
        "id": 373,
        "location": "Macedon, Australia",
        "updated_at": "2023-06-27 19:54:14 UTC",
        "last_record_at": "2023-06-27 00:00:00 UTC",
        "total_7_days": 25.0,
        "total_30_days": 124.0
      }
    },
    {
      "type": "Feature",
      "geometry": {
        "type": "Point",
        "coordinates": [
          "133.000",
          "-27.000"
        ]
      },
      "properties": {
        "id": 638,
        "location": "Sutton Forest, Australia",
        "updated_at": "2023-06-25 01:50:05 UTC",
        "last_record_at": "2023-06-23 00:00:00 UTC",
        "total_7_days": 9.0,
        "total_30_days": 14.0
      }
    },
    {
      "type": "Feature",
      "geometry": {
        "type": "Point",
        "coordinates": [
          -2.733,
          52.717
        ]
      },
      "properties": {
        "id": 1028,
        "location": "Shrewsbury, United Kingdom of Great Britain and Northern Ireland",
        "updated_at": "2023-06-28 10:37:20 UTC",
        "last_record_at": "2023-06-28 00:00:00 UTC",
        "total_7_days": 4.0,
        "total_30_days": 31.0
      }
    },
    {
      "type": "Feature",
      "geometry": {
        "type": "Point",
        "coordinates": [
          153.396,
          -28.119
        ]
      },
      "properties": {
        "id": 936,
        "location": "Gold Coast, Australia",
        "updated_at": "2023-06-23 23:13:50 UTC",
        "last_record_at": "2023-06-23 00:00:00 UTC",
        "total_7_days": 3.0,
        "total_30_days": 21.5
      }
    },
    {
      "type": "Feature",
      "geometry": {
        "type": "Point",
        "coordinates": [
          28.03,
          -26.17
        ]
      },
      "properties": {
        "id": 776,
        "location": "Johannesburg, South Africa",
        "updated_at": "2023-06-13 12:15:38 UTC",
        "last_record_at": "2023-06-12 00:00:00 UTC",
        "total_7_days": 0,
        "total_30_days": 6.5
      }
    },
    {
      "type": "Feature",
      "geometry": {
        "type": "Point",
        "coordinates": [
          0.117,
          52.2
        ]
      },
      "properties": {
        "id": 1208,
        "location": "Cambridge, United Kingdom of Great Britain and Northern Ireland",
        "updated_at": "2023-06-20 08:57:38 UTC",
        "last_record_at": "2023-06-19 00:00:00 UTC",
        "total_7_days": 0,
        "total_30_days": 10.8
      }
    },
    {
      "type": "Feature",
      "geometry": {
        "type": "Point",
        "coordinates": [
          152.462,
          -31.898
        ]
      },
      "properties": {
        "id": 775,
        "location": "Taree, Australia",
        "updated_at": "2023-06-16 02:43:13 UTC",
        "last_record_at": "2023-06-13 00:00:00 UTC",
        "total_7_days": 0,
        "total_30_days": 9.0
      }
    },
    {
      "type": "Feature",
      "geometry": {
        "type": "Point",
        "coordinates": [
          -2.487,
          51.826
        ]
      },
      "properties": {
        "id": 885,
        "location": "United Kingdom of Great Britain and Northern Ireland",
        "updated_at": "2023-06-20 08:04:10 UTC",
        "last_record_at": "2023-06-20 00:00:00 UTC",
        "total_7_days": 0,
        "total_30_days": 0.9
      }
    },
    {
      "type": "Feature",
      "geometry": {
        "type": "Point",
        "coordinates": [
          18.472,
          -33.937
        ]
      },
      "properties": {
        "id": 884,
        "location": "Cape Town, South Africa",
        "updated_at": "2023-06-24 15:59:44 UTC",
        "last_record_at": "2023-06-24 00:00:00 UTC",
        "total_7_days": 28.0,
        "total_30_days": 151.0
      }
    },
    {
      "type": "Feature",
      "geometry": {
        "type": "Point",
        "coordinates": [
          152.351,
          -24.879
        ]
      },
      "properties": {
        "id": 948,
        "location": "Bundaberg, Australia",
        "updated_at": "2023-06-12 09:41:14 UTC",
        "last_record_at": "2023-06-06 00:00:00 UTC",
        "total_7_days": 0,
        "total_30_days": 13.0
      }
    },
    {
      "type": "Feature",
      "geometry": {
        "type": "Point",
        "coordinates": [
          18.435,
          -33.92
        ]
      },
      "properties": {
        "id": 1153,
        "location": "Cape Town, South Africa",
        "updated_at": "2023-06-24 05:35:29 UTC",
        "last_record_at": "2023-06-23 00:00:00 UTC",
        "total_7_days": 6.0,
        "total_30_days": 218.7
      }
    },
    {
      "type": "Feature",
      "geometry": {
        "type": "Point",
        "coordinates": [
          115.882,
          -32.12
        ]
      },
      "properties": {
        "id": 903,
        "location": "Perth, Australia",
        "updated_at": "2023-06-25 01:23:13 UTC",
        "last_record_at": "2023-06-25 00:00:00 UTC",
        "total_7_days": 15.5,
        "total_30_days": 207.0
      }
    },
    {
      "type": "Feature",
      "geometry": {
        "type": "Point",
        "coordinates": [
          152.344,
          -27.587
        ]
      },
      "properties": {
        "id": 754,
        "location": "Toowoomba, Australia",
        "updated_at": "2023-06-06 20:22:37 UTC",
        "last_record_at": "2023-06-06 00:00:00 UTC",
        "total_7_days": 0,
        "total_30_days": 7.0
      }
    },
    {
      "type": "Feature",
      "geometry": {
        "type": "Point",
        "coordinates": [
          1.17,
          52.07
        ]
      },
      "properties": {
        "id": 1147,
        "location": "Ipswich, United Kingdom of Great Britain and Northern Ireland",
        "updated_at": "2023-06-26 10:00:03 UTC",
        "last_record_at": "2023-06-21 00:00:00 UTC",
        "total_7_days": 0,
        "total_30_days": 10.0
      }
    },
    {
      "type": "Feature",
      "geometry": {
        "type": "Point",
        "coordinates": [
          -3.533,
          55.883
        ]
      },
      "properties": {
        "id": 938,
        "location": "Livingston, United Kingdom of Great Britain and Northern Ireland",
        "updated_at": "2023-06-26 04:25:13 UTC",
        "last_record_at": "2023-06-25 00:00:00 UTC",
        "total_7_days": 9.0,
        "total_30_days": 44.5
      }
    },
    {
      "type": "Feature",
      "geometry": {
        "type": "Point",
        "coordinates": [
          80.757,
          15.957
        ]
      },
      "properties": {
        "id": 1252,
        "location": "Guntur, India",
        "updated_at": "2023-06-26 18:55:57 UTC",
        "last_record_at": "2023-06-26 00:00:00 UTC",
        "total_7_days": 70.0,
        "total_30_days": 70.25
      }
    },
    {
      "type": "Feature",
      "geometry": {
        "type": "Point",
        "coordinates": [
          153.568,
          -28.861
        ]
      },
      "properties": {
        "id": 941,
        "location": "Ballina, Australia",
        "updated_at": "2023-06-26 21:05:03 UTC",
        "last_record_at": "2023-06-26 00:00:00 UTC",
        "total_7_days": 1.0,
        "total_30_days": 8.0
      }
    },
    {
      "type": "Feature",
      "geometry": {
        "type": "Point",
        "coordinates": [
          144.93,
          -17.345
        ]
      },
      "properties": {
        "id": 818,
        "location": "Atherton, Australia",
        "updated_at": "2023-06-22 03:07:44 UTC",
        "last_record_at": "2023-06-22 00:00:00 UTC",
        "total_7_days": 0.0,
        "total_30_days": 0.0
      }
    },
    {
      "type": "Feature",
      "geometry": {
        "type": "Point",
        "coordinates": [
          149.585,
          -33.412
        ]
      },
      "properties": {
        "id": 445,
        "location": "Bathurst",
        "updated_at": "2023-06-22 22:12:15 UTC",
        "last_record_at": "2023-06-22 00:00:00 UTC",
        "total_7_days": 14.5,
        "total_30_days": 24.0
      }
    },
    {
      "type": "Feature",
      "geometry": {
        "type": "Point",
        "coordinates": [
          153.349,
          -28.4
        ]
      },
      "properties": {
        "id": 1143,
        "location": "Australia",
        "updated_at": "2023-06-22 20:37:01 UTC",
        "last_record_at": "2023-06-23 00:00:00 UTC",
        "total_7_days": 1.5,
        "total_30_days": 28.5
      }
    },
    {
      "type": "Feature",
      "geometry": {
        "type": "Point",
        "coordinates": [
          144.332,
          -37.385
        ]
      },
      "properties": {
        "id": 765,
        "location": "Australia",
        "updated_at": "2023-06-20 02:54:15 UTC",
        "last_record_at": "2023-06-20 00:00:00 UTC",
        "total_7_days": 0,
        "total_30_days": 154.0
      }
    },
    {
      "type": "Feature",
      "geometry": {
        "type": "Point",
        "coordinates": [
          80.74,
          16.08
        ]
      },
      "properties": {
        "id": 1077,
        "location": "Guntur, India",
        "updated_at": "2023-06-25 16:55:47 UTC",
        "last_record_at": "2023-06-25 00:00:00 UTC",
        "total_7_days": 145.54,
        "total_30_days": 181.89
      }
    },
    {
      "type": "Feature",
      "geometry": {
        "type": "Point",
        "coordinates": [
          -3.53,
          50.7
        ]
      },
      "properties": {
        "id": 1210,
        "location": "Exeter, United Kingdom of Great Britain and Northern Ireland",
        "updated_at": "2023-06-20 14:06:14 UTC",
        "last_record_at": "2023-06-20 00:00:00 UTC",
        "total_7_days": 0,
        "total_30_days": 19.25
      }
    },
    {
      "type": "Feature",
      "geometry": {
        "type": "Point",
        "coordinates": [
          176.854,
          -39.418
        ]
      },
      "properties": {
        "id": 835,
        "location": "Napier, New Zealand",
        "updated_at": "2023-06-21 22:49:15 UTC",
        "last_record_at": "2023-06-21 00:00:00 UTC",
        "total_7_days": 0,
        "total_30_days": 117.86
      }
    },
    {
      "type": "Feature",
      "geometry": {
        "type": "Point",
        "coordinates": [
          117.333,
          -35.002
        ]
      },
      "properties": {
        "id": 501,
        "location": "Ocean Beach, Australia",
        "updated_at": "2023-06-27 22:53:21 UTC",
        "last_record_at": "2023-06-27 00:00:00 UTC",
        "total_7_days": 71.5,
        "total_30_days": 366.0
      }
    },
    {
      "type": "Feature",
      "geometry": {
        "type": "Point",
        "coordinates": [
          173.247,
          -41.293
        ]
      },
      "properties": {
        "id": 1070,
        "location": "Nelson, New Zealand",
        "updated_at": "2023-06-28 02:10:28 UTC",
        "last_record_at": "2023-06-28 00:00:00 UTC",
        "total_7_days": 57.0,
        "total_30_days": 150.5
      }
    },
    {
      "type": "Feature",
      "geometry": {
        "type": "Point",
        "coordinates": [
          152.953,
          -27.455
        ]
      },
      "properties": {
        "id": 38,
        "location": "The Gap, Australia",
        "updated_at": "2023-06-22 20:59:04 UTC",
        "last_record_at": "2023-06-23 00:00:00 UTC",
        "total_7_days": 0.6,
        "total_30_days": 2.8
      }
    },
    {
      "type": "Feature",
      "geometry": {
        "type": "Point",
        "coordinates": [
          151.94,
          28.9
        ]
      },
      "properties": {
        "id": 370,
        "location": "Wallangarra, Australia",
        "updated_at": "2023-06-24 23:09:34 UTC",
        "last_record_at": "2023-06-24 00:00:00 UTC",
        "total_7_days": 7.0,
        "total_30_days": 7.0
      }
    },
    {
      "type": "Feature",
      "geometry": {
        "type": "Point",
        "coordinates": [
          80.74,
          16.08
        ]
      },
      "properties": {
        "id": 1254,
        "location": "Guntur, India",
        "updated_at": "2023-06-25 16:57:31 UTC",
        "last_record_at": "2023-06-25 00:00:00 UTC",
        "total_7_days": 124.2,
        "total_30_days": 125.2
      }
    },
    {
      "type": "Feature",
      "geometry": {
        "type": "Point",
        "coordinates": [
          -68.888,
          9.0
        ]
      },
      "properties": {
        "id": 1072,
        "location": "Acarigua, Venezuela (Bolivarian Republic of)",
        "updated_at": "2023-06-27 10:47:23 UTC",
        "last_record_at": "2023-06-26 00:00:00 UTC",
        "total_7_days": 7.0,
        "total_30_days": 151.0
      }
    },
    {
      "type": "Feature",
      "geometry": {
        "type": "Point",
        "coordinates": [
          146.007,
          -17.808
        ]
      },
      "properties": {
        "id": 59,
        "location": "El arish",
        "updated_at": "2023-06-23 09:48:41 UTC",
        "last_record_at": "2023-06-23 00:00:00 UTC",
        "total_7_days": 32.0,
        "total_30_days": 315.0
      }
    },
    {
      "type": "Feature",
      "geometry": {
        "type": "Point",
        "coordinates": [
          80.657,
          16.034
        ]
      },
      "properties": {
        "id": 1250,
        "location": "Guntur, India",
        "updated_at": "2023-06-26 18:54:01 UTC",
        "last_record_at": "2023-06-25 00:00:00 UTC",
        "total_7_days": 78.75,
        "total_30_days": 84.25
      }
    },
    {
      "type": "Feature",
      "geometry": {
        "type": "Point",
        "coordinates": [
          150.485,
          -33.517
        ]
      },
      "properties": {
        "id": 485,
        "location": "Bilpin",
        "updated_at": "2023-06-22 22:01:37 UTC",
        "last_record_at": "2023-06-23 00:00:00 UTC",
        "total_7_days": 7.5,
        "total_30_days": 29.5
      }
    },
    {
      "type": "Feature",
      "geometry": {
        "type": "Point",
        "coordinates": [
          151.884,
          -25.246
        ]
      },
      "properties": {
        "id": 944,
        "location": "Bundaberg, Australia",
        "updated_at": "2023-06-06 10:02:11 UTC",
        "last_record_at": "2023-06-06 00:00:00 UTC",
        "total_7_days": 0,
        "total_30_days": 6.0
      }
    },
    {
      "type": "Feature",
      "geometry": {
        "type": "Point",
        "coordinates": [
          118.87,
          -32.78
        ]
      },
      "properties": {
        "id": 875,
        "location": "Narrogin, Australia",
        "updated_at": "2023-06-27 01:33:15 UTC",
        "last_record_at": "2023-06-27 00:00:00 UTC",
        "total_7_days": 8.0,
        "total_30_days": 58.0
      }
    },
    {
      "type": "Feature",
      "geometry": {
        "type": "Point",
        "coordinates": [
          145.824,
          -38.432
        ]
      },
      "properties": {
        "id": 994,
        "location": "Melbourne, Australia",
        "updated_at": "2023-06-20 23:05:29 UTC",
        "last_record_at": "2023-06-21 00:00:00 UTC",
        "total_7_days": 0,
        "total_30_days": 103.0
      }
    },
    {
      "type": "Feature",
      "geometry": {
        "type": "Point",
        "coordinates": [
          -0.883,
          52.25
        ]
      },
      "properties": {
        "id": 830,
        "location": "Northampton, United Kingdom of Great Britain and Northern Ireland",
        "updated_at": "2023-06-13 20:25:13 UTC",
        "last_record_at": "2023-06-13 00:00:00 UTC",
        "total_7_days": 0,
        "total_30_days": 25.9
      }
    },
    {
      "type": "Feature",
      "geometry": {
        "type": "Point",
        "coordinates": [
          150.786,
          -31.527
        ]
      },
      "properties": {
        "id": 299,
        "location": "Quirindi",
        "updated_at": "2023-06-22 23:45:25 UTC",
        "last_record_at": "2023-06-22 00:00:00 UTC",
        "total_7_days": 12.0,
        "total_30_days": 29.5
      }
    },
    {
      "type": "Feature",
      "geometry": {
        "type": "Point",
        "coordinates": [
          "133.000",
          "-27.000"
        ]
      },
      "properties": {
        "id": 704,
        "location": "Beechforest, Australia",
        "updated_at": "2023-06-27 22:47:53 UTC",
        "last_record_at": "2023-06-28 00:00:00 UTC",
        "total_7_days": 61.0,
        "total_30_days": 254.0
      }
    },
    {
      "type": "Feature",
      "geometry": {
        "type": "Point",
        "coordinates": [
          152.35,
          -27.459
        ]
      },
      "properties": {
        "id": 129,
        "location": "Spring Creek",
        "updated_at": "2023-06-05 21:26:19 UTC",
        "last_record_at": "2023-06-05 00:00:00 UTC",
        "total_7_days": 0,
        "total_30_days": 5.0
      }
    },
    {
      "type": "Feature",
      "geometry": {
        "type": "Point",
        "coordinates": [
          "133.000",
          "-27.000"
        ]
      },
      "properties": {
        "id": 515,
        "location": "Blackbutt, Australia",
        "updated_at": "2023-06-24 23:58:37 UTC",
        "last_record_at": "2023-06-23 00:00:00 UTC",
        "total_7_days": 3.0,
        "total_30_days": 12.0
      }
    },
    {
      "type": "Feature",
      "geometry": {
        "type": "Point",
        "coordinates": [
          80.679,
          16.165
        ]
      },
      "properties": {
        "id": 1251,
        "location": "Guntur, India",
        "updated_at": "2023-06-28 10:25:32 UTC",
        "last_record_at": "2023-06-26 00:00:00 UTC",
        "total_7_days": 104.5,
        "total_30_days": 109.0
      }
    },
    {
      "type": "Feature",
      "geometry": {
        "type": "Point",
        "coordinates": [
          144.442,
          -37.396
        ]
      },
      "properties": {
        "id": 1203,
        "location": "Sunbury, Australia",
        "updated_at": "2023-06-06 23:57:49 UTC",
        "last_record_at": "2023-06-07 00:00:00 UTC",
        "total_7_days": 0,
        "total_30_days": 21.5
      }
    },
    {
      "type": "Feature",
      "geometry": {
        "type": "Point",
        "coordinates": [
          140.767,
          -36.316
        ]
      },
      "properties": {
        "id": 1030,
        "location": "Bordertown, Australia",
        "updated_at": "2023-06-07 03:16:51 UTC",
        "last_record_at": "2023-06-07 00:00:00 UTC",
        "total_7_days": 0,
        "total_30_days": 30.2
      }
    },
    {
      "type": "Feature",
      "geometry": {
        "type": "Point",
        "coordinates": [
          "133.000",
          "-27.000"
        ]
      },
      "properties": {
        "id": 748,
        "location": "Bolgart, Australia",
        "updated_at": "2023-06-23 23:56:19 UTC",
        "last_record_at": "2023-06-24 00:00:00 UTC",
        "total_7_days": 4.5,
        "total_30_days": 108.5
      }
    },
    {
      "type": "Feature",
      "geometry": {
        "type": "Point",
        "coordinates": [
          152.02,
          -28.229
        ]
      },
      "properties": {
        "id": 940,
        "location": "Warwick, Australia",
        "updated_at": "2023-06-08 23:44:49 UTC",
        "last_record_at": "2023-06-08 00:00:00 UTC",
        "total_7_days": 0,
        "total_30_days": 5.0
      }
    },
    {
      "type": "Feature",
      "geometry": {
        "type": "Point",
        "coordinates": [
          133.0,
          -27.0
        ]
      },
      "properties": {
        "id": 812,
        "location": "Australia",
        "updated_at": "2023-06-06 07:49:56 UTC",
        "last_record_at": "2023-06-05 00:00:00 UTC",
        "total_7_days": 0,
        "total_30_days": 3.0
      }
    },
    {
      "type": "Feature",
      "geometry": {
        "type": "Point",
        "coordinates": [
          "174.000",
          "-41.000"
        ]
      },
      "properties": {
        "id": 652,
        "location": "Hikuai, New Zealand",
        "updated_at": "2023-06-27 03:29:09 UTC",
        "last_record_at": "2023-06-26 00:00:00 UTC",
        "total_7_days": 167.0,
        "total_30_days": 388.0
      }
    },
    {
      "type": "Feature",
      "geometry": {
        "type": "Point",
        "coordinates": [
          149.57,
          -33.42
        ]
      },
      "properties": {
        "id": 952,
        "location": "Bathurst, Australia",
        "updated_at": "2023-06-22 22:49:25 UTC",
        "last_record_at": "2023-06-22 00:00:00 UTC",
        "total_7_days": 15.0,
        "total_30_days": 26.0
      }
    },
    {
      "type": "Feature",
      "geometry": {
        "type": "Point",
        "coordinates": [
          153.035,
          -27.455
        ]
      },
      "properties": {
        "id": 888,
        "location": "Brisbane, Australia",
        "updated_at": "2023-06-04 22:35:46 UTC",
        "last_record_at": "2023-06-04 00:00:00 UTC",
        "total_7_days": 0,
        "total_30_days": 11.0
      }
    },
    {
      "type": "Feature",
      "geometry": {
        "type": "Point",
        "coordinates": [
          118.78,
          -32.87
        ]
      },
      "properties": {
        "id": 874,
        "location": "Australia",
        "updated_at": "2023-06-25 00:57:50 UTC",
        "last_record_at": "2023-06-25 00:00:00 UTC",
        "total_7_days": 6.5,
        "total_30_days": 46.75
      }
    },
    {
      "type": "Feature",
      "geometry": {
        "type": "Point",
        "coordinates": [
          145.75,
          -16.931
        ]
      },
      "properties": {
        "id": 1146,
        "location": "Cairns, Australia",
        "updated_at": "2023-06-17 23:45:18 UTC",
        "last_record_at": "2023-06-18 00:00:00 UTC",
        "total_7_days": 0,
        "total_30_days": 49.0
      }
    },
    {
      "type": "Feature",
      "geometry": {
        "type": "Point",
        "coordinates": [
          147.61,
          -37.83
        ]
      },
      "properties": {
        "id": 815,
        "location": "Bairnsdale, Australia",
        "updated_at": "2023-06-19 22:24:28 UTC",
        "last_record_at": "2023-06-19 00:00:00 UTC",
        "total_7_days": 0,
        "total_30_days": 28.0
      }
    },
    {
      "type": "Feature",
      "geometry": {
        "type": "Point",
        "coordinates": [
          115.747,
          -32.523
        ]
      },
      "properties": {
        "id": 1118,
        "location": "Mandurah, Australia",
        "updated_at": "2023-06-26 01:53:44 UTC",
        "last_record_at": "2023-06-25 00:00:00 UTC",
        "total_7_days": 15.25,
        "total_30_days": 173.85
      }
    },
    {
      "type": "Feature",
      "geometry": {
        "type": "Point",
        "coordinates": [
          149.014,
          -34.626
        ]
      },
      "properties": {
        "id": 475,
        "location": "Blakney Creek",
        "updated_at": "2023-06-27 22:53:32 UTC",
        "last_record_at": "2023-06-27 00:00:00 UTC",
        "total_7_days": 19.0,
        "total_30_days": 43.5
      }
    },
    {
      "type": "Feature",
      "geometry": {
        "type": "Point",
        "coordinates": [
          152.02,
          -28.229
        ]
      },
      "properties": {
        "id": 819,
        "location": "Warwick, Australia",
        "updated_at": "2023-06-27 23:11:14 UTC",
        "last_record_at": "2023-06-28 00:00:00 UTC",
        "total_7_days": 9.6,
        "total_30_days": 19.5
      }
    },
    {
      "type": "Feature",
      "geometry": {
        "type": "Point",
        "coordinates": [
          152.351,
          -24.879
        ]
      },
      "properties": {
        "id": 947,
        "location": "Bundaberg, Australia",
        "updated_at": "2023-06-06 10:01:50 UTC",
        "last_record_at": "2023-06-06 00:00:00 UTC",
        "total_7_days": 0,
        "total_30_days": 13.5
      }
    },
    {
      "type": "Feature",
      "geometry": {
        "type": "Point",
        "coordinates": [
          151.153,
          -28.629
        ]
      },
      "properties": {
        "id": 486,
        "location": "Brush Creek",
        "updated_at": "2023-06-23 07:39:02 UTC",
        "last_record_at": "2023-06-22 00:00:00 UTC",
        "total_7_days": 9.0,
        "total_30_days": 14.5
      }
    },
    {
      "type": "Feature",
      "geometry": {
        "type": "Point",
        "coordinates": [
          -5.801,
          57.374
        ]
      },
      "properties": {
        "id": 1119,
        "location": "Stirling, United Kingdom of Great Britain and Northern Ireland",
        "updated_at": "2023-06-28 08:04:46 UTC",
        "last_record_at": "2023-06-28 00:00:00 UTC",
        "total_7_days": 14.3,
        "total_30_days": 24.8
      }
    },
    {
      "type": "Feature",
      "geometry": {
        "type": "Point",
        "coordinates": [
          178.018,
          -38.663
        ]
      },
      "properties": {
        "id": 518,
        "location": "Gisborne, New Zealand",
        "updated_at": "2023-06-28 02:40:10 UTC",
        "last_record_at": "2023-06-27 00:00:00 UTC",
        "total_7_days": 418.1,
        "total_30_days": 932.2
      }
    },
    {
      "type": "Feature",
      "geometry": {
        "type": "Point",
        "coordinates": [
          "133.000",
          "-27.000"
        ]
      },
      "properties": {
        "id": 733,
        "location": "Bundanoon, Australia",
        "updated_at": "2023-06-24 00:21:02 UTC",
        "last_record_at": "2023-06-23 00:00:00 UTC",
        "total_7_days": 8.0,
        "total_30_days": 21.0
      }
    },
    {
      "type": "Feature",
      "geometry": {
        "type": "Point",
        "coordinates": [
          -85.86,
          11.25
        ]
      },
      "properties": {
        "id": 1249,
        "location": "San Juan del Sur, Nicaragua",
        "updated_at": "2023-06-27 21:27:15 UTC",
        "last_record_at": "2023-06-26 00:00:00 UTC",
        "total_7_days": 3.0,
        "total_30_days": 13.25
      }
    },
    {
      "type": "Feature",
      "geometry": {
        "type": "Point",
        "coordinates": [
          144.396,
          -38.167
        ]
      },
      "properties": {
        "id": 928,
        "location": "Geelong, Australia",
        "updated_at": "2023-06-27 04:53:15 UTC",
        "last_record_at": "2023-06-27 00:00:00 UTC",
        "total_7_days": 8.3,
        "total_30_days": 54.7
      }
    },
    {
      "type": "Feature",
      "geometry": {
        "type": "Point",
        "coordinates": [
          150.298,
          -34.657
        ]
      },
      "properties": {
        "id": 643,
        "location": "Bundanoon, Australia",
        "updated_at": "2023-06-27 22:27:26 UTC",
        "last_record_at": "2023-06-28 00:00:00 UTC",
        "total_7_days": 8.8,
        "total_30_days": 22.6
      }
    },
    {
      "type": "Feature",
      "geometry": {
        "type": "Point",
        "coordinates": [
          80.72,
          16.074
        ]
      },
      "properties": {
        "id": 1078,
        "location": "Guntur, India",
        "updated_at": "2023-06-26 18:53:22 UTC",
        "last_record_at": "2023-06-25 00:00:00 UTC",
        "total_7_days": 116.0,
        "total_30_days": 146.5
      }
    },
    {
      "type": "Feature",
      "geometry": {
        "type": "Point",
        "coordinates": [
          115.705,
          -31.634
        ]
      },
      "properties": {
        "id": 764,
        "location": "Perth, Australia",
        "updated_at": "2023-06-24 23:56:30 UTC",
        "last_record_at": "2023-06-25 00:00:00 UTC",
        "total_7_days": 28.5,
        "total_30_days": 166.0
      }
    },
    {
      "type": "Feature",
      "geometry": {
        "type": "Point",
        "coordinates": [
          "151.956",
          "-27.564"
        ]
      },
      "properties": {
        "id": 710,
        "location": "Toowoomba, Australia",
        "updated_at": "2023-06-04 09:04:52 UTC",
        "last_record_at": "2023-06-03 00:00:00 UTC",
        "total_7_days": 0,
        "total_30_days": 4.0
      }
    },
    {
      "type": "Feature",
      "geometry": {
        "type": "Point",
        "coordinates": [
          152.95,
          -27.083
        ]
      },
      "properties": {
        "id": 1135,
        "location": "Caboolture, Australia",
        "updated_at": "2023-06-13 00:05:11 UTC",
        "last_record_at": "2023-06-13 00:00:00 UTC",
        "total_7_days": 0,
        "total_30_days": 25.0
      }
    },
    {
      "type": "Feature",
      "geometry": {
        "type": "Point",
        "coordinates": [
          149.129,
          -35.283
        ]
      },
      "properties": {
        "id": 905,
        "location": "Canberra, Australia",
        "updated_at": "2023-06-23 21:54:40 UTC",
        "last_record_at": "2023-06-24 00:00:00 UTC",
        "total_7_days": 13.5,
        "total_30_days": 40.5
      }
    },
    {
      "type": "Feature",
      "geometry": {
        "type": "Point",
        "coordinates": [
          174.323,
          -35.726
        ]
      },
      "properties": {
        "id": 1029,
        "location": "Whangarei, New Zealand",
        "updated_at": "2023-06-27 20:57:34 UTC",
        "last_record_at": "2023-06-27 00:00:00 UTC",
        "total_7_days": 81.0,
        "total_30_days": 190.0
      }
    },
    {
      "type": "Feature",
      "geometry": {
        "type": "Point",
        "coordinates": [
          -92.748,
          44.033
        ]
      },
      "properties": {
        "id": 1248,
        "location": "Kasson, United States of America",
        "updated_at": "2023-06-26 14:50:36 UTC",
        "last_record_at": "2023-06-25 00:00:00 UTC",
        "total_7_days": 0.5,
        "total_30_days": 0.95
      }
    },
    {
      "type": "Feature",
      "geometry": {
        "type": "Point",
        "coordinates": [
          115.801,
          -32.035
        ]
      },
      "properties": {
        "id": 571,
        "location": "Melville, Australia",
        "updated_at": "2023-06-26 01:00:27 UTC",
        "last_record_at": "2023-06-26 00:00:00 UTC",
        "total_7_days": 24.2,
        "total_30_days": 233.7
      }
    },
    {
      "type": "Feature",
      "geometry": {
        "type": "Point",
        "coordinates": [
          "133.000",
          "-27.000"
        ]
      },
      "properties": {
        "id": 714,
        "location": "Kersbrook, Australia",
        "updated_at": "2023-06-26 20:18:53 UTC",
        "last_record_at": "2023-06-26 00:00:00 UTC",
        "total_7_days": 76.5,
        "total_30_days": 168.5
      }
    },
    {
      "type": "Feature",
      "geometry": {
        "type": "Point",
        "coordinates": [
          145.283,
          -38.1
        ]
      },
      "properties": {
        "id": 836,
        "location": "Cranbourne, Australia",
        "updated_at": "2023-06-27 22:44:14 UTC",
        "last_record_at": "2023-06-26 00:00:00 UTC",
        "total_7_days": 5.0,
        "total_30_days": 55.5
      }
    },
    {
      "type": "Feature",
      "geometry": {
        "type": "Point",
        "coordinates": [
          152.784,
          -26.592
        ]
      },
      "properties": {
        "id": 453,
        "location": "Coolabine",
        "updated_at": "2023-06-09 09:00:45 UTC",
        "last_record_at": "2023-06-08 00:00:00 UTC",
        "total_7_days": 0,
        "total_30_days": 24.25
      }
    },
    {
      "type": "Feature",
      "geometry": {
        "type": "Point",
        "coordinates": [
          "133.000",
          "-27.000"
        ]
      },
      "properties": {
        "id": 603,
        "location": "Barragga Bay, Australia",
        "updated_at": "2023-06-22 23:10:11 UTC",
        "last_record_at": "2023-06-23 00:00:00 UTC",
        "total_7_days": 3.8,
        "total_30_days": 14.1
      }
    },
    {
      "type": "Feature",
      "geometry": {
        "type": "Point",
        "coordinates": [
          133.0,
          -27.0
        ]
      },
      "properties": {
        "id": 813,
        "location": "Australia",
        "updated_at": "2023-06-06 07:49:48 UTC",
        "last_record_at": "2023-06-05 00:00:00 UTC",
        "total_7_days": 0,
        "total_30_days": 14.0
      }
    },
    {
      "type": "Feature",
      "geometry": {
        "type": "Point",
        "coordinates": [
          151.153,
          -28.639
        ]
      },
      "properties": {
        "id": 443,
        "location": "Brush Creek",
        "updated_at": "2023-06-23 07:39:10 UTC",
        "last_record_at": "2023-06-22 00:00:00 UTC",
        "total_7_days": 9.0,
        "total_30_days": 14.5
      }
    },
    {
      "type": "Feature",
      "geometry": {
        "type": "Point",
        "coordinates": [
          115.349,
          -33.656
        ]
      },
      "properties": {
        "id": 1255,
        "location": "Busselton, Australia",
        "updated_at": "2023-06-25 23:39:38 UTC",
        "last_record_at": "2023-06-26 00:00:00 UTC",
        "total_7_days": 7.0,
        "total_30_days": 28.5
      }
    },
    {
      "type": "Feature",
      "geometry": {
        "type": "Point",
        "coordinates": [
          30.902,
          -25.534
        ]
      },
      "properties": {
        "id": 951,
        "location": "Nelspruit, South Africa",
        "updated_at": "2023-05-09 04:01:50 UTC",
        "last_record_at": "2023-05-09 00:00:00 UTC"
      }
    },
    {
      "type": "Feature",
      "geometry": {
        "type": "Point",
        "coordinates": [
          145.469,
          -17.27
        ]
      },
      "properties": {
        "id": 1164,
        "location": "Atherton, Australia",
        "updated_at": "2023-05-14 00:58:05 UTC",
        "last_record_at": "2023-05-14 00:00:00 UTC"
      }
    },
    {
      "type": "Feature",
      "geometry": {
        "type": "Point",
        "coordinates": [
          29.45,
          -23.89
        ]
      },
      "properties": {
        "id": 939,
        "location": "Polokwane, South Africa",
        "updated_at": "2023-05-18 07:52:14 UTC",
        "last_record_at": "2023-05-16 00:00:00 UTC"
      }
    },
    {
      "type": "Feature",
      "geometry": {
        "type": "Point",
        "coordinates": [
          152.787,
          -25.364
        ]
      },
      "properties": {
        "id": 468,
        "location": "Sunshine Acres",
        "updated_at": "2023-05-16 07:20:22 UTC",
        "last_record_at": "2023-05-16 00:00:00 UTC"
      }
    },
    {
      "type": "Feature",
      "geometry": {
        "type": "Point",
        "coordinates": [
          28.264,
          -25.82
        ]
      },
      "properties": {
        "id": 992,
        "location": "Pretoria, South Africa",
        "updated_at": "2023-05-31 15:41:55 UTC",
        "last_record_at": "2023-05-31 00:00:00 UTC",
        "total_7_days": 0,
        "total_30_days": 5.0
      }
    },
    {
      "type": "Feature",
      "geometry": {
        "type": "Point",
        "coordinates": [
          153.035,
          -27.455
        ]
      },
      "properties": {
        "id": 887,
        "location": "Brisbane, Australia",
        "updated_at": "2023-05-14 20:58:08 UTC",
        "last_record_at": "2023-05-15 00:00:00 UTC"
      }
    },
    {
      "type": "Feature",
      "geometry": {
        "type": "Point",
        "coordinates": [
          17.084,
          -22.57
        ]
      },
      "properties": {
        "id": 823,
        "location": "Windhoek, Namibia",
        "updated_at": "2023-05-17 06:35:39 UTC",
        "last_record_at": "2023-05-16 00:00:00 UTC"
      }
    },
    {
      "type": "Feature",
      "geometry": {
        "type": "Point",
        "coordinates": [
          145.681,
          -17.557
        ]
      },
      "properties": {
        "id": 1137,
        "location": "Innisfail, Australia",
        "updated_at": "2023-05-14 01:02:53 UTC",
        "last_record_at": "2023-05-12 00:00:00 UTC"
      }
    },
    {
      "type": "Feature",
      "geometry": {
        "type": "Point",
        "coordinates": [
          28.229,
          -25.707
        ]
      },
      "properties": {
        "id": 921,
        "location": "Pretoria, South Africa",
        "updated_at": "2023-05-08 13:12:41 UTC",
        "last_record_at": "2023-05-08 00:00:00 UTC"
      }
    },
    {
      "type": "Feature",
      "geometry": {
        "type": "Point",
        "coordinates": [
          27.984,
          -26.011
        ]
      },
      "properties": {
        "id": 1124,
        "location": "Johannesburg, South Africa",
        "updated_at": "2023-05-17 17:24:43 UTC",
        "last_record_at": "2023-05-16 00:00:00 UTC"
      }
    },
    {
      "type": "Feature",
      "geometry": {
        "type": "Point",
        "coordinates": [
          152.02,
          -28.229
        ]
      },
      "properties": {
        "id": 882,
        "location": "Warwick, Australia",
        "updated_at": "2023-05-15 22:47:51 UTC",
        "last_record_at": "2023-05-16 00:00:00 UTC"
      }
    },
    {
      "type": "Feature",
      "geometry": {
        "type": "Point",
        "coordinates": [
          27.24,
          -25.65
        ]
      },
      "properties": {
        "id": 1168,
        "location": "Rustenburg, South Africa",
        "updated_at": "2023-05-18 04:48:48 UTC",
        "last_record_at": "2023-05-18 00:00:00 UTC"
      }
    },
    {
      "type": "Feature",
      "geometry": {
        "type": "Point",
        "coordinates": [
          "133.000",
          "-27.000"
        ]
      },
      "properties": {
        "id": 395,
        "location": "Wangandary Upper, Australia",
        "updated_at": "2023-05-25 23:00:27 UTC",
        "last_record_at": "2023-05-25 00:00:00 UTC"
      }
    },
    {
      "type": "Feature",
      "geometry": {
        "type": "Point",
        "coordinates": [
          145.469,
          -17.27
        ]
      },
      "properties": {
        "id": 1148,
        "location": "Atherton, Australia",
        "updated_at": "2023-05-14 01:00:04 UTC",
        "last_record_at": "2023-05-13 00:00:00 UTC"
      }
    },
    {
      "type": "Feature",
      "geometry": {
        "type": "Point",
        "coordinates": [
          26.22,
          -29.078
        ]
      },
      "properties": {
        "id": 768,
        "location": "Bloemfontein, South Africa",
        "updated_at": "2023-06-02 14:52:21 UTC",
        "last_record_at": "2023-05-28 00:00:00 UTC"
      }
    },
    {
      "type": "Feature",
      "geometry": {
        "type": "Point",
        "coordinates": [
          31.157,
          -25.681
        ]
      },
      "properties": {
        "id": 923,
        "location": "Nelspruit, South Africa",
        "updated_at": "2023-05-31 05:36:03 UTC",
        "last_record_at": "2023-05-31 00:00:00 UTC",
        "total_7_days": 0,
        "total_30_days": 4.0
      }
    },
    {
      "type": "Feature",
      "geometry": {
        "type": "Point",
        "coordinates": [
          153.474,
          -28.282
        ]
      },
      "properties": {
        "id": 1167,
        "location": "Australia",
        "updated_at": "2023-05-17 23:04:42 UTC",
        "last_record_at": "2023-05-17 00:00:00 UTC"
      }
    },
    {
      "type": "Feature",
      "geometry": {
        "type": "Point",
        "coordinates": [
          172.867,
          -43.691
        ]
      },
      "properties": {
        "id": 721,
        "location": "Akaroa, New Zealand",
        "updated_at": "2023-05-20 06:38:22 UTC",
        "last_record_at": "2023-05-19 00:00:00 UTC"
      }
    },
    {
      "type": "Feature",
      "geometry": {
        "type": "Point",
        "coordinates": [
          30.98,
          -29.865
        ]
      },
      "properties": {
        "id": 1079,
        "location": "Durban, South Africa",
        "updated_at": "2023-06-01 04:42:41 UTC",
        "last_record_at": "2023-05-31 00:00:00 UTC",
        "total_7_days": 0,
        "total_30_days": 40.0
      }
    },
    {
      "type": "Feature",
      "geometry": {
        "type": "Point",
        "coordinates": [
          17.084,
          -22.57
        ]
      },
      "properties": {
        "id": 894,
        "location": "Windhoek, Namibia",
        "updated_at": "2023-05-03 07:26:58 UTC",
        "last_record_at": "2023-05-02 00:00:00 UTC"
      }
    },
    {
      "type": "Feature",
      "geometry": {
        "type": "Point",
        "coordinates": [
          146.77,
          -19.25
        ]
      },
      "properties": {
        "id": 1035,
        "location": "Townsville, Australia",
        "updated_at": "2023-05-01 20:21:31 UTC",
        "last_record_at": "2023-05-02 00:00:00 UTC"
      }
    },
    {
      "type": "Feature",
      "geometry": {
        "type": "Point",
        "coordinates": [
          "24.000",
          "-29.000"
        ]
      },
      "properties": {
        "id": 694,
        "location": "Woodland Hills, South Africa",
        "updated_at": "2023-05-31 09:22:36 UTC",
        "last_record_at": "2023-05-30 00:00:00 UTC",
        "total_7_days": 0,
        "total_30_days": 30.0
      }
    },
    {
      "type": "Feature",
      "geometry": {
        "type": "Point",
        "coordinates": [
          25.912,
          -24.646
        ]
      },
      "properties": {
        "id": 833,
        "location": "Gaborone, Botswana",
        "updated_at": "2023-05-31 05:39:44 UTC",
        "last_record_at": "2023-05-30 00:00:00 UTC",
        "total_7_days": 0,
        "total_30_days": 10.0
      }
    },
    {
      "type": "Feature",
      "geometry": {
        "type": "Point",
        "coordinates": [
          "133.000",
          "-27.000"
        ]
      },
      "properties": {
        "id": 697,
        "location": "CROYDON NORTH, Australia",
        "updated_at": "2023-05-27 07:38:37 UTC",
        "last_record_at": "2023-05-26 00:00:00 UTC"
      }
    },
    {
      "type": "Feature",
      "geometry": {
        "type": "Point",
        "coordinates": [
          137.99,
          -33.191
        ]
      },
      "properties": {
        "id": 1211,
        "location": "Port Pirie, Australia",
        "updated_at": "2023-04-06 20:47:14 UTC",
        "last_record_at": "2023-04-07 00:00:00 UTC"
      }
    },
    {
      "type": "Feature",
      "geometry": {
        "type": "Point",
        "coordinates": [
          144.25,
          -23.45
        ]
      },
      "properties": {
        "id": 1158,
        "location": "Longreach, Australia",
        "updated_at": "2023-05-01 01:32:28 UTC",
        "last_record_at": "2023-04-29 00:00:00 UTC"
      }
    },
    {
      "type": "Feature",
      "geometry": {
        "type": "Point",
        "coordinates": [
          18.5,
          -12.5
        ]
      },
      "properties": {
        "id": 1128,
        "location": "Angola",
        "updated_at": "2023-04-27 12:19:13 UTC",
        "last_record_at": "2023-04-25 00:00:00 UTC"
      }
    },
    {
      "type": "Feature",
      "geometry": {
        "type": "Point",
        "coordinates": [
          145.469,
          -17.27
        ]
      },
      "properties": {
        "id": 1138,
        "location": "Atherton, Australia",
        "updated_at": "2023-04-05 23:17:50 UTC",
        "last_record_at": "2023-04-04 00:00:00 UTC"
      }
    },
    {
      "type": "Feature",
      "geometry": {
        "type": "Point",
        "coordinates": [
          144.25,
          -23.45
        ]
      },
      "properties": {
        "id": 1160,
        "location": "Longreach, Australia",
        "updated_at": "2023-04-16 04:45:44 UTC",
        "last_record_at": "2023-04-16 00:00:00 UTC"
      }
    },
    {
      "type": "Feature",
      "geometry": {
        "type": "Point",
        "coordinates": [
          144.25,
          -23.45
        ]
      },
      "properties": {
        "id": 1161,
        "location": "Longreach, Australia",
        "updated_at": "2023-04-16 04:44:51 UTC",
        "last_record_at": "2023-04-16 00:00:00 UTC"
      }
    },
    {
      "type": "Feature",
      "geometry": {
        "type": "Point",
        "coordinates": [
          151.139,
          -33.824
        ]
      },
      "properties": {
        "id": 487,
        "location": "Hunters Hill",
        "updated_at": "2023-04-01 22:38:09 UTC",
        "last_record_at": "2023-04-02 00:00:00 UTC"
      }
    },
    {
      "type": "Feature",
      "geometry": {
        "type": "Point",
        "coordinates": [
          146.259,
          -20.081
        ]
      },
      "properties": {
        "id": 958,
        "location": "Charters Towers, Australia",
        "updated_at": "2023-04-28 21:09:12 UTC",
        "last_record_at": "2023-04-18 00:00:00 UTC"
      }
    },
    {
      "type": "Feature",
      "geometry": {
        "type": "Point",
        "coordinates": [
          144.25,
          -23.45
        ]
      },
      "properties": {
        "id": 1157,
        "location": "Longreach, Australia",
        "updated_at": "2023-04-29 06:15:50 UTC",
        "last_record_at": "2023-04-29 00:00:00 UTC"
      }
    },
    {
      "type": "Feature",
      "geometry": {
        "type": "Point",
        "coordinates": [
          144.25,
          -23.45
        ]
      },
      "properties": {
        "id": 1162,
        "location": "Longreach, Australia",
        "updated_at": "2023-04-16 04:45:27 UTC",
        "last_record_at": "2023-04-16 00:00:00 UTC"
      }
    },
    {
      "type": "Feature",
      "geometry": {
        "type": "Point",
        "coordinates": [
          144.25,
          -23.45
        ]
      },
      "properties": {
        "id": 1163,
        "location": "Longreach, Australia",
        "updated_at": "2023-04-16 04:45:13 UTC",
        "last_record_at": "2023-04-16 00:00:00 UTC"
      }
    },
    {
      "type": "Feature",
      "geometry": {
        "type": "Point",
        "coordinates": [
          -2.717,
          52.05
        ]
      },
      "properties": {
        "id": 1212,
        "location": "Hereford, United Kingdom of Great Britain and Northern Ireland",
        "updated_at": "2023-04-01 16:22:14 UTC",
        "last_record_at": "2023-04-01 00:00:00 UTC"
      }
    },
    {
      "type": "Feature",
      "geometry": {
        "type": "Point",
        "coordinates": [
          "133.000",
          "-27.000"
        ]
      },
      "properties": {
        "id": 626,
        "location": "Heathfield, Australia",
        "updated_at": "2023-04-09 13:59:26 UTC",
        "last_record_at": "2023-04-09 00:00:00 UTC"
      }
    },
    {
      "type": "Feature",
      "geometry": {
        "type": "Point",
        "coordinates": [
          133.0,
          -27.0
        ]
      },
      "properties": {
        "id": 1213,
        "location": "Australia",
        "updated_at": "2023-04-16 22:12:25 UTC",
        "last_record_at": "2023-04-16 00:00:00 UTC"
      }
    },
    {
      "type": "Feature",
      "geometry": {
        "type": "Point",
        "coordinates": [
          144.25,
          -23.45
        ]
      },
      "properties": {
        "id": 959,
        "location": "Longreach, Australia",
        "updated_at": "2023-03-12 23:45:32 UTC",
        "last_record_at": "2023-03-13 00:00:00 UTC"
      }
    },
    {
      "type": "Feature",
      "geometry": {
        "type": "Point",
        "coordinates": [
          "133.000",
          "-27.000"
        ]
      },
      "properties": {
        "id": 633,
        "location": "Yass, Australia",
        "updated_at": "2023-04-13 02:34:42 UTC",
        "last_record_at": "2023-03-29 00:00:00 UTC"
      }
    },
    {
      "type": "Feature",
      "geometry": {
        "type": "Point",
        "coordinates": [
          144.25,
          -23.45
        ]
      },
      "properties": {
        "id": 1159,
        "location": "Longreach, Australia",
        "updated_at": "2023-03-15 20:59:17 UTC",
        "last_record_at": "2023-03-13 00:00:00 UTC"
      }
    },
    {
      "type": "Feature",
      "geometry": {
        "type": "Point",
        "coordinates": [
          "133.000",
          "-27.000"
        ]
      },
      "properties": {
        "id": 681,
        "location": "Urangan. Hervey Bay, Australia",
        "updated_at": "2023-02-14 21:41:47 UTC",
        "last_record_at": "2023-02-14 00:00:00 UTC"
      }
    },
    {
      "type": "Feature",
      "geometry": {
        "type": "Point",
        "coordinates": [
          150.738,
          -35.071
        ]
      },
      "properties": {
        "id": 927,
        "location": "Australia",
        "updated_at": "2023-02-09 21:16:40 UTC",
        "last_record_at": "2023-02-10 00:00:00 UTC"
      }
    },
    {
      "type": "Feature",
      "geometry": {
        "type": "Point",
        "coordinates": [
          27.24,
          -25.65
        ]
      },
      "properties": {
        "id": 1165,
        "location": "Rustenburg, South Africa",
        "updated_at": "2023-02-12 04:55:51 UTC",
        "last_record_at": "2023-02-12 00:00:00 UTC"
      }
    },
    {
      "type": "Feature",
      "geometry": {
        "type": "Point",
        "coordinates": [
          144.25,
          -23.45
        ]
      },
      "properties": {
        "id": 1075,
        "location": "Longreach, Australia",
        "updated_at": "2023-02-20 22:57:09 UTC",
        "last_record_at": "2023-02-21 00:00:00 UTC"
      }
    },
    {
      "type": "Feature",
      "geometry": {
        "type": "Point",
        "coordinates": [
          145.34,
          -17.35
        ]
      },
      "properties": {
        "id": 1139,
        "location": "Atherton, Australia",
        "updated_at": "2023-02-10 23:42:09 UTC",
        "last_record_at": "2023-02-10 00:00:00 UTC"
      }
    },
    {
      "type": "Feature",
      "geometry": {
        "type": "Point",
        "coordinates": [
          -2.717,
          52.05
        ]
      },
      "properties": {
        "id": 1205,
        "location": "Hereford, United Kingdom of Great Britain and Northern Ireland",
        "updated_at": "2023-03-03 15:10:58 UTC",
        "last_record_at": "2023-02-01 00:00:00 UTC"
      }
    },
    {
      "type": "Feature",
      "geometry": {
        "type": "Point",
        "coordinates": [
          145.763,
          -16.888
        ]
      },
      "properties": {
        "id": 1204,
        "location": "Cairns, Australia",
        "updated_at": "2023-02-26 21:36:07 UTC",
        "last_record_at": "2023-02-27 00:00:00 UTC"
      }
    },
    {
      "type": "Feature",
      "geometry": {
        "type": "Point",
        "coordinates": [
          "24.000",
          "-29.000"
        ]
      },
      "properties": {
        "id": 706,
        "location": "Lone Hill, Johannesburg, South Africa, South Africa",
        "updated_at": "2023-02-04 12:32:35 UTC",
        "last_record_at": "2023-02-03 00:00:00 UTC"
      }
    },
    {
      "type": "Feature",
      "geometry": {
        "type": "Point",
        "coordinates": [
          28.58,
          -20.17
        ]
      },
      "properties": {
        "id": 770,
        "location": "Bulawayo, Zimbabwe",
        "updated_at": "2023-02-19 07:51:59 UTC",
        "last_record_at": "2023-02-19 00:00:00 UTC"
      }
    },
    {
      "type": "Feature",
      "geometry": {
        "type": "Point",
        "coordinates": [
          28.229,
          -25.707
        ]
      },
      "properties": {
        "id": 1202,
        "location": "Pretoria, South Africa",
        "updated_at": "2023-02-18 15:38:14 UTC",
        "last_record_at": "2023-02-17 00:00:00 UTC"
      }
    },
    {
      "type": "Feature",
      "geometry": {
        "type": "Point",
        "coordinates": [
          131.1,
          -13.249
        ]
      },
      "properties": {
        "id": 1140,
        "location": "Adelaide River, Australia",
        "updated_at": "2023-01-30 02:16:15 UTC",
        "last_record_at": "2023-01-30 00:00:00 UTC"
      }
    },
    {
      "type": "Feature",
      "geometry": {
        "type": "Point",
        "coordinates": [
          153.613,
          -28.657
        ]
      },
      "properties": {
        "id": 1144,
        "location": "Byron Bay, Australia",
        "updated_at": "2023-01-04 23:51:15 UTC",
        "last_record_at": "2023-01-05 00:00:00 UTC"
      }
    },
    {
      "type": "Feature",
      "geometry": {
        "type": "Point",
        "coordinates": [
          -0.533,
          53.233
        ]
      },
      "properties": {
        "id": 1141,
        "location": "Lincoln, United Kingdom of Great Britain and Northern Ireland",
        "updated_at": "2023-01-08 10:45:34 UTC",
        "last_record_at": "2023-01-08 00:00:00 UTC"
      }
    },
    {
      "type": "Feature",
      "geometry": {
        "type": "Point",
        "coordinates": [
          148.898,
          -34.847
        ]
      },
      "properties": {
        "id": 1156,
        "location": "Goulburn, Australia",
        "updated_at": "2023-01-30 22:05:25 UTC",
        "last_record_at": "2023-01-31 00:00:00 UTC"
      }
    },
    {
      "type": "Feature",
      "geometry": {
        "type": "Point",
        "coordinates": [
          152.755,
          -26.37
        ]
      },
      "properties": {
        "id": 209,
        "location": "Coles Creek, Australia",
        "updated_at": "2023-01-04 22:47:34 UTC",
        "last_record_at": "2023-01-04 00:00:00 UTC"
      }
    },
    {
      "type": "Feature",
      "geometry": {
        "type": "Point",
        "coordinates": [
          -85.511,
          36.148
        ]
      },
      "properties": {
        "id": 1133,
        "location": "Cookeville, United States of America",
        "updated_at": "2023-01-03 22:07:29 UTC",
        "last_record_at": "2023-01-03 00:00:00 UTC"
      }
    },
    {
      "type": "Feature",
      "geometry": {
        "type": "Point",
        "coordinates": [
          -90.649,
          38.501
        ]
      },
      "properties": {
        "id": 1145,
        "location": "Eureka, United States of America",
        "updated_at": "2023-01-08 07:38:41 UTC",
        "last_record_at": "2023-01-07 00:00:00 UTC"
      }
    },
    {
      "type": "Feature",
      "geometry": {
        "type": "Point",
        "coordinates": [
          -124.142,
          40.586
        ]
      },
      "properties": {
        "id": 1130,
        "location": "Fortuna, United States of America",
        "updated_at": "2022-12-02 02:56:03 UTC",
        "last_record_at": "2022-12-01 00:00:00 UTC"
      }
    },
    {
      "type": "Feature",
      "geometry": {
        "type": "Point",
        "coordinates": [
          24.827,
          -28.471
        ]
      },
      "properties": {
        "id": 826,
        "location": "Kimberley, South Africa",
        "updated_at": "2023-01-01 05:25:44 UTC",
        "last_record_at": "2022-12-31 00:00:00 UTC"
      }
    },
    {
      "type": "Feature",
      "geometry": {
        "type": "Point",
        "coordinates": [
          25.263,
          -28.405
        ]
      },
      "properties": {
        "id": 827,
        "location": "South Africa",
        "updated_at": "2022-12-31 13:19:47 UTC",
        "last_record_at": "2022-12-28 00:00:00 UTC"
      }
    },
    {
      "type": "Feature",
      "geometry": {
        "type": "Point",
        "coordinates": [
          -100.518,
          31.411
        ]
      },
      "properties": {
        "id": 586,
        "location": "Early, United states",
        "updated_at": "2023-01-29 21:24:41 UTC",
        "last_record_at": "2022-12-10 00:00:00 UTC"
      }
    },
    {
      "type": "Feature",
      "geometry": {
        "type": "Point",
        "coordinates": [
          -124.142,
          40.586
        ]
      },
      "properties": {
        "id": 1131,
        "location": "Fortuna, United States of America",
        "updated_at": "2022-12-04 18:48:54 UTC",
        "last_record_at": "2022-12-03 00:00:00 UTC"
      }
    },
    {
      "type": "Feature",
      "geometry": {
        "type": "Point",
        "coordinates": [
          "133.000",
          "-27.000"
        ]
      },
      "properties": {
        "id": 563,
        "location": "St Morris, Australia",
        "updated_at": "2023-01-10 00:07:39 UTC",
        "last_record_at": "2022-12-21 00:00:00 UTC"
      }
    },
    {
      "type": "Feature",
      "geometry": {
        "type": "Point",
        "coordinates": [
          146.77,
          -19.25
        ]
      },
      "properties": {
        "id": 1129,
        "location": "Townsville, Australia",
        "updated_at": "2022-11-27 21:51:30 UTC",
        "last_record_at": "2022-11-28 00:00:00 UTC"
      }
    },
    {
      "type": "Feature",
      "geometry": {
        "type": "Point",
        "coordinates": [
          138.833,
          -35.374
        ]
      },
      "properties": {
        "id": 1127,
        "location": "Australia",
        "updated_at": "2022-11-19 04:02:10 UTC",
        "last_record_at": "2022-11-19 00:00:00 UTC"
      }
    },
    {
      "type": "Feature",
      "geometry": {
        "type": "Point",
        "coordinates": [
          29.45,
          -23.89
        ]
      },
      "properties": {
        "id": 1122,
        "location": "Polokwane, South Africa",
        "updated_at": "2022-11-06 19:28:32 UTC",
        "last_record_at": "2022-11-04 00:00:00 UTC"
      }
    },
    {
      "type": "Feature",
      "geometry": {
        "type": "Point",
        "coordinates": [
          144.396,
          -38.167
        ]
      },
      "properties": {
        "id": 755,
        "location": "Geelong, Australia",
        "updated_at": "2022-11-16 11:59:26 UTC",
        "last_record_at": "2022-11-16 00:00:00 UTC"
      }
    },
    {
      "type": "Feature",
      "geometry": {
        "type": "Point",
        "coordinates": [
          149.211,
          -35.355
        ]
      },
      "properties": {
        "id": 1121,
        "location": "Queanbeyan, Australia",
        "updated_at": "2022-11-06 02:02:51 UTC",
        "last_record_at": "2022-11-05 00:00:00 UTC"
      }
    },
    {
      "type": "Feature",
      "geometry": {
        "type": "Point",
        "coordinates": [
          144.28,
          -36.76
        ]
      },
      "properties": {
        "id": 1123,
        "location": "Bendigo, Australia",
        "updated_at": "2022-11-19 23:17:06 UTC",
        "last_record_at": "2022-11-18 00:00:00 UTC"
      }
    },
    {
      "type": "Feature",
      "geometry": {
        "type": "Point",
        "coordinates": [
          145.65,
          -35.92
        ]
      },
      "properties": {
        "id": 995,
        "location": "Cobram, Australia",
        "updated_at": "2022-11-21 05:23:35 UTC",
        "last_record_at": "2022-11-21 00:00:00 UTC"
      }
    },
    {
      "type": "Feature",
      "geometry": {
        "type": "Point",
        "coordinates": [
          144.975,
          -37.82
        ]
      },
      "properties": {
        "id": 1116,
        "location": "Melbourne, Australia",
        "updated_at": "2022-10-14 02:50:20 UTC",
        "last_record_at": "2022-10-13 00:00:00 UTC"
      }
    },
    {
      "type": "Feature",
      "geometry": {
        "type": "Point",
        "coordinates": [
          -86.784,
          36.171
        ]
      },
      "properties": {
        "id": 1073,
        "location": "Nashville, United States of America",
        "updated_at": "2022-10-30 12:25:01 UTC",
        "last_record_at": "2022-10-30 00:00:00 UTC"
      }
    },
    {
      "type": "Feature",
      "geometry": {
        "type": "Point",
        "coordinates": [
          "133.000",
          "-27.000"
        ]
      },
      "properties": {
        "id": 737,
        "location": "Lalalty, Australia",
        "updated_at": "2022-10-29 00:07:38 UTC",
        "last_record_at": "2022-10-28 00:00:00 UTC"
      }
    }
  ]
}