{
  "type": "FeatureCollection",
  "features": [
    {
      "type": "Feature",
      "geometry": {
        "type": "Point",
        "coordinates": [
          151.153,
          -28.629
        ]
      },
      "properties": {
        "id": 486,
        "location": "Brush Creek",
        "updated_at": "2023-12-24 23:04:36 UTC",
        "last_record_at": "2023-12-24 00:00:00 UTC",
        "total_7_days": 133.5,
        "total_30_days": 153.5
      }
    },
    {
      "type": "Feature",
      "geometry": {
        "type": "Point",
        "coordinates": [
          152.807,
          -30.611
        ]
      },
      "properties": {
        "id": 619,
        "location": "Argents Hill, Australia",
        "updated_at": "2023-12-20 20:24:17 UTC",
        "last_record_at": "2023-12-20 00:00:00 UTC",
        "total_7_days": 6.0,
        "total_30_days": 12.2
      }
    },
    {
      "type": "Feature",
      "geometry": {
        "type": "Point",
        "coordinates": [
          152.953,
          -27.455
        ]
      },
      "properties": {
        "id": 38,
        "location": "The Gap, Australia",
        "updated_at": "2023-12-24 21:05:34 UTC",
        "last_record_at": "2023-12-25 00:00:00 UTC",
        "total_7_days": 41.3,
        "total_30_days": 113.9
      }
    },
    {
      "type": "Feature",
      "geometry": {
        "type": "Point",
        "coordinates": [
          152.35,
          -27.459
        ]
      },
      "properties": {
        "id": 129,
        "location": "Spring Creek",
        "updated_at": "2023-12-24 23:36:16 UTC",
        "last_record_at": "2023-12-24 00:00:00 UTC",
        "total_7_days": 64.5,
        "total_30_days": 122.5
      }
    },
    {
      "type": "Feature",
      "geometry": {
        "type": "Point",
        "coordinates": [
          "133.000",
          "-27.000"
        ]
      },
      "properties": {
        "id": 733,
        "location": "Bundanoon, Australia",
        "updated_at": "2023-12-24 20:17:23 UTC",
        "last_record_at": "2023-12-24 00:00:00 UTC",
        "total_7_days": 119.0,
        "total_30_days": 228.0
      }
    },
    {
      "type": "Feature",
      "geometry": {
        "type": "Point",
        "coordinates": [
          25.912,
          -24.646
        ]
      },
      "properties": {
        "id": 833,
        "location": "Gaborone, Botswana",
        "updated_at": "2023-12-18 06:16:47 UTC",
        "last_record_at": "2023-12-17 00:00:00 UTC",
        "total_7_days": 0,
        "total_30_days": 93.5
      }
    },
    {
      "type": "Feature",
      "geometry": {
        "type": "Point",
        "coordinates": [
          144.564,
          -37.421
        ]
      },
      "properties": {
        "id": 373,
        "location": "Macedon, Australia",
        "updated_at": "2023-12-24 22:26:05 UTC",
        "last_record_at": "2023-12-25 00:00:00 UTC",
        "total_7_days": 54.0,
        "total_30_days": 132.0
      }
    },
    {
      "type": "Feature",
      "geometry": {
        "type": "Point",
        "coordinates": [
          152.787,
          -25.364
        ]
      },
      "properties": {
        "id": 468,
        "location": "Sunshine Acres",
        "updated_at": "2023-12-24 20:34:22 UTC",
        "last_record_at": "2023-12-25 00:00:00 UTC",
        "total_7_days": 57.0,
        "total_30_days": 140.0
      }
    },
    {
      "type": "Feature",
      "geometry": {
        "type": "Point",
        "coordinates": [
          30.98,
          -29.865
        ]
      },
      "properties": {
        "id": 1079,
        "location": "Durban, South Africa",
        "updated_at": "2023-12-16 16:37:10 UTC",
        "last_record_at": "2023-12-15 00:00:00 UTC",
        "total_7_days": 0,
        "total_30_days": 85.5
      }
    },
    {
      "type": "Feature",
      "geometry": {
        "type": "Point",
        "coordinates": [
          133.0,
          -27.0
        ]
      },
      "properties": {
        "id": 1132,
        "location": "Australia",
        "updated_at": "2023-12-24 22:00:37 UTC",
        "last_record_at": "2023-12-24 00:00:00 UTC",
        "total_7_days": 97.0,
        "total_30_days": 218.0
      }
    },
    {
      "type": "Feature",
      "geometry": {
        "type": "Point",
        "coordinates": [
          -68.888,
          9.0
        ]
      },
      "properties": {
        "id": 1072,
        "location": "Acarigua, Venezuela (Bolivarian Republic of)",
        "updated_at": "2023-12-23 12:46:17 UTC",
        "last_record_at": "2023-12-23 00:00:00 UTC",
        "total_7_days": 8.0,
        "total_30_days": 11.0
      }
    },
    {
      "type": "Feature",
      "geometry": {
        "type": "Point",
        "coordinates": [
          153.396,
          -28.119
        ]
      },
      "properties": {
        "id": 936,
        "location": "Gold Coast, Australia",
        "updated_at": "2023-12-25 00:41:21 UTC",
        "last_record_at": "2023-12-25 00:00:00 UTC",
        "total_7_days": 77.0,
        "total_30_days": 171.5
      }
    },
    {
      "type": "Feature",
      "geometry": {
        "type": "Point",
        "coordinates": [
          144.25,
          -23.45
        ]
      },
      "properties": {
        "id": 959,
        "location": "Longreach, Australia",
        "updated_at": "2023-12-22 10:18:29 UTC",
        "last_record_at": "2023-12-22 00:00:00 UTC",
        "total_7_days": 29.0,
        "total_30_days": 52.0
      }
    },
    {
      "type": "Feature",
      "geometry": {
        "type": "Point",
        "coordinates": [
          "133.000",
          "-27.000"
        ]
      },
      "properties": {
        "id": 515,
        "location": "Blackbutt, Australia",
        "updated_at": "2023-12-24 21:17:25 UTC",
        "last_record_at": "2023-12-24 00:00:00 UTC",
        "total_7_days": 67.0,
        "total_30_days": 140.5
      }
    },
    {
      "type": "Feature",
      "geometry": {
        "type": "Point",
        "coordinates": [
          150.298,
          -34.657
        ]
      },
      "properties": {
        "id": 643,
        "location": "Bundanoon, Australia",
        "updated_at": "2023-12-24 19:59:57 UTC",
        "last_record_at": "2023-12-25 00:00:00 UTC",
        "total_7_days": 120.0,
        "total_30_days": 198.8
      }
    },
    {
      "type": "Feature",
      "geometry": {
        "type": "Point",
        "coordinates": [
          144.442,
          -37.396
        ]
      },
      "properties": {
        "id": 1203,
        "location": "Sunbury, Australia",
        "updated_at": "2023-12-10 22:57:24 UTC",
        "last_record_at": "2023-12-10 00:00:00 UTC",
        "total_7_days": 0,
        "total_30_days": 85.0
      }
    },
    {
      "type": "Feature",
      "geometry": {
        "type": "Point",
        "coordinates": [
          27.984,
          -26.011
        ]
      },
      "properties": {
        "id": 1124,
        "location": "Johannesburg, South Africa",
        "updated_at": "2023-12-17 03:24:08 UTC",
        "last_record_at": "2023-12-16 00:00:00 UTC",
        "total_7_days": 0,
        "total_30_days": 58.0
      }
    },
    {
      "type": "Feature",
      "geometry": {
        "type": "Point",
        "coordinates": [
          -3.53,
          50.7
        ]
      },
      "properties": {
        "id": 1210,
        "location": "Exeter, United Kingdom of Great Britain and Northern Ireland",
        "updated_at": "2023-12-24 10:52:28 UTC",
        "last_record_at": "2023-12-23 00:00:00 UTC",
        "total_7_days": 19.75,
        "total_30_days": 135.75
      }
    },
    {
      "type": "Feature",
      "geometry": {
        "type": "Point",
        "coordinates": [
          118.87,
          -32.78
        ]
      },
      "properties": {
        "id": 875,
        "location": "Narrogin, Australia",
        "updated_at": "2023-12-18 03:29:44 UTC",
        "last_record_at": "2023-12-17 00:00:00 UTC",
        "total_7_days": 0,
        "total_30_days": 9.5
      }
    },
    {
      "type": "Feature",
      "geometry": {
        "type": "Point",
        "coordinates": [
          "174.000",
          "-41.000"
        ]
      },
      "properties": {
        "id": 652,
        "location": "Hikuai, New Zealand",
        "updated_at": "2023-12-07 02:14:59 UTC",
        "last_record_at": "2023-12-06 00:00:00 UTC",
        "total_7_days": 0,
        "total_30_days": 33.0
      }
    },
    {
      "type": "Feature",
      "geometry": {
        "type": "Point",
        "coordinates": [
          121.861,
          -33.833
        ]
      },
      "properties": {
        "id": 904,
        "location": "Esperance, Australia",
        "updated_at": "2023-12-19 11:10:19 UTC",
        "last_record_at": "2023-12-19 00:00:00 UTC",
        "total_7_days": 0.0,
        "total_30_days": 5.2
      }
    },
    {
      "type": "Feature",
      "geometry": {
        "type": "Point",
        "coordinates": [
          152.02,
          -28.229
        ]
      },
      "properties": {
        "id": 882,
        "location": "Warwick, Australia",
        "updated_at": "2023-12-22 06:37:40 UTC",
        "last_record_at": "2023-12-21 00:00:00 UTC",
        "total_7_days": 29.0,
        "total_30_days": 57.0
      }
    },
    {
      "type": "Feature",
      "geometry": {
        "type": "Point",
        "coordinates": [
          153.349,
          -28.4
        ]
      },
      "properties": {
        "id": 1143,
        "location": "Australia",
        "updated_at": "2023-12-23 19:48:47 UTC",
        "last_record_at": "2023-12-24 00:00:00 UTC",
        "total_7_days": 43.0,
        "total_30_days": 135.5
      }
    },
    {
      "type": "Feature",
      "geometry": {
        "type": "Point",
        "coordinates": [
          "133.000",
          "-27.000"
        ]
      },
      "properties": {
        "id": 395,
        "location": "Wangandary Upper, Australia",
        "updated_at": "2023-12-24 23:55:41 UTC",
        "last_record_at": "2023-12-25 00:00:00 UTC",
        "total_7_days": 55.0,
        "total_30_days": 83.0
      }
    },
    {
      "type": "Feature",
      "geometry": {
        "type": "Point",
        "coordinates": [
          138.552,
          -34.898
        ]
      },
      "properties": {
        "id": 507,
        "location": "Beverley, Australia",
        "updated_at": "2023-12-13 23:44:23 UTC",
        "last_record_at": "2023-12-14 00:00:00 UTC",
        "total_7_days": 0,
        "total_30_days": 110.0
      }
    },
    {
      "type": "Feature",
      "geometry": {
        "type": "Point",
        "coordinates": [
          151.376,
          -33.521
        ]
      },
      "properties": {
        "id": 1273,
        "location": "Sydney, Australia",
        "updated_at": "2023-12-21 01:52:44 UTC",
        "last_record_at": "2023-12-21 00:00:00 UTC",
        "total_7_days": 126.0,
        "total_30_days": 140.8
      }
    },
    {
      "type": "Feature",
      "geometry": {
        "type": "Point",
        "coordinates": [
          143.84,
          -37.56
        ]
      },
      "properties": {
        "id": 1280,
        "location": "Ballarat, Australia",
        "updated_at": "2023-12-25 07:25:13 UTC",
        "last_record_at": "2023-12-25 00:00:00 UTC",
        "total_7_days": 48.5,
        "total_30_days": 81.5
      }
    },
    {
      "type": "Feature",
      "geometry": {
        "type": "Point",
        "coordinates": [
          145.75,
          -16.931
        ]
      },
      "properties": {
        "id": 1146,
        "location": "Cairns, Australia",
        "updated_at": "2023-12-18 00:03:42 UTC",
        "last_record_at": "2023-12-18 00:00:00 UTC",
        "total_7_days": 0,
        "total_30_days": 948.0
      }
    },
    {
      "type": "Feature",
      "geometry": {
        "type": "Point",
        "coordinates": [
          152.344,
          -27.587
        ]
      },
      "properties": {
        "id": 754,
        "location": "Toowoomba, Australia",
        "updated_at": "2023-12-24 21:33:26 UTC",
        "last_record_at": "2023-12-25 00:00:00 UTC",
        "total_7_days": 95.5,
        "total_30_days": 138.5
      }
    },
    {
      "type": "Feature",
      "geometry": {
        "type": "Point",
        "coordinates": [
          153.035,
          -27.455
        ]
      },
      "properties": {
        "id": 888,
        "location": "Brisbane, Australia",
        "updated_at": "2023-12-25 06:15:59 UTC",
        "last_record_at": "2023-12-25 00:00:00 UTC",
        "total_7_days": 47.5,
        "total_30_days": 103.5
      }
    },
    {
      "type": "Feature",
      "geometry": {
        "type": "Point",
        "coordinates": [
          149.57,
          -33.42
        ]
      },
      "properties": {
        "id": 952,
        "location": "Bathurst, Australia",
        "updated_at": "2023-12-24 04:24:23 UTC",
        "last_record_at": "2023-12-23 00:00:00 UTC",
        "total_7_days": 34.0,
        "total_30_days": 83.5
      }
    },
    {
      "type": "Feature",
      "geometry": {
        "type": "Point",
        "coordinates": [
          133.0,
          -27.0
        ]
      },
      "properties": {
        "id": 122,
        "location": "Kilsyth, Yarra Ranges, Australia",
        "updated_at": "2023-12-24 22:57:20 UTC",
        "last_record_at": "2023-12-24 00:00:00 UTC",
        "total_7_days": 18.0,
        "total_30_days": 58.0
      }
    },
    {
      "type": "Feature",
      "geometry": {
        "type": "Point",
        "coordinates": [
          "133.000",
          "-27.000"
        ]
      },
      "properties": {
        "id": 603,
        "location": "Barragga Bay, Australia",
        "updated_at": "2023-12-25 06:04:15 UTC",
        "last_record_at": "2023-12-25 00:00:00 UTC",
        "total_7_days": 54.2,
        "total_30_days": 216.6
      }
    },
    {
      "type": "Feature",
      "geometry": {
        "type": "Point",
        "coordinates": [
          152.351,
          -24.879
        ]
      },
      "properties": {
        "id": 947,
        "location": "Bundaberg, Australia",
        "updated_at": "2023-12-24 21:15:09 UTC",
        "last_record_at": "2023-12-25 00:00:00 UTC",
        "total_7_days": 36.5,
        "total_30_days": 78.0
      }
    },
    {
      "type": "Feature",
      "geometry": {
        "type": "Point",
        "coordinates": [
          "24.000",
          "-29.000"
        ]
      },
      "properties": {
        "id": 694,
        "location": "Woodland Hills, South Africa",
        "updated_at": "2023-12-23 02:55:26 UTC",
        "last_record_at": "2023-12-22 00:00:00 UTC",
        "total_7_days": 5.0,
        "total_30_days": 85.0
      }
    },
    {
      "type": "Feature",
      "geometry": {
        "type": "Point",
        "coordinates": [
          149.014,
          -34.626
        ]
      },
      "properties": {
        "id": 475,
        "location": "Blakney Creek",
        "updated_at": "2023-12-25 09:09:04 UTC",
        "last_record_at": "2023-12-25 00:00:00 UTC",
        "total_7_days": 69.5,
        "total_30_days": 168.0
      }
    },
    {
      "type": "Feature",
      "geometry": {
        "type": "Point",
        "coordinates": [
          152.351,
          -24.879
        ]
      },
      "properties": {
        "id": 1283,
        "location": "Bundaberg, Australia",
        "updated_at": "2023-12-24 20:16:06 UTC",
        "last_record_at": "2023-12-24 00:00:00 UTC",
        "total_7_days": 59.0,
        "total_30_days": 59.0
      }
    },
    {
      "type": "Feature",
      "geometry": {
        "type": "Point",
        "coordinates": [
          174.323,
          -35.726
        ]
      },
      "properties": {
        "id": 1029,
        "location": "Whangarei, New Zealand",
        "updated_at": "2023-12-19 07:13:10 UTC",
        "last_record_at": "2023-12-18 00:00:00 UTC",
        "total_7_days": 0,
        "total_30_days": 55.0
      }
    },
    {
      "type": "Feature",
      "geometry": {
        "type": "Point",
        "coordinates": [
          27.703,
          -26.158
        ]
      },
      "properties": {
        "id": 1126,
        "location": "Johannesburg, South Africa",
        "updated_at": "2023-12-25 05:18:58 UTC",
        "last_record_at": "2023-12-24 00:00:00 UTC",
        "total_7_days": 11.0,
        "total_30_days": 76.0
      }
    },
    {
      "type": "Feature",
      "geometry": {
        "type": "Point",
        "coordinates": [
          17.084,
          -22.57
        ]
      },
      "properties": {
        "id": 823,
        "location": "Windhoek, Namibia",
        "updated_at": "2023-12-13 04:19:23 UTC",
        "last_record_at": "2023-12-12 00:00:00 UTC",
        "total_7_days": 0,
        "total_30_days": 13.3
      }
    },
    {
      "type": "Feature",
      "geometry": {
        "type": "Point",
        "coordinates": [
          118.78,
          -32.75
        ]
      },
      "properties": {
        "id": 917,
        "location": "Australia",
        "updated_at": "2023-12-18 03:30:41 UTC",
        "last_record_at": "2023-12-17 00:00:00 UTC",
        "total_7_days": 0,
        "total_30_days": 4.25
      }
    },
    {
      "type": "Feature",
      "geometry": {
        "type": "Point",
        "coordinates": [
          153.133,
          -26.8
        ]
      },
      "properties": {
        "id": 837,
        "location": "Caloundra, Australia",
        "updated_at": "2023-12-24 23:07:27 UTC",
        "last_record_at": "2023-12-24 00:00:00 UTC",
        "total_7_days": 68.5,
        "total_30_days": 144.0
      }
    },
    {
      "type": "Feature",
      "geometry": {
        "type": "Point",
        "coordinates": [
          -7.738,
          52.121
        ]
      },
      "properties": {
        "id": 1272,
        "location": "Waterford, Ireland",
        "updated_at": "2023-12-22 08:44:05 UTC",
        "last_record_at": "2023-12-21 00:00:00 UTC",
        "total_7_days": 12.0,
        "total_30_days": 87.0
      }
    },
    {
      "type": "Feature",
      "geometry": {
        "type": "Point",
        "coordinates": [
          150.469,
          -33.726
        ]
      },
      "properties": {
        "id": 720,
        "location": "Hazelbrook, Australia",
        "updated_at": "2023-12-25 04:57:26 UTC",
        "last_record_at": "2023-12-25 00:00:00 UTC",
        "total_7_days": 101.75,
        "total_30_days": 198.25
      }
    },
    {
      "type": "Feature",
      "geometry": {
        "type": "Point",
        "coordinates": [
          -2.733,
          52.717
        ]
      },
      "properties": {
        "id": 1028,
        "location": "Shrewsbury, United Kingdom of Great Britain and Northern Ireland",
        "updated_at": "2023-12-20 16:15:07 UTC",
        "last_record_at": "2023-12-20 00:00:00 UTC",
        "total_7_days": 9.0,
        "total_30_days": 126.0
      }
    },
    {
      "type": "Feature",
      "geometry": {
        "type": "Point",
        "coordinates": [
          141.573,
          -38.114
        ]
      },
      "properties": {
        "id": 152,
        "location": "Heywood, Australia",
        "updated_at": "2023-12-24 23:17:51 UTC",
        "last_record_at": "2023-12-24 00:00:00 UTC",
        "total_7_days": 17.0,
        "total_30_days": 48.75
      }
    },
    {
      "type": "Feature",
      "geometry": {
        "type": "Point",
        "coordinates": [
          173.247,
          -41.293
        ]
      },
      "properties": {
        "id": 1070,
        "location": "Nelson, New Zealand",
        "updated_at": "2023-12-23 18:59:46 UTC",
        "last_record_at": "2023-12-24 00:00:00 UTC",
        "total_7_days": 16.5,
        "total_30_days": 18.75
      }
    },
    {
      "type": "Feature",
      "geometry": {
        "type": "Point",
        "coordinates": [
          152.95,
          -27.083
        ]
      },
      "properties": {
        "id": 1135,
        "location": "Caboolture, Australia",
        "updated_at": "2023-12-24 10:27:16 UTC",
        "last_record_at": "2023-12-24 00:00:00 UTC",
        "total_7_days": 42.0,
        "total_30_days": 168.0
      }
    },
    {
      "type": "Feature",
      "geometry": {
        "type": "Point",
        "coordinates": [
          152.02,
          -28.229
        ]
      },
      "properties": {
        "id": 819,
        "location": "Warwick, Australia",
        "updated_at": "2023-12-24 23:50:55 UTC",
        "last_record_at": "2023-12-25 00:00:00 UTC",
        "total_7_days": 81.25,
        "total_30_days": 117.75
      }
    },
    {
      "type": "Feature",
      "geometry": {
        "type": "Point",
        "coordinates": [
          -5.801,
          57.374
        ]
      },
      "properties": {
        "id": 1119,
        "location": "Stirling, United Kingdom of Great Britain and Northern Ireland",
        "updated_at": "2023-12-24 11:10:24 UTC",
        "last_record_at": "2023-12-24 00:00:00 UTC",
        "total_7_days": 93.0,
        "total_30_days": 175.0
      }
    },
    {
      "type": "Feature",
      "geometry": {
        "type": "Point",
        "coordinates": [
          "133.000",
          "-27.000"
        ]
      },
      "properties": {
        "id": 704,
        "location": "Beechforest, Australia",
        "updated_at": "2023-12-21 21:34:07 UTC",
        "last_record_at": "2023-12-22 00:00:00 UTC",
        "total_7_days": 19.0,
        "total_30_days": 159.0
      }
    },
    {
      "type": "Feature",
      "geometry": {
        "type": "Point",
        "coordinates": [
          151.953,
          -24.99
        ]
      },
      "properties": {
        "id": 943,
        "location": "Bundaberg, Australia",
        "updated_at": "2023-12-22 23:34:24 UTC",
        "last_record_at": "2023-12-23 00:00:00 UTC",
        "total_7_days": 20.0,
        "total_30_days": 64.5
      }
    },
    {
      "type": "Feature",
      "geometry": {
        "type": "Point",
        "coordinates": [
          30.836,
          -16.783
        ]
      },
      "properties": {
        "id": 1277,
        "location": "Mazowe, Zimbabwe",
        "updated_at": "2023-12-24 03:57:59 UTC",
        "last_record_at": "2023-12-23 00:00:00 UTC",
        "total_7_days": 28.0,
        "total_30_days": 111.0
      }
    },
    {
      "type": "Feature",
      "geometry": {
        "type": "Point",
        "coordinates": [
          146.259,
          -20.081
        ]
      },
      "properties": {
        "id": 958,
        "location": "Charters Towers, Australia",
        "updated_at": "2023-12-24 23:21:00 UTC",
        "last_record_at": "2023-12-24 00:00:00 UTC",
        "total_7_days": 19.0,
        "total_30_days": 86.0
      }
    },
    {
      "type": "Feature",
      "geometry": {
        "type": "Point",
        "coordinates": [
          151.946,
          -27.593
        ]
      },
      "properties": {
        "id": 710,
        "location": "Toowoomba, Australia",
        "updated_at": "2023-12-21 02:07:26 UTC",
        "last_record_at": "2023-12-20 00:00:00 UTC",
        "total_7_days": 28.0,
        "total_30_days": 82.0
      }
    },
    {
      "type": "Feature",
      "geometry": {
        "type": "Point",
        "coordinates": [
          150.917,
          -31.103
        ]
      },
      "properties": {
        "id": 816,
        "location": "Tamworth, Australia",
        "updated_at": "2023-12-20 04:25:11 UTC",
        "last_record_at": "2023-12-20 00:00:00 UTC",
        "total_7_days": 41.0,
        "total_30_days": 87.0
      }
    },
    {
      "type": "Feature",
      "geometry": {
        "type": "Point",
        "coordinates": [
          28.03,
          -26.17
        ]
      },
      "properties": {
        "id": 776,
        "location": "Johannesburg, South Africa",
        "updated_at": "2023-12-19 14:16:53 UTC",
        "last_record_at": "2023-12-18 00:00:00 UTC",
        "total_7_days": 0,
        "total_30_days": 59.0
      }
    },
    {
      "type": "Feature",
      "geometry": {
        "type": "Point",
        "coordinates": [
          146.007,
          -17.808
        ]
      },
      "properties": {
        "id": 59,
        "location": "El arish",
        "updated_at": "2023-12-24 04:50:10 UTC",
        "last_record_at": "2023-12-24 00:00:00 UTC",
        "total_7_days": 9.0,
        "total_30_days": 717.0
      }
    },
    {
      "type": "Feature",
      "geometry": {
        "type": "Point",
        "coordinates": [
          153.474,
          -28.282
        ]
      },
      "properties": {
        "id": 1167,
        "location": "Australia",
        "updated_at": "2023-12-23 21:20:29 UTC",
        "last_record_at": "2023-12-24 00:00:00 UTC",
        "total_7_days": 29.0,
        "total_30_days": 63.0
      }
    },
    {
      "type": "Feature",
      "geometry": {
        "type": "Point",
        "coordinates": [
          150.485,
          -33.517
        ]
      },
      "properties": {
        "id": 485,
        "location": "Bilpin",
        "updated_at": "2023-12-24 19:53:40 UTC",
        "last_record_at": "2023-12-25 00:00:00 UTC",
        "total_7_days": 94.5,
        "total_30_days": 187.0
      }
    },
    {
      "type": "Feature",
      "geometry": {
        "type": "Point",
        "coordinates": [
          "133.000",
          "-27.000"
        ]
      },
      "properties": {
        "id": 669,
        "location": "Ashburton, Australia",
        "updated_at": "2023-12-25 06:02:15 UTC",
        "last_record_at": "2023-12-25 00:00:00 UTC",
        "total_7_days": 12.6,
        "total_30_days": 27.9
      }
    },
    {
      "type": "Feature",
      "geometry": {
        "type": "Point",
        "coordinates": [
          27.24,
          -25.65
        ]
      },
      "properties": {
        "id": 1168,
        "location": "Rustenburg, South Africa",
        "updated_at": "2023-12-16 05:33:04 UTC",
        "last_record_at": "2023-12-16 00:00:00 UTC",
        "total_7_days": 0,
        "total_30_days": 33.0
      }
    },
    {
      "type": "Feature",
      "geometry": {
        "type": "Point",
        "coordinates": [
          152.02,
          -28.229
        ]
      },
      "properties": {
        "id": 940,
        "location": "Warwick, Australia",
        "updated_at": "2023-12-24 22:25:21 UTC",
        "last_record_at": "2023-12-24 00:00:00 UTC",
        "total_7_days": 72.5,
        "total_30_days": 92.5
      }
    },
    {
      "type": "Feature",
      "geometry": {
        "type": "Point",
        "coordinates": [
          -85.86,
          11.25
        ]
      },
      "properties": {
        "id": 1249,
        "location": "San Juan del Sur, Nicaragua",
        "updated_at": "2023-12-09 18:26:40 UTC",
        "last_record_at": "2023-12-09 00:00:00 UTC",
        "total_7_days": 0,
        "total_30_days": 2.9
      }
    },
    {
      "type": "Feature",
      "geometry": {
        "type": "Point",
        "coordinates": [
          151.884,
          -25.246
        ]
      },
      "properties": {
        "id": 944,
        "location": "Bundaberg, Australia",
        "updated_at": "2023-12-22 08:25:57 UTC",
        "last_record_at": "2023-12-22 00:00:00 UTC",
        "total_7_days": 15.0,
        "total_30_days": 41.5
      }
    },
    {
      "type": "Feature",
      "geometry": {
        "type": "Point",
        "coordinates": [
          21.911,
          48.557
        ]
      },
      "properties": {
        "id": 1076,
        "location": "Kosice, Slovakia",
        "updated_at": "2023-12-15 06:12:37 UTC",
        "last_record_at": "2023-12-15 00:00:00 UTC",
        "total_7_days": 0,
        "total_30_days": 91.0
      }
    },
    {
      "type": "Feature",
      "geometry": {
        "type": "Point",
        "coordinates": [
          31.157,
          -25.681
        ]
      },
      "properties": {
        "id": 923,
        "location": "Nelspruit, South Africa",
        "updated_at": "2023-12-25 05:16:51 UTC",
        "last_record_at": "2023-12-25 00:00:00 UTC",
        "total_7_days": 128.0,
        "total_30_days": 334.0
      }
    },
    {
      "type": "Feature",
      "geometry": {
        "type": "Point",
        "coordinates": [
          "133.000",
          "-27.000"
        ]
      },
      "properties": {
        "id": 712,
        "location": "Kenton Valley, Australia",
        "updated_at": "2023-12-11 23:06:02 UTC",
        "last_record_at": "2023-12-11 00:00:00 UTC",
        "total_7_days": 0,
        "total_30_days": 107.0
      }
    },
    {
      "type": "Feature",
      "geometry": {
        "type": "Point",
        "coordinates": [
          118.78,
          -32.87
        ]
      },
      "properties": {
        "id": 874,
        "location": "Australia",
        "updated_at": "2023-12-18 03:29:26 UTC",
        "last_record_at": "2023-12-17 00:00:00 UTC",
        "total_7_days": 0,
        "total_30_days": 5.75
      }
    },
    {
      "type": "Feature",
      "geometry": {
        "type": "Point",
        "coordinates": [
          143.58,
          -38.34
        ]
      },
      "properties": {
        "id": 814,
        "location": "Colac, Australia",
        "updated_at": "2023-12-12 06:04:58 UTC",
        "last_record_at": "2023-12-12 00:00:00 UTC",
        "total_7_days": 0,
        "total_30_days": 54.0
      }
    },
    {
      "type": "Feature",
      "geometry": {
        "type": "Point",
        "coordinates": [
          148.444,
          -33.909
        ]
      },
      "properties": {
        "id": 465,
        "location": "Bumbaldry",
        "updated_at": "2023-12-20 08:02:08 UTC",
        "last_record_at": "2023-12-20 00:00:00 UTC",
        "total_7_days": 26.0,
        "total_30_days": 120.0
      }
    },
    {
      "type": "Feature",
      "geometry": {
        "type": "Point",
        "coordinates": [
          0.0,
          0.0
        ]
      },
      "properties": {
        "id": 653,
        "location": "Marlesford, Woodbridge, England",
        "updated_at": "2023-12-21 10:07:09 UTC",
        "last_record_at": "2023-12-20 00:00:00 UTC",
        "total_7_days": 18.0,
        "total_30_days": 101.0
      }
    },
    {
      "type": "Feature",
      "geometry": {
        "type": "Point",
        "coordinates": [
          -3.533,
          55.883
        ]
      },
      "properties": {
        "id": 938,
        "location": "Livingston, United Kingdom of Great Britain and Northern Ireland",
        "updated_at": "2023-12-19 06:56:39 UTC",
        "last_record_at": "2023-12-18 00:00:00 UTC",
        "total_7_days": 0,
        "total_30_days": 85.5
      }
    },
    {
      "type": "Feature",
      "geometry": {
        "type": "Point",
        "coordinates": [
          "133.000",
          "-27.000"
        ]
      },
      "properties": {
        "id": 748,
        "location": "Bolgart, Australia",
        "updated_at": "2023-12-19 02:04:26 UTC",
        "last_record_at": "2023-12-19 00:00:00 UTC",
        "total_7_days": 1.5,
        "total_30_days": 3.5
      }
    },
    {
      "type": "Feature",
      "geometry": {
        "type": "Point",
        "coordinates": [
          153.477,
          -28.759
        ]
      },
      "properties": {
        "id": 892,
        "location": "Lismore, Australia",
        "updated_at": "2023-12-23 21:51:48 UTC",
        "last_record_at": "2023-12-23 00:00:00 UTC",
        "total_7_days": 23.7,
        "total_30_days": 40.4
      }
    },
    {
      "type": "Feature",
      "geometry": {
        "type": "Point",
        "coordinates": [
          117.375,
          -33.365
        ]
      },
      "properties": {
        "id": 1264,
        "location": "Australia",
        "updated_at": "2023-12-04 12:19:00 UTC",
        "last_record_at": "2023-12-04 00:00:00 UTC",
        "total_7_days": 0,
        "total_30_days": 1.0
      }
    },
    {
      "type": "Feature",
      "geometry": {
        "type": "Point",
        "coordinates": [
          -84.423,
          33.763
        ]
      },
      "properties": {
        "id": 1169,
        "location": "Atlanta, United States of America",
        "updated_at": "2023-12-18 01:40:43 UTC",
        "last_record_at": "2023-12-16 00:00:00 UTC",
        "total_7_days": 0,
        "total_30_days": 1.7
      }
    },
    {
      "type": "Feature",
      "geometry": {
        "type": "Point",
        "coordinates": [
          153.568,
          -28.861
        ]
      },
      "properties": {
        "id": 941,
        "location": "Ballina, Australia",
        "updated_at": "2023-12-23 20:34:09 UTC",
        "last_record_at": "2023-12-23 00:00:00 UTC",
        "total_7_days": 17.5,
        "total_30_days": 52.5
      }
    },
    {
      "type": "Feature",
      "geometry": {
        "type": "Point",
        "coordinates": [
          18.5,
          -12.5
        ]
      },
      "properties": {
        "id": 1128,
        "location": "Angola",
        "updated_at": "2023-12-03 06:47:11 UTC",
        "last_record_at": "2023-12-02 00:00:00 UTC",
        "total_7_days": 0,
        "total_30_days": 147.5
      }
    },
    {
      "type": "Feature",
      "geometry": {
        "type": "Point",
        "coordinates": [
          30.97,
          -25.474
        ]
      },
      "properties": {
        "id": 950,
        "location": "Nelspruit, South Africa",
        "updated_at": "2023-12-25 06:42:07 UTC",
        "last_record_at": "2023-12-24 00:00:00 UTC",
        "total_7_days": 9.5,
        "total_30_days": 143.5
      }
    },
    {
      "type": "Feature",
      "geometry": {
        "type": "Point",
        "coordinates": [
          80.74,
          16.08
        ]
      },
      "properties": {
        "id": 1254,
        "location": "Guntur, India",
        "updated_at": "2023-12-05 09:49:10 UTC",
        "last_record_at": "2023-12-05 00:00:00 UTC",
        "total_7_days": 0,
        "total_30_days": 161.54
      }
    },
    {
      "type": "Feature",
      "geometry": {
        "type": "Point",
        "coordinates": [
          117.333,
          -35.002
        ]
      },
      "properties": {
        "id": 501,
        "location": "Ocean Beach, Australia",
        "updated_at": "2023-12-22 22:36:48 UTC",
        "last_record_at": "2023-12-22 00:00:00 UTC",
        "total_7_days": 0.5,
        "total_30_days": 9.5
      }
    },
    {
      "type": "Feature",
      "geometry": {
        "type": "Point",
        "coordinates": [
          19.031,
          -34.203
        ]
      },
      "properties": {
        "id": 1207,
        "location": "Hermanus, South Africa",
        "updated_at": "2023-12-24 07:54:46 UTC",
        "last_record_at": "2023-12-24 00:00:00 UTC",
        "total_7_days": 6.0,
        "total_30_days": 19.0
      }
    },
    {
      "type": "Feature",
      "geometry": {
        "type": "Point",
        "coordinates": [
          150.786,
          -31.527
        ]
      },
      "properties": {
        "id": 299,
        "location": "Quirindi",
        "updated_at": "2023-12-24 23:40:03 UTC",
        "last_record_at": "2023-12-23 00:00:00 UTC",
        "total_7_days": 82.0,
        "total_30_days": 119.0
      }
    },
    {
      "type": "Feature",
      "geometry": {
        "type": "Point",
        "coordinates": [
          26.22,
          -29.078
        ]
      },
      "properties": {
        "id": 768,
        "location": "Bloemfontein, South Africa",
        "updated_at": "2023-12-24 04:25:44 UTC",
        "last_record_at": "2023-12-22 00:00:00 UTC",
        "total_7_days": 5.0,
        "total_30_days": 97.0
      }
    },
    {
      "type": "Feature",
      "geometry": {
        "type": "Point",
        "coordinates": [
          80.74,
          16.08
        ]
      },
      "properties": {
        "id": 1077,
        "location": "Guntur, India",
        "updated_at": "2023-12-06 14:57:20 UTC",
        "last_record_at": "2023-12-06 00:00:00 UTC",
        "total_7_days": 0,
        "total_30_days": 184.91
      }
    },
    {
      "type": "Feature",
      "geometry": {
        "type": "Point",
        "coordinates": [
          152.919,
          -31.445
        ]
      },
      "properties": {
        "id": 810,
        "location": "Port Macquarie, Australia",
        "updated_at": "2023-12-25 05:27:06 UTC",
        "last_record_at": "2023-12-25 00:00:00 UTC",
        "total_7_days": 82.0,
        "total_30_days": 119.0
      }
    },
    {
      "type": "Feature",
      "geometry": {
        "type": "Point",
        "coordinates": [
          153.035,
          -27.455
        ]
      },
      "properties": {
        "id": 887,
        "location": "Brisbane, Australia",
        "updated_at": "2023-12-20 20:07:14 UTC",
        "last_record_at": "2023-12-21 00:00:00 UTC",
        "total_7_days": 114.0,
        "total_30_days": 189.5
      }
    },
    {
      "type": "Feature",
      "geometry": {
        "type": "Point",
        "coordinates": [
          140.767,
          -36.316
        ]
      },
      "properties": {
        "id": 1030,
        "location": "Bordertown, Australia",
        "updated_at": "2023-12-24 04:18:38 UTC",
        "last_record_at": "2023-12-19 00:00:00 UTC",
        "total_7_days": 2.0,
        "total_30_days": 59.2
      }
    },
    {
      "type": "Feature",
      "geometry": {
        "type": "Point",
        "coordinates": [
          30.03,
          -22.34
        ]
      },
      "properties": {
        "id": 1275,
        "location": "Musina, South Africa",
        "updated_at": "2023-12-17 05:24:43 UTC",
        "last_record_at": "2023-12-16 00:00:00 UTC",
        "total_7_days": 0,
        "total_30_days": 72.0
      }
    },
    {
      "type": "Feature",
      "geometry": {
        "type": "Point",
        "coordinates": [
          144.396,
          -38.167
        ]
      },
      "properties": {
        "id": 928,
        "location": "Geelong, Australia",
        "updated_at": "2023-12-01 09:19:13 UTC",
        "last_record_at": "2023-12-01 00:00:00 UTC",
        "total_7_days": 0,
        "total_30_days": 21.8
      }
    },
    {
      "type": "Feature",
      "geometry": {
        "type": "Point",
        "coordinates": [
          -2.487,
          51.826
        ]
      },
      "properties": {
        "id": 885,
        "location": "United Kingdom of Great Britain and Northern Ireland",
        "updated_at": "2023-12-13 08:08:03 UTC",
        "last_record_at": "2023-12-13 00:00:00 UTC",
        "total_7_days": 0,
        "total_30_days": 4.7
      }
    },
    {
      "type": "Feature",
      "geometry": {
        "type": "Point",
        "coordinates": [
          144.93,
          -17.345
        ]
      },
      "properties": {
        "id": 818,
        "location": "Atherton, Australia",
        "updated_at": "2023-12-22 20:32:55 UTC",
        "last_record_at": "2023-12-23 00:00:00 UTC",
        "total_7_days": 0.0,
        "total_30_days": 275.0
      }
    },
    {
      "type": "Feature",
      "geometry": {
        "type": "Point",
        "coordinates": [
          133.0,
          -27.0
        ]
      },
      "properties": {
        "id": 812,
        "location": "Australia",
        "updated_at": "2023-12-24 09:52:20 UTC",
        "last_record_at": "2023-12-24 00:00:00 UTC",
        "total_7_days": 60.5,
        "total_30_days": 109.5
      }
    },
    {
      "type": "Feature",
      "geometry": {
        "type": "Point",
        "coordinates": [
          80.72,
          16.074
        ]
      },
      "properties": {
        "id": 1078,
        "location": "Guntur, India",
        "updated_at": "2023-12-05 09:40:37 UTC",
        "last_record_at": "2023-12-05 00:00:00 UTC",
        "total_7_days": 0,
        "total_30_days": 100.0
      }
    },
    {
      "type": "Feature",
      "geometry": {
        "type": "Point",
        "coordinates": [
          "133.000",
          "-27.000"
        ]
      },
      "properties": {
        "id": 638,
        "location": "Sutton Forest, Australia",
        "updated_at": "2023-12-25 08:54:19 UTC",
        "last_record_at": "2023-12-25 00:00:00 UTC",
        "total_7_days": 78.0,
        "total_30_days": 160.0
      }
    },
    {
      "type": "Feature",
      "geometry": {
        "type": "Point",
        "coordinates": [
          178.018,
          -38.663
        ]
      },
      "properties": {
        "id": 518,
        "location": "Gisborne, New Zealand",
        "updated_at": "2023-12-12 22:12:36 UTC",
        "last_record_at": "2023-12-11 00:00:00 UTC",
        "total_7_days": 0,
        "total_30_days": 82.7
      }
    },
    {
      "type": "Feature",
      "geometry": {
        "type": "Point",
        "coordinates": [
          133.0,
          -27.0
        ]
      },
      "properties": {
        "id": 813,
        "location": "Australia",
        "updated_at": "2023-12-24 09:53:09 UTC",
        "last_record_at": "2023-12-24 00:00:00 UTC",
        "total_7_days": 102.0,
        "total_30_days": 147.5
      }
    },
    {
      "type": "Feature",
      "geometry": {
        "type": "Point",
        "coordinates": [
          152.351,
          -24.879
        ]
      },
      "properties": {
        "id": 948,
        "location": "Bundaberg, Australia",
        "updated_at": "2023-12-22 08:25:24 UTC",
        "last_record_at": "2023-12-22 00:00:00 UTC",
        "total_7_days": 53.5,
        "total_30_days": 56.0
      }
    },
    {
      "type": "Feature",
      "geometry": {
        "type": "Point",
        "coordinates": [
          152.938,
          -29.712
        ]
      },
      "properties": {
        "id": 1142,
        "location": "Grafton, Australia",
        "updated_at": "2023-12-24 19:22:22 UTC",
        "last_record_at": "2023-12-24 00:00:00 UTC",
        "total_7_days": 85.5,
        "total_30_days": 174.5
      }
    },
    {
      "type": "Feature",
      "geometry": {
        "type": "Point",
        "coordinates": [
          147.06,
          -38.11
        ]
      },
      "properties": {
        "id": 911,
        "location": "Sale, Australia",
        "updated_at": "2023-12-20 20:49:14 UTC",
        "last_record_at": "2023-12-21 00:00:00 UTC",
        "total_7_days": 11.0,
        "total_30_days": 188.0
      }
    },
    {
      "type": "Feature",
      "geometry": {
        "type": "Point",
        "coordinates": [
          147.61,
          -37.83
        ]
      },
      "properties": {
        "id": 815,
        "location": "Bairnsdale, Australia",
        "updated_at": "2023-12-22 06:42:51 UTC",
        "last_record_at": "2023-12-20 00:00:00 UTC",
        "total_7_days": 5.0,
        "total_30_days": 259.5
      }
    },
    {
      "type": "Feature",
      "geometry": {
        "type": "Point",
        "coordinates": [
          149.129,
          -35.283
        ]
      },
      "properties": {
        "id": 905,
        "location": "Canberra, Australia",
        "updated_at": "2023-12-24 22:45:47 UTC",
        "last_record_at": "2023-12-25 00:00:00 UTC",
        "total_7_days": 62.0,
        "total_30_days": 192.0
      }
    },
    {
      "type": "Feature",
      "geometry": {
        "type": "Point",
        "coordinates": [
          133.0,
          -27.0
        ]
      },
      "properties": {
        "id": 1282,
        "location": "Australia",
        "updated_at": "2023-12-24 21:45:03 UTC",
        "last_record_at": "2023-12-24 00:00:00 UTC",
        "total_7_days": 88.0,
        "total_30_days": 241.0
      }
    },
    {
      "type": "Feature",
      "geometry": {
        "type": "Point",
        "coordinates": [
          149.585,
          -33.412
        ]
      },
      "properties": {
        "id": 445,
        "location": "Bathurst",
        "updated_at": "2023-12-25 05:18:55 UTC",
        "last_record_at": "2023-12-24 00:00:00 UTC",
        "total_7_days": 39.5,
        "total_30_days": 86.0
      }
    },
    {
      "type": "Feature",
      "geometry": {
        "type": "Point",
        "coordinates": [
          "133.000",
          "-27.000"
        ]
      },
      "properties": {
        "id": 714,
        "location": "Kersbrook, Australia",
        "updated_at": "2023-12-14 06:46:37 UTC",
        "last_record_at": "2023-12-13 00:00:00 UTC",
        "total_7_days": 0,
        "total_30_days": 104.75
      }
    },
    {
      "type": "Feature",
      "geometry": {
        "type": "Point",
        "coordinates": [
          28.264,
          -25.82
        ]
      },
      "properties": {
        "id": 992,
        "location": "Pretoria, South Africa",
        "updated_at": "2023-12-21 06:18:04 UTC",
        "last_record_at": "2023-12-18 00:00:00 UTC",
        "total_7_days": 0,
        "total_30_days": 62.0
      }
    },
    {
      "type": "Feature",
      "geometry": {
        "type": "Point",
        "coordinates": [
          167.712,
          -45.446
        ]
      },
      "properties": {
        "id": 1284,
        "location": "Te Anau, New Zealand",
        "updated_at": "2023-12-24 20:06:08 UTC",
        "last_record_at": "2023-12-25 00:00:00 UTC",
        "total_7_days": 23.5,
        "total_30_days": 55.0
      }
    },
    {
      "type": "Feature",
      "geometry": {
        "type": "Point",
        "coordinates": [
          151.94,
          28.9
        ]
      },
      "properties": {
        "id": 370,
        "location": "Wallangarra, Australia",
        "updated_at": "2023-12-24 20:10:48 UTC",
        "last_record_at": "2023-12-24 00:00:00 UTC",
        "total_7_days": 67.0,
        "total_30_days": 98.0
      }
    },
    {
      "type": "Feature",
      "geometry": {
        "type": "Point",
        "coordinates": [
          18.472,
          -33.937
        ]
      },
      "properties": {
        "id": 884,
        "location": "Cape Town, South Africa",
        "updated_at": "2023-12-12 16:58:14 UTC",
        "last_record_at": "2023-12-12 00:00:00 UTC",
        "total_7_days": 0,
        "total_30_days": 3.0
      }
    },
    {
      "type": "Feature",
      "geometry": {
        "type": "Point",
        "coordinates": [
          "133.000",
          "-27.000"
        ]
      },
      "properties": {
        "id": 668,
        "location": "Ashburton, Australia",
        "updated_at": "2023-12-25 06:23:14 UTC",
        "last_record_at": "2023-12-25 00:00:00 UTC",
        "total_7_days": 32.0,
        "total_30_days": 90.5
      }
    },
    {
      "type": "Feature",
      "geometry": {
        "type": "Point",
        "coordinates": [
          144.25,
          -23.45
        ]
      },
      "properties": {
        "id": 1157,
        "location": "Longreach, Australia",
        "updated_at": "2023-12-16 05:55:06 UTC",
        "last_record_at": "2023-12-11 00:00:00 UTC",
        "total_7_days": 0,
        "total_30_days": 10.0
      }
    },
    {
      "type": "Feature",
      "geometry": {
        "type": "Point",
        "coordinates": [
          151.153,
          -28.639
        ]
      },
      "properties": {
        "id": 443,
        "location": "Brush Creek",
        "updated_at": "2023-12-24 23:04:44 UTC",
        "last_record_at": "2023-12-24 00:00:00 UTC",
        "total_7_days": 119.0,
        "total_30_days": 142.5
      }
    },
    {
      "type": "Feature",
      "geometry": {
        "type": "Point",
        "coordinates": [
          174.763,
          -36.848
        ]
      },
      "properties": {
        "id": 767,
        "location": "Auckland, New Zealand",
        "updated_at": "2023-12-23 22:34:38 UTC",
        "last_record_at": "2023-12-23 00:00:00 UTC",
        "total_7_days": 6.0,
        "total_30_days": 41.0
      }
    },
    {
      "type": "Feature",
      "geometry": {
        "type": "Point",
        "coordinates": [
          152.462,
          -31.898
        ]
      },
      "properties": {
        "id": 775,
        "location": "Taree, Australia",
        "updated_at": "2023-12-23 22:47:03 UTC",
        "last_record_at": "2023-12-23 00:00:00 UTC",
        "total_7_days": 46.0,
        "total_30_days": 116.0
      }
    },
    {
      "type": "Feature",
      "geometry": {
        "type": "Point",
        "coordinates": [
          145.283,
          -38.1
        ]
      },
      "properties": {
        "id": 836,
        "location": "Cranbourne, Australia",
        "updated_at": "2023-12-24 20:30:06 UTC",
        "last_record_at": "2023-12-24 00:00:00 UTC",
        "total_7_days": 13.0,
        "total_30_days": 89.0
      }
    },
    {
      "type": "Feature",
      "geometry": {
        "type": "Point",
        "coordinates": [
          152.784,
          -26.592
        ]
      },
      "properties": {
        "id": 453,
        "location": "Coolabine",
        "updated_at": "2023-11-05 02:06:10 UTC",
        "last_record_at": "2023-11-04 00:00:00 UTC"
      }
    },
    {
      "type": "Feature",
      "geometry": {
        "type": "Point",
        "coordinates": [
          115.801,
          -32.035
        ]
      },
      "properties": {
        "id": 571,
        "location": "Melville, Australia",
        "updated_at": "2023-11-29 01:10:19 UTC",
        "last_record_at": "2023-11-29 00:00:00 UTC",
        "total_7_days": 0,
        "total_30_days": 10.0
      }
    },
    {
      "type": "Feature",
      "geometry": {
        "type": "Point",
        "coordinates": [
          115.882,
          -32.12
        ]
      },
      "properties": {
        "id": 903,
        "location": "Perth, Australia",
        "updated_at": "2023-11-29 01:26:14 UTC",
        "last_record_at": "2023-11-29 00:00:00 UTC",
        "total_7_days": 0,
        "total_30_days": 6.0
      }
    },
    {
      "type": "Feature",
      "geometry": {
        "type": "Point",
        "coordinates": [
          31.148,
          -17.747
        ]
      },
      "properties": {
        "id": 1276,
        "location": "Harare, Zimbabwe",
        "updated_at": "2023-11-09 03:45:52 UTC",
        "last_record_at": "2023-11-08 00:00:00 UTC"
      }
    },
    {
      "type": "Feature",
      "geometry": {
        "type": "Point",
        "coordinates": [
          -0.883,
          52.25
        ]
      },
      "properties": {
        "id": 830,
        "location": "Northampton, United Kingdom of Great Britain and Northern Ireland",
        "updated_at": "2023-11-12 10:30:54 UTC",
        "last_record_at": "2023-11-11 00:00:00 UTC"
      }
    },
    {
      "type": "Feature",
      "geometry": {
        "type": "Point",
        "coordinates": [
          115.84,
          -31.955
        ]
      },
      "properties": {
        "id": 873,
        "location": "Perth, Australia",
        "updated_at": "2023-12-01 14:27:03 UTC",
        "last_record_at": "2023-11-30 00:00:00 UTC",
        "total_7_days": 0,
        "total_30_days": 9.0
      }
    },
    {
      "type": "Feature",
      "geometry": {
        "type": "Point",
        "coordinates": [
          145.681,
          -17.557
        ]
      },
      "properties": {
        "id": 1137,
        "location": "Innisfail, Australia",
        "updated_at": "2023-11-27 23:09:47 UTC",
        "last_record_at": "2023-11-27 00:00:00 UTC",
        "total_7_days": 0,
        "total_30_days": 15.0
      }
    },
    {
      "type": "Feature",
      "geometry": {
        "type": "Point",
        "coordinates": [
          144.25,
          -23.45
        ]
      },
      "properties": {
        "id": 1158,
        "location": "Longreach, Australia",
        "updated_at": "2023-11-26 01:22:10 UTC",
        "last_record_at": "2023-11-22 00:00:00 UTC"
      }
    },
    {
      "type": "Feature",
      "geometry": {
        "type": "Point",
        "coordinates": [
          151.139,
          -33.824
        ]
      },
      "properties": {
        "id": 487,
        "location": "Hunters Hill",
        "updated_at": "2023-11-13 05:02:52 UTC",
        "last_record_at": "2023-11-06 00:00:00 UTC"
      }
    },
    {
      "type": "Feature",
      "geometry": {
        "type": "Point",
        "coordinates": [
          18.435,
          -33.92
        ]
      },
      "properties": {
        "id": 1153,
        "location": "Cape Town, South Africa",
        "updated_at": "2023-11-23 04:37:32 UTC",
        "last_record_at": "2023-11-22 00:00:00 UTC"
      }
    },
    {
      "type": "Feature",
      "geometry": {
        "type": "Point",
        "coordinates": [
          115.705,
          -31.634
        ]
      },
      "properties": {
        "id": 764,
        "location": "Perth, Australia",
        "updated_at": "2023-12-01 09:00:07 UTC",
        "last_record_at": "2023-11-30 00:00:00 UTC",
        "total_7_days": 0,
        "total_30_days": 3.5
      }
    },
    {
      "type": "Feature",
      "geometry": {
        "type": "Point",
        "coordinates": [
          115.747,
          -32.523
        ]
      },
      "properties": {
        "id": 1118,
        "location": "Mandurah, Australia",
        "updated_at": "2023-11-29 08:25:15 UTC",
        "last_record_at": "2023-11-28 00:00:00 UTC",
        "total_7_days": 0,
        "total_30_days": 5.5
      }
    },
    {
      "type": "Feature",
      "geometry": {
        "type": "Point",
        "coordinates": [
          117.892,
          -35.017
        ]
      },
      "properties": {
        "id": 1265,
        "location": "Albany, Australia",
        "updated_at": "2023-12-03 01:55:38 UTC",
        "last_record_at": "2023-11-29 00:00:00 UTC",
        "total_7_days": 0,
        "total_30_days": 3.0
      }
    },
    {
      "type": "Feature",
      "geometry": {
        "type": "Point",
        "coordinates": [
          153.035,
          -27.455
        ]
      },
      "properties": {
        "id": 1278,
        "location": "Brisbane, Australia",
        "updated_at": "2023-11-24 23:17:44 UTC",
        "last_record_at": "2023-11-25 00:00:00 UTC"
      }
    },
    {
      "type": "Feature",
      "geometry": {
        "type": "Point",
        "coordinates": [
          145.469,
          -17.27
        ]
      },
      "properties": {
        "id": 1148,
        "location": "Atherton, Australia",
        "updated_at": "2023-11-27 23:04:41 UTC",
        "last_record_at": "2023-11-28 00:00:00 UTC",
        "total_7_days": 0,
        "total_30_days": 46.0
      }
    },
    {
      "type": "Feature",
      "geometry": {
        "type": "Point",
        "coordinates": [
          0.117,
          52.2
        ]
      },
      "properties": {
        "id": 1208,
        "location": "Cambridge, United Kingdom of Great Britain and Northern Ireland",
        "updated_at": "2023-11-07 16:17:13 UTC",
        "last_record_at": "2023-11-06 00:00:00 UTC"
      }
    },
    {
      "type": "Feature",
      "geometry": {
        "type": "Point",
        "coordinates": [
          141.433,
          -31.95
        ]
      },
      "properties": {
        "id": 1209,
        "location": "Broken Hill, Australia",
        "updated_at": "2023-11-28 20:31:50 UTC",
        "last_record_at": "2023-11-28 00:00:00 UTC",
        "total_7_days": 0,
        "total_30_days": 5.1
      }
    },
    {
      "type": "Feature",
      "geometry": {
        "type": "Point",
        "coordinates": [
          130.781,
          -13.154
        ]
      },
      "properties": {
        "id": 1279,
        "location": "Darwin, Australia",
        "updated_at": "2023-11-28 09:13:22 UTC",
        "last_record_at": "2023-11-27 00:00:00 UTC",
        "total_7_days": 0,
        "total_30_days": 2.0
      }
    },
    {
      "type": "Feature",
      "geometry": {
        "type": "Point",
        "coordinates": [
          115.878,
          -32.049
        ]
      },
      "properties": {
        "id": 138,
        "location": "Willetton, Australia",
        "updated_at": "2023-11-30 22:44:00 UTC",
        "last_record_at": "2023-10-31 00:00:00 UTC"
      }
    },
    {
      "type": "Feature",
      "geometry": {
        "type": "Point",
        "coordinates": [
          145.824,
          -38.432
        ]
      },
      "properties": {
        "id": 994,
        "location": "Melbourne, Australia",
        "updated_at": "2023-10-14 07:44:08 UTC",
        "last_record_at": "2023-10-14 00:00:00 UTC"
      }
    },
    {
      "type": "Feature",
      "geometry": {
        "type": "Point",
        "coordinates": [
          115.349,
          -33.656
        ]
      },
      "properties": {
        "id": 1255,
        "location": "Busselton, Australia",
        "updated_at": "2023-11-28 23:43:03 UTC",
        "last_record_at": "2023-10-30 00:00:00 UTC"
      }
    },
    {
      "type": "Feature",
      "geometry": {
        "type": "Point",
        "coordinates": [
          -90.649,
          38.501
        ]
      },
      "properties": {
        "id": 1274,
        "location": "Eureka, United States of America",
        "updated_at": "2023-10-19 15:20:17 UTC",
        "last_record_at": "2023-10-17 00:00:00 UTC"
      }
    },
    {
      "type": "Feature",
      "geometry": {
        "type": "Point",
        "coordinates": [
          0.0,
          0.0
        ]
      },
      "properties": {
        "id": 743,
        "location": "Bodmin, United Kingdom",
        "updated_at": "2023-09-17 11:57:48 UTC",
        "last_record_at": "2023-09-16 00:00:00 UTC"
      }
    },
    {
      "type": "Feature",
      "geometry": {
        "type": "Point",
        "coordinates": [
          176.854,
          -39.418
        ]
      },
      "properties": {
        "id": 835,
        "location": "Napier, New Zealand",
        "updated_at": "2023-10-03 04:00:48 UTC",
        "last_record_at": "2023-09-30 00:00:00 UTC"
      }
    },
    {
      "type": "Feature",
      "geometry": {
        "type": "Point",
        "coordinates": [
          153.035,
          -27.455
        ]
      },
      "properties": {
        "id": 879,
        "location": "Brisbane, Australia",
        "updated_at": "2023-09-28 07:30:03 UTC",
        "last_record_at": "2023-09-28 00:00:00 UTC"
      }
    },
    {
      "type": "Feature",
      "geometry": {
        "type": "Point",
        "coordinates": [
          0.0,
          0.0
        ]
      },
      "properties": {
        "id": 1270,
        "location": "Abingdon, United States of America",
        "updated_at": "2023-09-21 22:13:38 UTC",
        "last_record_at": "2023-09-20 00:00:00 UTC"
      }
    },
    {
      "type": "Feature",
      "geometry": {
        "type": "Point",
        "coordinates": [
          119.069,
          -32.731
        ]
      },
      "properties": {
        "id": 1071,
        "location": "Australia",
        "updated_at": "2023-09-14 00:59:27 UTC",
        "last_record_at": "2023-09-14 00:00:00 UTC"
      }
    },
    {
      "type": "Feature",
      "geometry": {
        "type": "Point",
        "coordinates": [
          -92.748,
          44.033
        ]
      },
      "properties": {
        "id": 1248,
        "location": "Kasson, United States of America",
        "updated_at": "2023-10-05 01:07:07 UTC",
        "last_record_at": "2023-09-27 00:00:00 UTC"
      }
    },
    {
      "type": "Feature",
      "geometry": {
        "type": "Point",
        "coordinates": [
          145.569,
          -35.371
        ]
      },
      "properties": {
        "id": 1261,
        "location": "Australia",
        "updated_at": "2023-08-17 22:19:24 UTC",
        "last_record_at": "2023-08-18 00:00:00 UTC"
      }
    },
    {
      "type": "Feature",
      "geometry": {
        "type": "Point",
        "coordinates": [
          145.833,
          -35.154
        ]
      },
      "properties": {
        "id": 1259,
        "location": "Australia",
        "updated_at": "2023-08-17 22:18:19 UTC",
        "last_record_at": "2023-08-18 00:00:00 UTC"
      }
    },
    {
      "type": "Feature",
      "geometry": {
        "type": "Point",
        "coordinates": [
          145.53,
          -35.346
        ]
      },
      "properties": {
        "id": 1260,
        "location": "Australia",
        "updated_at": "2023-08-17 22:17:28 UTC",
        "last_record_at": "2023-08-18 00:00:00 UTC"
      }
    },
    {
      "type": "Feature",
      "geometry": {
        "type": "Point",
        "coordinates": [
          144.371,
          -36.198
        ]
      },
      "properties": {
        "id": 1269,
        "location": "Echuca, Australia",
        "updated_at": "2023-09-01 01:49:43 UTC",
        "last_record_at": "2023-08-29 00:00:00 UTC"
      }
    },
    {
      "type": "Feature",
      "geometry": {
        "type": "Point",
        "coordinates": [
          "133.000",
          "-27.000"
        ]
      },
      "properties": {
        "id": 697,
        "location": "CROYDON NORTH, Australia",
        "updated_at": "2023-08-27 04:31:59 UTC",
        "last_record_at": "2023-08-24 00:00:00 UTC"
      }
    },
    {
      "type": "Feature",
      "geometry": {
        "type": "Point",
        "coordinates": [
          145.469,
          -17.27
        ]
      },
      "properties": {
        "id": 1164,
        "location": "Atherton, Australia",
        "updated_at": "2023-08-26 08:34:36 UTC",
        "last_record_at": "2023-08-26 00:00:00 UTC"
      }
    },
    {
      "type": "Feature",
      "geometry": {
        "type": "Point",
        "coordinates": [
          145.576,
          -35.345
        ]
      },
      "properties": {
        "id": 1257,
        "location": "Australia",
        "updated_at": "2023-08-17 22:18:04 UTC",
        "last_record_at": "2023-08-17 00:00:00 UTC"
      }
    },
    {
      "type": "Feature",
      "geometry": {
        "type": "Point",
        "coordinates": [
          144.332,
          -37.385
        ]
      },
      "properties": {
        "id": 765,
        "location": "Australia",
        "updated_at": "2023-07-10 05:41:44 UTC",
        "last_record_at": "2023-07-10 00:00:00 UTC"
      }
    },
    {
      "type": "Feature",
      "geometry": {
        "type": "Point",
        "coordinates": [
          172.867,
          -43.691
        ]
      },
      "properties": {
        "id": 721,
        "location": "Akaroa, New Zealand",
        "updated_at": "2023-07-24 23:14:44 UTC",
        "last_record_at": "2023-07-23 00:00:00 UTC"
      }
    },
    {
      "type": "Feature",
      "geometry": {
        "type": "Point",
        "coordinates": [
          146.77,
          -19.25
        ]
      },
      "properties": {
        "id": 1035,
        "location": "Townsville, Australia",
        "updated_at": "2023-07-03 20:37:21 UTC",
        "last_record_at": "2023-07-04 00:00:00 UTC"
      }
    },
    {
      "type": "Feature",
      "geometry": {
        "type": "Point",
        "coordinates": [
          145.469,
          -35.396
        ]
      },
      "properties": {
        "id": 1258,
        "location": "Australia",
        "updated_at": "2023-07-16 08:54:49 UTC",
        "last_record_at": "2023-07-06 00:00:00 UTC"
      }
    },
    {
      "type": "Feature",
      "geometry": {
        "type": "Point",
        "coordinates": [
          145.469,
          -17.27
        ]
      },
      "properties": {
        "id": 1138,
        "location": "Atherton, Australia",
        "updated_at": "2023-07-05 21:54:38 UTC",
        "last_record_at": "2023-07-05 00:00:00 UTC"
      }
    },
    {
      "type": "Feature",
      "geometry": {
        "type": "Point",
        "coordinates": [
          115.65,
          -33.344
        ]
      },
      "properties": {
        "id": 1271,
        "location": "Bunbury, Australia",
        "updated_at": "2023-09-04 01:03:03 UTC",
        "last_record_at": "2023-07-06 00:00:00 UTC"
      }
    },
    {
      "type": "Feature",
      "geometry": {
        "type": "Point",
        "coordinates": [
          145.856,
          -35.091
        ]
      },
      "properties": {
        "id": 1262,
        "location": "Australia",
        "updated_at": "2023-06-28 09:08:23 UTC",
        "last_record_at": "2023-06-28 00:00:00 UTC"
      }
    },
    {
      "type": "Feature",
      "geometry": {
        "type": "Point",
        "coordinates": [
          145.455,
          -35.402
        ]
      },
      "properties": {
        "id": 1263,
        "location": "Australia",
        "updated_at": "2023-06-28 09:19:14 UTC",
        "last_record_at": "2023-06-28 00:00:00 UTC"
      }
    },
    {
      "type": "Feature",
      "geometry": {
        "type": "Point",
        "coordinates": [
          30.902,
          -25.534
        ]
      },
      "properties": {
        "id": 951,
        "location": "Nelspruit, South Africa",
        "updated_at": "2023-05-09 04:01:50 UTC",
        "last_record_at": "2023-05-09 00:00:00 UTC"
      }
    },
    {
      "type": "Feature",
      "geometry": {
        "type": "Point",
        "coordinates": [
          17.084,
          -22.57
        ]
      },
      "properties": {
        "id": 894,
        "location": "Windhoek, Namibia",
        "updated_at": "2023-05-03 07:26:58 UTC",
        "last_record_at": "2023-05-02 00:00:00 UTC"
      }
    },
    {
      "type": "Feature",
      "geometry": {
        "type": "Point",
        "coordinates": [
          28.229,
          -25.707
        ]
      },
      "properties": {
        "id": 921,
        "location": "Pretoria, South Africa",
        "updated_at": "2023-05-08 13:12:41 UTC",
        "last_record_at": "2023-05-08 00:00:00 UTC"
      }
    },
    {
      "type": "Feature",
      "geometry": {
        "type": "Point",
        "coordinates": [
          29.45,
          -23.89
        ]
      },
      "properties": {
        "id": 939,
        "location": "Polokwane, South Africa",
        "updated_at": "2023-05-18 07:52:14 UTC",
        "last_record_at": "2023-05-16 00:00:00 UTC"
      }
    },
    {
      "type": "Feature",
      "geometry": {
        "type": "Point",
        "coordinates": [
          137.99,
          -33.191
        ]
      },
      "properties": {
        "id": 1211,
        "location": "Port Pirie, Australia",
        "updated_at": "2023-04-06 20:47:14 UTC",
        "last_record_at": "2023-04-07 00:00:00 UTC"
      }
    },
    {
      "type": "Feature",
      "geometry": {
        "type": "Point",
        "coordinates": [
          133.0,
          -27.0
        ]
      },
      "properties": {
        "id": 1213,
        "location": "Australia",
        "updated_at": "2023-04-16 22:12:25 UTC",
        "last_record_at": "2023-04-16 00:00:00 UTC"
      }
    },
    {
      "type": "Feature",
      "geometry": {
        "type": "Point",
        "coordinates": [
          "133.000",
          "-27.000"
        ]
      },
      "properties": {
        "id": 626,
        "location": "Heathfield, Australia",
        "updated_at": "2023-04-09 13:59:26 UTC",
        "last_record_at": "2023-04-09 00:00:00 UTC"
      }
    },
    {
      "type": "Feature",
      "geometry": {
        "type": "Point",
        "coordinates": [
          144.25,
          -23.45
        ]
      },
      "properties": {
        "id": 1161,
        "location": "Longreach, Australia",
        "updated_at": "2023-04-16 04:44:51 UTC",
        "last_record_at": "2023-04-16 00:00:00 UTC"
      }
    },
    {
      "type": "Feature",
      "geometry": {
        "type": "Point",
        "coordinates": [
          144.25,
          -23.45
        ]
      },
      "properties": {
        "id": 1163,
        "location": "Longreach, Australia",
        "updated_at": "2023-04-16 04:45:13 UTC",
        "last_record_at": "2023-04-16 00:00:00 UTC"
      }
    },
    {
      "type": "Feature",
      "geometry": {
        "type": "Point",
        "coordinates": [
          144.25,
          -23.45
        ]
      },
      "properties": {
        "id": 1162,
        "location": "Longreach, Australia",
        "updated_at": "2023-04-16 04:45:27 UTC",
        "last_record_at": "2023-04-16 00:00:00 UTC"
      }
    },
    {
      "type": "Feature",
      "geometry": {
        "type": "Point",
        "coordinates": [
          144.25,
          -23.45
        ]
      },
      "properties": {
        "id": 1160,
        "location": "Longreach, Australia",
        "updated_at": "2023-04-16 04:45:44 UTC",
        "last_record_at": "2023-04-16 00:00:00 UTC"
      }
    },
    {
      "type": "Feature",
      "geometry": {
        "type": "Point",
        "coordinates": [
          -2.717,
          52.05
        ]
      },
      "properties": {
        "id": 1212,
        "location": "Hereford, United Kingdom of Great Britain and Northern Ireland",
        "updated_at": "2023-04-01 16:22:14 UTC",
        "last_record_at": "2023-04-01 00:00:00 UTC"
      }
    },
    {
      "type": "Feature",
      "geometry": {
        "type": "Point",
        "coordinates": [
          "133.000",
          "-27.000"
        ]
      },
      "properties": {
        "id": 633,
        "location": "Yass, Australia",
        "updated_at": "2023-04-13 02:34:42 UTC",
        "last_record_at": "2023-03-29 00:00:00 UTC"
      }
    }
  ]
}