{
  "type": "FeatureCollection",
  "features": [
    {
      "type": "Feature",
      "geometry": {
        "type": "Point",
        "coordinates": [
          -3.15,
          58.478
        ]
      },
      "properties": {
        "id": 1759,
        "location": "Inverness, United Kingdom of Great Britain and Northern Ireland",
        "updated_at": "2026-02-11 09:11:00 UTC",
        "last_record_at": "2026-02-11 00:00:00 UTC",
        "total_7_days": 29.2,
        "total_30_days": 95.0
      }
    },
    {
      "type": "Feature",
      "geometry": {
        "type": "Point",
        "coordinates": [
          150.786,
          -31.527
        ]
      },
      "properties": {
        "id": 299,
        "location": "Quirindi",
        "updated_at": "2026-02-10 04:11:44 UTC",
        "last_record_at": "2026-02-09 00:00:00 UTC",
        "total_7_days": 7.5,
        "total_30_days": 42.0
      }
    },
    {
      "type": "Feature",
      "geometry": {
        "type": "Point",
        "coordinates": [
          145.75,
          -16.931
        ]
      },
      "properties": {
        "id": 1146,
        "location": "Cairns, Australia",
        "updated_at": "2026-02-09 00:16:11 UTC",
        "last_record_at": "2026-02-09 00:00:00 UTC",
        "total_7_days": 106.0,
        "total_30_days": 351.0
      }
    },
    {
      "type": "Feature",
      "geometry": {
        "type": "Point",
        "coordinates": [
          152.02,
          -28.229
        ]
      },
      "properties": {
        "id": 940,
        "location": "Warwick, Australia",
        "updated_at": "2026-02-10 06:10:15 UTC",
        "last_record_at": "2026-02-09 00:00:00 UTC",
        "total_7_days": 1.0,
        "total_30_days": 37.5
      }
    },
    {
      "type": "Feature",
      "geometry": {
        "type": "Point",
        "coordinates": [
          "133.000",
          "-27.000"
        ]
      },
      "properties": {
        "id": 704,
        "location": "Beechforest, Australia",
        "updated_at": "2026-02-02 21:46:25 UTC",
        "last_record_at": "2026-02-03 00:00:00 UTC",
        "total_7_days": 0,
        "total_30_days": 90.3
      }
    },
    {
      "type": "Feature",
      "geometry": {
        "type": "Point",
        "coordinates": [
          151.153,
          -28.629
        ]
      },
      "properties": {
        "id": 486,
        "location": "Brush Creek",
        "updated_at": "2026-02-10 11:54:15 UTC",
        "last_record_at": "2026-02-10 00:00:00 UTC",
        "total_7_days": 0.5,
        "total_30_days": 30.5
      }
    },
    {
      "type": "Feature",
      "geometry": {
        "type": "Point",
        "coordinates": [
          18.435,
          -33.92
        ]
      },
      "properties": {
        "id": 1153,
        "location": "Cape Town, South Africa",
        "updated_at": "2026-02-09 16:47:29 UTC",
        "last_record_at": "2026-02-09 00:00:00 UTC",
        "total_7_days": 10.0,
        "total_30_days": 10.0
      }
    },
    {
      "type": "Feature",
      "geometry": {
        "type": "Point",
        "coordinates": [
          -81.805,
          35.344
        ]
      },
      "properties": {
        "id": 1285,
        "location": "United States of America",
        "updated_at": "2026-02-06 10:23:17 UTC",
        "last_record_at": "2026-02-05 00:00:00 UTC",
        "total_7_days": 0.13,
        "total_30_days": 1.54
      }
    },
    {
      "type": "Feature",
      "geometry": {
        "type": "Point",
        "coordinates": [
          27.703,
          -26.158
        ]
      },
      "properties": {
        "id": 1126,
        "location": "Johannesburg, South Africa",
        "updated_at": "2026-02-03 20:11:07 UTC",
        "last_record_at": "2026-02-03 00:00:00 UTC",
        "total_7_days": 0,
        "total_30_days": 113.0
      }
    },
    {
      "type": "Feature",
      "geometry": {
        "type": "Point",
        "coordinates": [
          27.971,
          -26.166
        ]
      },
      "properties": {
        "id": 776,
        "location": "Johannesburg, South Africa",
        "updated_at": "2026-02-02 06:18:44 UTC",
        "last_record_at": "2026-02-01 00:00:00 UTC",
        "total_7_days": 0,
        "total_30_days": 82.5
      }
    },
    {
      "type": "Feature",
      "geometry": {
        "type": "Point",
        "coordinates": [
          -3.53,
          50.7
        ]
      },
      "properties": {
        "id": 1210,
        "location": "Exeter, United Kingdom of Great Britain and Northern Ireland",
        "updated_at": "2026-02-06 12:36:09 UTC",
        "last_record_at": "2026-02-06 00:00:00 UTC",
        "total_7_days": 26.0,
        "total_30_days": 284.0
      }
    },
    {
      "type": "Feature",
      "geometry": {
        "type": "Point",
        "coordinates": [
          174.903,
          -37.202
        ]
      },
      "properties": {
        "id": 1762,
        "location": "Pukekohe, New Zealand",
        "updated_at": "2026-02-03 04:57:56 UTC",
        "last_record_at": "2026-02-03 00:00:00 UTC",
        "total_7_days": 0,
        "total_30_days": 182.0
      }
    },
    {
      "type": "Feature",
      "geometry": {
        "type": "Point",
        "coordinates": [
          18.5,
          -12.5
        ]
      },
      "properties": {
        "id": 1128,
        "location": "Angola",
        "updated_at": "2026-02-02 15:05:28 UTC",
        "last_record_at": "2026-02-01 00:00:00 UTC",
        "total_7_days": 0,
        "total_30_days": 81.5
      }
    },
    {
      "type": "Feature",
      "geometry": {
        "type": "Point",
        "coordinates": [
          151.153,
          -28.639
        ]
      },
      "properties": {
        "id": 443,
        "location": "Brush Creek",
        "updated_at": "2026-02-10 11:54:03 UTC",
        "last_record_at": "2026-02-10 00:00:00 UTC",
        "total_7_days": 0.5,
        "total_30_days": 26.5
      }
    },
    {
      "type": "Feature",
      "geometry": {
        "type": "Point",
        "coordinates": [
          147.592,
          -38.036
        ]
      },
      "properties": {
        "id": 1695,
        "location": "Sale, Australia",
        "updated_at": "2026-02-10 23:35:54 UTC",
        "last_record_at": "2026-02-11 00:00:00 UTC",
        "total_7_days": 0.6,
        "total_30_days": 68.4
      }
    },
    {
      "type": "Feature",
      "geometry": {
        "type": "Point",
        "coordinates": [
          146.259,
          -20.081
        ]
      },
      "properties": {
        "id": 958,
        "location": "Charters Towers, Australia",
        "updated_at": "2026-02-05 20:25:30 UTC",
        "last_record_at": "2026-02-05 00:00:00 UTC",
        "total_7_days": 8.0,
        "total_30_days": 52.0
      }
    },
    {
      "type": "Feature",
      "geometry": {
        "type": "Point",
        "coordinates": [
          "133.000",
          "-27.000"
        ]
      },
      "properties": {
        "id": 668,
        "location": "Ashburton, Australia",
        "updated_at": "2026-02-08 21:36:45 UTC",
        "last_record_at": "2026-02-09 00:00:00 UTC",
        "total_7_days": 3.0,
        "total_30_days": 9.0
      }
    },
    {
      "type": "Feature",
      "geometry": {
        "type": "Point",
        "coordinates": [
          152.95,
          -27.083
        ]
      },
      "properties": {
        "id": 1286,
        "location": "Caboolture, Australia",
        "updated_at": "2026-02-10 20:18:26 UTC",
        "last_record_at": "2026-02-11 00:00:00 UTC",
        "total_7_days": 4.0,
        "total_30_days": 140.0
      }
    },
    {
      "type": "Feature",
      "geometry": {
        "type": "Point",
        "coordinates": [
          0.0,
          0.0
        ]
      },
      "properties": {
        "id": 653,
        "location": "Marlesford, Woodbridge, England",
        "updated_at": "2026-02-09 19:22:24 UTC",
        "last_record_at": "2026-02-08 00:00:00 UTC",
        "total_7_days": 17.0,
        "total_30_days": 87.0
      }
    },
    {
      "type": "Feature",
      "geometry": {
        "type": "Point",
        "coordinates": [
          24.754,
          42.154
        ]
      },
      "properties": {
        "id": 1824,
        "location": "Plovdiv, Bulgaria",
        "updated_at": "2026-02-11 06:27:04 UTC",
        "last_record_at": "2026-02-10 00:00:00 UTC",
        "total_7_days": 25.8,
        "total_30_days": 77.8
      }
    },
    {
      "type": "Feature",
      "geometry": {
        "type": "Point",
        "coordinates": [
          18.472,
          -33.937
        ]
      },
      "properties": {
        "id": 884,
        "location": "Cape Town, South Africa",
        "updated_at": "2026-02-09 17:00:43 UTC",
        "last_record_at": "2026-02-09 00:00:00 UTC",
        "total_7_days": 8.0,
        "total_30_days": 16.0
      }
    },
    {
      "type": "Feature",
      "geometry": {
        "type": "Point",
        "coordinates": [
          133.0,
          -27.0
        ]
      },
      "properties": {
        "id": 1394,
        "location": "Australia",
        "updated_at": "2026-02-03 11:39:44 UTC",
        "last_record_at": "2026-02-03 00:00:00 UTC",
        "total_7_days": 0,
        "total_30_days": 50.0
      }
    },
    {
      "type": "Feature",
      "geometry": {
        "type": "Point",
        "coordinates": [
          152.714,
          -30.335
        ]
      },
      "properties": {
        "id": 1660,
        "location": "Coffs Harbour, Australia",
        "updated_at": "2026-02-09 22:53:55 UTC",
        "last_record_at": "2026-02-10 00:00:00 UTC",
        "total_7_days": 9.0,
        "total_30_days": 154.5
      }
    },
    {
      "type": "Feature",
      "geometry": {
        "type": "Point",
        "coordinates": [
          119.069,
          -32.731
        ]
      },
      "properties": {
        "id": 1071,
        "location": "Australia",
        "updated_at": "2026-02-11 09:51:33 UTC",
        "last_record_at": "2026-02-11 00:00:00 UTC",
        "total_7_days": 27.0,
        "total_30_days": 27.0
      }
    },
    {
      "type": "Feature",
      "geometry": {
        "type": "Point",
        "coordinates": [
          "133.000",
          "-27.000"
        ]
      },
      "properties": {
        "id": 638,
        "location": "Sutton Forest, Australia",
        "updated_at": "2026-02-09 23:12:02 UTC",
        "last_record_at": "2026-02-10 00:00:00 UTC",
        "total_7_days": 32.0,
        "total_30_days": 97.0
      }
    },
    {
      "type": "Feature",
      "geometry": {
        "type": "Point",
        "coordinates": [
          115.882,
          -32.12
        ]
      },
      "properties": {
        "id": 903,
        "location": "Perth, Australia",
        "updated_at": "2026-02-10 06:53:15 UTC",
        "last_record_at": "2026-02-10 00:00:00 UTC",
        "total_7_days": 1.5,
        "total_30_days": 2.5
      }
    },
    {
      "type": "Feature",
      "geometry": {
        "type": "Point",
        "coordinates": [
          133.0,
          -27.0
        ]
      },
      "properties": {
        "id": 122,
        "location": "Kilsyth, Yarra Ranges, Australia",
        "updated_at": "2026-02-09 07:01:18 UTC",
        "last_record_at": "2026-02-08 00:00:00 UTC",
        "total_7_days": 2.0,
        "total_30_days": 2.0
      }
    },
    {
      "type": "Feature",
      "geometry": {
        "type": "Point",
        "coordinates": [
          151.94,
          28.9
        ]
      },
      "properties": {
        "id": 370,
        "location": "Wallangarra, Australia",
        "updated_at": "2026-02-01 19:54:11 UTC",
        "last_record_at": "2026-02-01 00:00:00 UTC",
        "total_7_days": 0,
        "total_30_days": 39.0
      }
    },
    {
      "type": "Feature",
      "geometry": {
        "type": "Point",
        "coordinates": [
          27.856,
          -26.772
        ]
      },
      "properties": {
        "id": 1496,
        "location": "South Africa",
        "updated_at": "2026-02-02 04:49:45 UTC",
        "last_record_at": "2026-02-01 00:00:00 UTC",
        "total_7_days": 0,
        "total_30_days": 111.0
      }
    },
    {
      "type": "Feature",
      "geometry": {
        "type": "Point",
        "coordinates": [
          "133.000",
          "-27.000"
        ]
      },
      "properties": {
        "id": 669,
        "location": "Ashburton, Australia",
        "updated_at": "2026-02-11 07:02:06 UTC",
        "last_record_at": "2026-02-11 00:00:00 UTC",
        "total_7_days": 1.2,
        "total_30_days": 2.1
      }
    },
    {
      "type": "Feature",
      "geometry": {
        "type": "Point",
        "coordinates": [
          149.585,
          -33.412
        ]
      },
      "properties": {
        "id": 445,
        "location": "Bathurst",
        "updated_at": "2026-02-10 20:24:04 UTC",
        "last_record_at": "2026-02-10 00:00:00 UTC",
        "total_7_days": 51.5,
        "total_30_days": 76.0
      }
    },
    {
      "type": "Feature",
      "geometry": {
        "type": "Point",
        "coordinates": [
          27.984,
          -26.011
        ]
      },
      "properties": {
        "id": 1124,
        "location": "Johannesburg, South Africa",
        "updated_at": "2026-02-02 15:15:44 UTC",
        "last_record_at": "2026-02-01 00:00:00 UTC",
        "total_7_days": 0,
        "total_30_days": 42.5
      }
    },
    {
      "type": "Feature",
      "geometry": {
        "type": "Point",
        "coordinates": [
          118.87,
          -32.78
        ]
      },
      "properties": {
        "id": 875,
        "location": "Narrogin, Australia",
        "updated_at": "2026-02-11 02:06:57 UTC",
        "last_record_at": "2026-02-11 00:00:00 UTC",
        "total_7_days": 29.0,
        "total_30_days": 29.0
      }
    },
    {
      "type": "Feature",
      "geometry": {
        "type": "Point",
        "coordinates": [
          144.93,
          -17.345
        ]
      },
      "properties": {
        "id": 818,
        "location": "Atherton, Australia",
        "updated_at": "2026-02-10 20:22:59 UTC",
        "last_record_at": "2026-02-11 00:00:00 UTC",
        "total_7_days": 27.0,
        "total_30_days": 323.0
      }
    },
    {
      "type": "Feature",
      "geometry": {
        "type": "Point",
        "coordinates": [
          141.433,
          -31.95
        ]
      },
      "properties": {
        "id": 1209,
        "location": "Broken Hill, Australia",
        "updated_at": "2026-02-08 07:53:35 UTC",
        "last_record_at": "2026-02-08 00:00:00 UTC",
        "total_7_days": 11.4,
        "total_30_days": 11.4
      }
    },
    {
      "type": "Feature",
      "geometry": {
        "type": "Point",
        "coordinates": [
          150.298,
          -34.657
        ]
      },
      "properties": {
        "id": 643,
        "location": "Bundanoon, Australia",
        "updated_at": "2026-02-10 21:25:05 UTC",
        "last_record_at": "2026-02-11 00:00:00 UTC",
        "total_7_days": 25.4,
        "total_30_days": 193.4
      }
    },
    {
      "type": "Feature",
      "geometry": {
        "type": "Point",
        "coordinates": [
          -1.5,
          52.933
        ]
      },
      "properties": {
        "id": 1724,
        "location": "Derby, United Kingdom of Great Britain and Northern Ireland",
        "updated_at": "2026-02-11 10:55:21 UTC",
        "last_record_at": "2026-02-11 00:00:00 UTC",
        "total_7_days": 52.0,
        "total_30_days": 128.0
      }
    },
    {
      "type": "Feature",
      "geometry": {
        "type": "Point",
        "coordinates": [
          -2.733,
          52.717
        ]
      },
      "properties": {
        "id": 1028,
        "location": "Shrewsbury, United Kingdom of Great Britain and Northern Ireland",
        "updated_at": "2026-02-10 10:52:13 UTC",
        "last_record_at": "2026-02-10 00:00:00 UTC",
        "total_7_days": 46.0,
        "total_30_days": 113.0
      }
    },
    {
      "type": "Feature",
      "geometry": {
        "type": "Point",
        "coordinates": [
          28.346,
          -26.477
        ]
      },
      "properties": {
        "id": 1315,
        "location": "Vereeniging, South Africa",
        "updated_at": "2026-02-02 13:53:35 UTC",
        "last_record_at": "2026-02-01 00:00:00 UTC",
        "total_7_days": 0,
        "total_30_days": 85.0
      }
    },
    {
      "type": "Feature",
      "geometry": {
        "type": "Point",
        "coordinates": [
          150.501,
          -34.076
        ]
      },
      "properties": {
        "id": 1282,
        "location": "Australia",
        "updated_at": "2026-02-02 05:43:32 UTC",
        "last_record_at": "2026-02-01 00:00:00 UTC",
        "total_7_days": 0,
        "total_30_days": 168.0
      }
    },
    {
      "type": "Feature",
      "geometry": {
        "type": "Point",
        "coordinates": [
          26.22,
          -29.078
        ]
      },
      "properties": {
        "id": 768,
        "location": "Bloemfontein, South Africa",
        "updated_at": "2026-02-10 16:23:03 UTC",
        "last_record_at": "2026-02-10 00:00:00 UTC",
        "total_7_days": 90.0,
        "total_30_days": 120.0
      }
    },
    {
      "type": "Feature",
      "geometry": {
        "type": "Point",
        "coordinates": [
          146.705,
          -19.378
        ]
      },
      "properties": {
        "id": 1923,
        "location": "Townsville, Australia",
        "updated_at": "2026-02-06 10:33:51 UTC",
        "last_record_at": "2026-02-06 00:00:00 UTC",
        "total_7_days": 37.0,
        "total_30_days": 194.1
      }
    },
    {
      "type": "Feature",
      "geometry": {
        "type": "Point",
        "coordinates": [
          153.474,
          -28.282
        ]
      },
      "properties": {
        "id": 1167,
        "location": "Australia",
        "updated_at": "2026-02-10 21:02:31 UTC",
        "last_record_at": "2026-02-11 00:00:00 UTC",
        "total_7_days": 5.0,
        "total_30_days": 34.0
      }
    },
    {
      "type": "Feature",
      "geometry": {
        "type": "Point",
        "coordinates": [
          24.754,
          42.154
        ]
      },
      "properties": {
        "id": 1825,
        "location": "Plovdiv, Bulgaria",
        "updated_at": "2026-02-10 06:02:12 UTC",
        "last_record_at": "2026-02-09 00:00:00 UTC",
        "total_7_days": 9.0,
        "total_30_days": 51.6
      }
    },
    {
      "type": "Feature",
      "geometry": {
        "type": "Point",
        "coordinates": [
          173.247,
          -41.293
        ]
      },
      "properties": {
        "id": 1070,
        "location": "Nelson, New Zealand",
        "updated_at": "2026-02-03 18:32:21 UTC",
        "last_record_at": "2026-02-04 00:00:00 UTC",
        "total_7_days": 0,
        "total_30_days": 156.0
      }
    },
    {
      "type": "Feature",
      "geometry": {
        "type": "Point",
        "coordinates": [
          19.031,
          -34.203
        ]
      },
      "properties": {
        "id": 1207,
        "location": "Hermanus, South Africa",
        "updated_at": "2026-02-11 07:40:28 UTC",
        "last_record_at": "2026-02-11 00:00:00 UTC",
        "total_7_days": 58.0,
        "total_30_days": 70.0
      }
    },
    {
      "type": "Feature",
      "geometry": {
        "type": "Point",
        "coordinates": [
          152.943,
          -27.444
        ]
      },
      "properties": {
        "id": 1768,
        "location": "Brisbane, Australia",
        "updated_at": "2026-02-10 20:00:27 UTC",
        "last_record_at": "2026-02-11 00:00:00 UTC",
        "total_7_days": 13.2,
        "total_30_days": 72.8
      }
    },
    {
      "type": "Feature",
      "geometry": {
        "type": "Point",
        "coordinates": [
          150.485,
          -33.517
        ]
      },
      "properties": {
        "id": 485,
        "location": "Bilpin",
        "updated_at": "2026-02-09 21:04:24 UTC",
        "last_record_at": "2026-02-10 00:00:00 UTC",
        "total_7_days": 23.5,
        "total_30_days": 324.0
      }
    },
    {
      "type": "Feature",
      "geometry": {
        "type": "Point",
        "coordinates": [
          31.157,
          -25.681
        ]
      },
      "properties": {
        "id": 923,
        "location": "Nelspruit, South Africa",
        "updated_at": "2026-02-04 07:13:25 UTC",
        "last_record_at": "2026-02-04 00:00:00 UTC",
        "total_7_days": 0,
        "total_30_days": 163.0
      }
    },
    {
      "type": "Feature",
      "geometry": {
        "type": "Point",
        "coordinates": [
          152.462,
          -31.898
        ]
      },
      "properties": {
        "id": 775,
        "location": "Taree, Australia",
        "updated_at": "2026-02-02 21:29:03 UTC",
        "last_record_at": "2026-02-02 00:00:00 UTC",
        "total_7_days": 0,
        "total_30_days": 160.0
      }
    },
    {
      "type": "Feature",
      "geometry": {
        "type": "Point",
        "coordinates": [
          152.02,
          -28.229
        ]
      },
      "properties": {
        "id": 882,
        "location": "Warwick, Australia",
        "updated_at": "2026-02-10 07:56:23 UTC",
        "last_record_at": "2026-02-09 00:00:00 UTC",
        "total_7_days": 12.0,
        "total_30_days": 40.5
      }
    },
    {
      "type": "Feature",
      "geometry": {
        "type": "Point",
        "coordinates": [
          152.807,
          -30.611
        ]
      },
      "properties": {
        "id": 619,
        "location": "Argents Hill, Australia",
        "updated_at": "2026-02-09 20:51:39 UTC",
        "last_record_at": "2026-02-09 00:00:00 UTC",
        "total_7_days": 3.8,
        "total_30_days": 117.8
      }
    },
    {
      "type": "Feature",
      "geometry": {
        "type": "Point",
        "coordinates": [
          153.349,
          -28.4
        ]
      },
      "properties": {
        "id": 1143,
        "location": "Australia",
        "updated_at": "2026-02-10 22:38:41 UTC",
        "last_record_at": "2026-02-11 00:00:00 UTC",
        "total_7_days": 21.5,
        "total_30_days": 50.5
      }
    },
    {
      "type": "Feature",
      "geometry": {
        "type": "Point",
        "coordinates": [
          152.919,
          -31.445
        ]
      },
      "properties": {
        "id": 810,
        "location": "Port Macquarie, Australia",
        "updated_at": "2026-02-10 05:34:55 UTC",
        "last_record_at": "2026-02-10 00:00:00 UTC",
        "total_7_days": 1.5,
        "total_30_days": 115.5
      }
    },
    {
      "type": "Feature",
      "geometry": {
        "type": "Point",
        "coordinates": [
          148.68,
          -33.83
        ]
      },
      "properties": {
        "id": 1566,
        "location": "Cowra, Australia",
        "updated_at": "2026-02-08 02:35:47 UTC",
        "last_record_at": "2026-02-08 00:00:00 UTC",
        "total_7_days": 30.0,
        "total_30_days": 30.0
      }
    },
    {
      "type": "Feature",
      "geometry": {
        "type": "Point",
        "coordinates": [
          "133.000",
          "-27.000"
        ]
      },
      "properties": {
        "id": 733,
        "location": "Bundanoon, Australia",
        "updated_at": "2026-02-10 20:55:02 UTC",
        "last_record_at": "2026-02-10 00:00:00 UTC",
        "total_7_days": 38.0,
        "total_30_days": 260.0
      }
    },
    {
      "type": "Feature",
      "geometry": {
        "type": "Point",
        "coordinates": [
          17.084,
          -22.57
        ]
      },
      "properties": {
        "id": 823,
        "location": "Windhoek, Namibia",
        "updated_at": "2026-02-07 18:29:37 UTC",
        "last_record_at": "2026-02-07 00:00:00 UTC",
        "total_7_days": 3.0,
        "total_30_days": 37.0
      }
    },
    {
      "type": "Feature",
      "geometry": {
        "type": "Point",
        "coordinates": [
          151.299,
          -29.994
        ]
      },
      "properties": {
        "id": 1659,
        "location": "Inverell, Australia",
        "updated_at": "2026-02-09 19:33:24 UTC",
        "last_record_at": "2026-02-09 00:00:00 UTC",
        "total_7_days": 13.5,
        "total_30_days": 45.0
      }
    },
    {
      "type": "Feature",
      "geometry": {
        "type": "Point",
        "coordinates": [
          149.44,
          -35.25
        ]
      },
      "properties": {
        "id": 1928,
        "location": "Canberra, Australia",
        "updated_at": "2026-02-10 02:59:16 UTC",
        "last_record_at": "2026-02-10 00:00:00 UTC",
        "total_7_days": 43.2,
        "total_30_days": 60.4
      }
    },
    {
      "type": "Feature",
      "geometry": {
        "type": "Point",
        "coordinates": [
          "133.000",
          "-27.000"
        ]
      },
      "properties": {
        "id": 515,
        "location": "Blackbutt, Australia",
        "updated_at": "2026-02-11 00:03:31 UTC",
        "last_record_at": "2026-02-10 00:00:00 UTC",
        "total_7_days": 8.0,
        "total_30_days": 46.0
      }
    },
    {
      "type": "Feature",
      "geometry": {
        "type": "Point",
        "coordinates": [
          152.35,
          -27.459
        ]
      },
      "properties": {
        "id": 129,
        "location": "Spring Creek",
        "updated_at": "2026-02-10 21:19:00 UTC",
        "last_record_at": "2026-02-10 00:00:00 UTC",
        "total_7_days": 3.5,
        "total_30_days": 20.5
      }
    },
    {
      "type": "Feature",
      "geometry": {
        "type": "Point",
        "coordinates": [
          153.477,
          -28.759
        ]
      },
      "properties": {
        "id": 892,
        "location": "Lismore, Australia",
        "updated_at": "2026-02-10 20:42:22 UTC",
        "last_record_at": "2026-02-10 00:00:00 UTC",
        "total_7_days": 2.2,
        "total_30_days": 55.2
      }
    },
    {
      "type": "Feature",
      "geometry": {
        "type": "Point",
        "coordinates": [
          -0.595,
          44.85
        ]
      },
      "properties": {
        "id": 1926,
        "location": "Bordeaux, France",
        "updated_at": "2026-02-09 08:24:11 UTC",
        "last_record_at": "2026-02-08 00:00:00 UTC",
        "total_7_days": 27.0,
        "total_30_days": 197.5
      }
    },
    {
      "type": "Feature",
      "geometry": {
        "type": "Point",
        "coordinates": [
          152.662,
          -26.161
        ]
      },
      "properties": {
        "id": 1727,
        "location": "Gympie, Australia",
        "updated_at": "2026-02-02 22:40:23 UTC",
        "last_record_at": "2026-02-02 00:00:00 UTC",
        "total_7_days": 0,
        "total_30_days": 22.5
      }
    },
    {
      "type": "Feature",
      "geometry": {
        "type": "Point",
        "coordinates": [
          -3.533,
          55.883
        ]
      },
      "properties": {
        "id": 938,
        "location": "Livingston, United Kingdom of Great Britain and Northern Ireland",
        "updated_at": "2026-02-09 07:15:13 UTC",
        "last_record_at": "2026-02-08 00:00:00 UTC",
        "total_7_days": 10.0,
        "total_30_days": 43.5
      }
    },
    {
      "type": "Feature",
      "geometry": {
        "type": "Point",
        "coordinates": [
          152.351,
          -24.879
        ]
      },
      "properties": {
        "id": 1931,
        "location": "Bundaberg, Australia",
        "updated_at": "2026-02-02 19:35:30 UTC",
        "last_record_at": "2026-02-02 00:00:00 UTC",
        "total_7_days": 0,
        "total_30_days": 25.0
      }
    },
    {
      "type": "Feature",
      "geometry": {
        "type": "Point",
        "coordinates": [
          "133.000",
          "-27.000"
        ]
      },
      "properties": {
        "id": 603,
        "location": "Barragga Bay, Australia",
        "updated_at": "2026-02-02 10:03:43 UTC",
        "last_record_at": "2026-02-02 00:00:00 UTC",
        "total_7_days": 0,
        "total_30_days": 94.3
      }
    },
    {
      "type": "Feature",
      "geometry": {
        "type": "Point",
        "coordinates": [
          133.0,
          -27.0
        ]
      },
      "properties": {
        "id": 813,
        "location": "Australia",
        "updated_at": "2026-02-11 10:20:32 UTC",
        "last_record_at": "2026-02-11 00:00:00 UTC",
        "total_7_days": 2.0,
        "total_30_days": 27.0
      }
    },
    {
      "type": "Feature",
      "geometry": {
        "type": "Point",
        "coordinates": [
          118.78,
          -32.87
        ]
      },
      "properties": {
        "id": 874,
        "location": "Australia",
        "updated_at": "2026-02-10 23:47:34 UTC",
        "last_record_at": "2026-02-11 00:00:00 UTC",
        "total_7_days": 28.0,
        "total_30_days": 30.0
      }
    },
    {
      "type": "Feature",
      "geometry": {
        "type": "Point",
        "coordinates": [
          150.917,
          -31.103
        ]
      },
      "properties": {
        "id": 816,
        "location": "Tamworth, Australia",
        "updated_at": "2026-02-09 21:57:43 UTC",
        "last_record_at": "2026-02-10 00:00:00 UTC",
        "total_7_days": 18.0,
        "total_30_days": 44.0
      }
    },
    {
      "type": "Feature",
      "geometry": {
        "type": "Point",
        "coordinates": [
          -2.433,
          53.583
        ]
      },
      "properties": {
        "id": 1567,
        "location": "Bolton, United Kingdom of Great Britain and Northern Ireland",
        "updated_at": "2026-02-10 15:02:50 UTC",
        "last_record_at": "2026-02-09 00:00:00 UTC",
        "total_7_days": 42.0,
        "total_30_days": 117.0
      }
    },
    {
      "type": "Feature",
      "geometry": {
        "type": "Point",
        "coordinates": [
          151.178,
          -33.869
        ]
      },
      "properties": {
        "id": 1894,
        "location": "Sydney, Australia",
        "updated_at": "2026-02-09 23:33:08 UTC",
        "last_record_at": "2026-02-10 00:00:00 UTC",
        "total_7_days": 43.0,
        "total_30_days": 265.5
      }
    },
    {
      "type": "Feature",
      "geometry": {
        "type": "Point",
        "coordinates": [
          133.0,
          -27.0
        ]
      },
      "properties": {
        "id": 1288,
        "location": "Australia",
        "updated_at": "2026-02-09 07:29:39 UTC",
        "last_record_at": "2026-02-09 00:00:00 UTC",
        "total_7_days": 2.5,
        "total_30_days": 3.5
      }
    },
    {
      "type": "Feature",
      "geometry": {
        "type": "Point",
        "coordinates": [
          144.564,
          -37.421
        ]
      },
      "properties": {
        "id": 373,
        "location": "Macedon, Australia",
        "updated_at": "2026-02-08 21:11:01 UTC",
        "last_record_at": "2026-02-09 00:00:00 UTC",
        "total_7_days": 6.0,
        "total_30_days": 6.0
      }
    },
    {
      "type": "Feature",
      "geometry": {
        "type": "Point",
        "coordinates": [
          -7.738,
          52.121
        ]
      },
      "properties": {
        "id": 1272,
        "location": "Waterford, Ireland",
        "updated_at": "2026-02-03 11:19:32 UTC",
        "last_record_at": "2026-02-02 00:00:00 UTC",
        "total_7_days": 0,
        "total_30_days": 201.0
      }
    },
    {
      "type": "Feature",
      "geometry": {
        "type": "Point",
        "coordinates": [
          150.52,
          -23.364
        ]
      },
      "properties": {
        "id": 1930,
        "location": "Rockhampton, Australia",
        "updated_at": "2026-02-06 09:04:25 UTC",
        "last_record_at": "2026-02-05 00:00:00 UTC",
        "total_7_days": 1.0,
        "total_30_days": 44.6
      }
    },
    {
      "type": "Feature",
      "geometry": {
        "type": "Point",
        "coordinates": [
          118.738,
          -32.708
        ]
      },
      "properties": {
        "id": 1301,
        "location": "Australia",
        "updated_at": "2026-02-11 02:20:00 UTC",
        "last_record_at": "2026-02-11 00:00:00 UTC",
        "total_7_days": 34.0,
        "total_30_days": 34.0
      }
    },
    {
      "type": "Feature",
      "geometry": {
        "type": "Point",
        "coordinates": [
          133.0,
          -27.0
        ]
      },
      "properties": {
        "id": 1559,
        "location": "Australia",
        "updated_at": "2026-02-08 21:09:30 UTC",
        "last_record_at": "2026-02-09 00:00:00 UTC",
        "total_7_days": 2.0,
        "total_30_days": 3.0
      }
    },
    {
      "type": "Feature",
      "geometry": {
        "type": "Point",
        "coordinates": [
          149.583,
          -36.639
        ]
      },
      "properties": {
        "id": 1294,
        "location": "Cooma, Australia",
        "updated_at": "2026-02-01 00:42:04 UTC",
        "last_record_at": "2026-02-01 00:00:00 UTC",
        "total_7_days": 0,
        "total_30_days": 180.5
      }
    },
    {
      "type": "Feature",
      "geometry": {
        "type": "Point",
        "coordinates": [
          152.938,
          -29.712
        ]
      },
      "properties": {
        "id": 1142,
        "location": "Grafton, Australia",
        "updated_at": "2026-02-02 19:45:39 UTC",
        "last_record_at": "2026-02-02 00:00:00 UTC",
        "total_7_days": 0,
        "total_30_days": 45.5
      }
    },
    {
      "type": "Feature",
      "geometry": {
        "type": "Point",
        "coordinates": [
          147.06,
          -38.11
        ]
      },
      "properties": {
        "id": 911,
        "location": "Sale, Australia",
        "updated_at": "2026-02-08 23:31:47 UTC",
        "last_record_at": "2026-02-09 00:00:00 UTC",
        "total_7_days": 2.0,
        "total_30_days": 29.0
      }
    },
    {
      "type": "Feature",
      "geometry": {
        "type": "Point",
        "coordinates": [
          115.801,
          -32.035
        ]
      },
      "properties": {
        "id": 571,
        "location": "Melville, Australia",
        "updated_at": "2026-02-10 02:08:18 UTC",
        "last_record_at": "2026-02-10 00:00:00 UTC",
        "total_7_days": 1.5,
        "total_30_days": 1.5
      }
    },
    {
      "type": "Feature",
      "geometry": {
        "type": "Point",
        "coordinates": [
          153.568,
          -28.861
        ]
      },
      "properties": {
        "id": 941,
        "location": "Ballina, Australia",
        "updated_at": "2026-02-10 19:43:24 UTC",
        "last_record_at": "2026-02-10 00:00:00 UTC",
        "total_7_days": 10.0,
        "total_30_days": 64.5
      }
    },
    {
      "type": "Feature",
      "geometry": {
        "type": "Point",
        "coordinates": [
          121.861,
          -33.833
        ]
      },
      "properties": {
        "id": 904,
        "location": "Esperance, Australia",
        "updated_at": "2026-02-09 08:19:18 UTC",
        "last_record_at": "2026-02-09 00:00:00 UTC",
        "total_7_days": 0.0,
        "total_30_days": 0.5
      }
    },
    {
      "type": "Feature",
      "geometry": {
        "type": "Point",
        "coordinates": [
          153.396,
          -28.119
        ]
      },
      "properties": {
        "id": 936,
        "location": "Gold Coast, Australia",
        "updated_at": "2026-02-10 20:07:47 UTC",
        "last_record_at": "2026-02-11 00:00:00 UTC",
        "total_7_days": 13.0,
        "total_30_days": 47.5
      }
    },
    {
      "type": "Feature",
      "geometry": {
        "type": "Point",
        "coordinates": [
          146.007,
          -17.808
        ]
      },
      "properties": {
        "id": 59,
        "location": "El arish",
        "updated_at": "2026-02-09 05:04:31 UTC",
        "last_record_at": "2026-02-09 00:00:00 UTC",
        "total_7_days": 251.0,
        "total_30_days": 804.0
      }
    },
    {
      "type": "Feature",
      "geometry": {
        "type": "Point",
        "coordinates": [
          115.705,
          -31.634
        ]
      },
      "properties": {
        "id": 764,
        "location": "Perth, Australia",
        "updated_at": "2026-02-10 09:02:42 UTC",
        "last_record_at": "2026-02-10 00:00:00 UTC",
        "total_7_days": 4.0,
        "total_30_days": 4.75
      }
    },
    {
      "type": "Feature",
      "geometry": {
        "type": "Point",
        "coordinates": [
          30.836,
          -16.783
        ]
      },
      "properties": {
        "id": 1277,
        "location": "Mazowe, Zimbabwe",
        "updated_at": "2026-02-04 09:12:55 UTC",
        "last_record_at": "2026-02-03 00:00:00 UTC",
        "total_7_days": 0,
        "total_30_days": 61.5
      }
    },
    {
      "type": "Feature",
      "geometry": {
        "type": "Point",
        "coordinates": [
          151.113,
          -29.767
        ]
      },
      "properties": {
        "id": 1291,
        "location": "Inverell, Australia",
        "updated_at": "2026-02-09 23:04:07 UTC",
        "last_record_at": "2026-02-09 00:00:00 UTC",
        "total_7_days": 6.0,
        "total_30_days": 62.5
      }
    },
    {
      "type": "Feature",
      "geometry": {
        "type": "Point",
        "coordinates": [
          171.243,
          -44.397
        ]
      },
      "properties": {
        "id": 1763,
        "location": "Timaru, New Zealand",
        "updated_at": "2026-02-11 10:39:11 UTC",
        "last_record_at": "2026-02-11 00:00:00 UTC",
        "total_7_days": 5.0,
        "total_30_days": 163.0
      }
    },
    {
      "type": "Feature",
      "geometry": {
        "type": "Point",
        "coordinates": [
          "24.000",
          "-29.000"
        ]
      },
      "properties": {
        "id": 694,
        "location": "Woodland Hills, South Africa",
        "updated_at": "2026-02-11 05:06:03 UTC",
        "last_record_at": "2026-02-10 00:00:00 UTC",
        "total_7_days": 71.0,
        "total_30_days": 140.0
      }
    },
    {
      "type": "Feature",
      "geometry": {
        "type": "Point",
        "coordinates": [
          149.57,
          -33.42
        ]
      },
      "properties": {
        "id": 952,
        "location": "Bathurst, Australia",
        "updated_at": "2026-02-10 07:25:16 UTC",
        "last_record_at": "2026-02-10 00:00:00 UTC",
        "total_7_days": 49.5,
        "total_30_days": 72.0
      }
    },
    {
      "type": "Feature",
      "geometry": {
        "type": "Point",
        "coordinates": [
          130.85,
          -12.425
        ]
      },
      "properties": {
        "id": 1658,
        "location": "Darwin, Australia",
        "updated_at": "2026-02-09 22:03:13 UTC",
        "last_record_at": "2026-02-09 00:00:00 UTC",
        "total_7_days": 73.0,
        "total_30_days": 583.5
      }
    },
    {
      "type": "Feature",
      "geometry": {
        "type": "Point",
        "coordinates": [
          149.014,
          -34.626
        ]
      },
      "properties": {
        "id": 475,
        "location": "Blakney Creek",
        "updated_at": "2026-02-08 21:09:49 UTC",
        "last_record_at": "2026-02-08 00:00:00 UTC",
        "total_7_days": 27.0,
        "total_30_days": 28.5
      }
    },
    {
      "type": "Feature",
      "geometry": {
        "type": "Point",
        "coordinates": [
          152.395,
          -26.05
        ]
      },
      "properties": {
        "id": 1290,
        "location": "Gympie, Australia",
        "updated_at": "2026-02-03 10:31:25 UTC",
        "last_record_at": "2026-02-02 00:00:00 UTC",
        "total_7_days": 0,
        "total_30_days": 5.5
      }
    },
    {
      "type": "Feature",
      "geometry": {
        "type": "Point",
        "coordinates": [
          143.84,
          -37.56
        ]
      },
      "properties": {
        "id": 1280,
        "location": "Ballarat, Australia",
        "updated_at": "2026-01-30 08:30:44 UTC",
        "last_record_at": "2026-01-15 00:00:00 UTC",
        "total_7_days": 0,
        "total_30_days": 3.0
      }
    },
    {
      "type": "Feature",
      "geometry": {
        "type": "Point",
        "coordinates": [
          -97.908,
          38.067
        ]
      },
      "properties": {
        "id": 1326,
        "location": "Hutchinson, United States of America",
        "updated_at": "2026-01-26 19:33:08 UTC",
        "last_record_at": "2026-01-24 00:00:00 UTC",
        "total_7_days": 0,
        "total_30_days": 0.41
      }
    },
    {
      "type": "Feature",
      "geometry": {
        "type": "Point",
        "coordinates": [
          174.323,
          -35.726
        ]
      },
      "properties": {
        "id": 1029,
        "location": "Whangarei, New Zealand",
        "updated_at": "2026-01-26 07:34:18 UTC",
        "last_record_at": "2026-01-23 00:00:00 UTC",
        "total_7_days": 0,
        "total_30_days": 266.0
      }
    },
    {
      "type": "Feature",
      "geometry": {
        "type": "Point",
        "coordinates": [
          152.95,
          -27.083
        ]
      },
      "properties": {
        "id": 1135,
        "location": "Caboolture, Australia",
        "updated_at": "2026-01-25 02:35:56 UTC",
        "last_record_at": "2026-01-22 00:00:00 UTC",
        "total_7_days": 0,
        "total_30_days": 86.0
      }
    },
    {
      "type": "Feature",
      "geometry": {
        "type": "Point",
        "coordinates": [
          -4.233,
          57.467
        ]
      },
      "properties": {
        "id": 1897,
        "location": "Inverness, United Kingdom of Great Britain and Northern Ireland",
        "updated_at": "2026-01-11 14:17:35 UTC",
        "last_record_at": "2026-01-10 00:00:00 UTC"
      }
    },
    {
      "type": "Feature",
      "geometry": {
        "type": "Point",
        "coordinates": [
          26.851,
          -25.445
        ]
      },
      "properties": {
        "id": 1168,
        "location": "Rustenburg, South Africa",
        "updated_at": "2026-02-04 16:24:00 UTC",
        "last_record_at": "2026-01-24 00:00:00 UTC",
        "total_7_days": 0,
        "total_30_days": 8.0
      }
    },
    {
      "type": "Feature",
      "geometry": {
        "type": "Point",
        "coordinates": [
          151.884,
          -25.246
        ]
      },
      "properties": {
        "id": 944,
        "location": "Bundaberg, Australia",
        "updated_at": "2026-01-30 09:24:41 UTC",
        "last_record_at": "2026-01-26 00:00:00 UTC",
        "total_7_days": 0,
        "total_30_days": 22.5
      }
    },
    {
      "type": "Feature",
      "geometry": {
        "type": "Point",
        "coordinates": [
          151.953,
          -24.99
        ]
      },
      "properties": {
        "id": 943,
        "location": "Bundaberg, Australia",
        "updated_at": "2026-01-20 09:10:06 UTC",
        "last_record_at": "2026-01-12 00:00:00 UTC"
      }
    },
    {
      "type": "Feature",
      "geometry": {
        "type": "Point",
        "coordinates": [
          29.607,
          -22.148
        ]
      },
      "properties": {
        "id": 1628,
        "location": "Beitbridge, Zimbabwe",
        "updated_at": "2026-01-22 04:27:03 UTC",
        "last_record_at": "2026-01-22 00:00:00 UTC",
        "total_7_days": 0,
        "total_30_days": 133.0
      }
    },
    {
      "type": "Feature",
      "geometry": {
        "type": "Point",
        "coordinates": [
          141.573,
          -38.114
        ]
      },
      "properties": {
        "id": 152,
        "location": "Heywood, Australia",
        "updated_at": "2026-01-19 23:23:02 UTC",
        "last_record_at": "2026-01-19 00:00:00 UTC",
        "total_7_days": 0,
        "total_30_days": 4.5
      }
    },
    {
      "type": "Feature",
      "geometry": {
        "type": "Point",
        "coordinates": [
          -95.228,
          31.219
        ]
      },
      "properties": {
        "id": 1927,
        "location": "United States of America",
        "updated_at": "2026-01-03 22:33:54 UTC",
        "last_record_at": "2026-01-03 00:00:00 UTC"
      }
    },
    {
      "type": "Feature",
      "geometry": {
        "type": "Point",
        "coordinates": [
          153.035,
          -27.455
        ]
      },
      "properties": {
        "id": 888,
        "location": "Brisbane, Australia",
        "updated_at": "2026-01-25 22:31:02 UTC",
        "last_record_at": "2026-01-26 00:00:00 UTC",
        "total_7_days": 0,
        "total_30_days": 53.0
      }
    },
    {
      "type": "Feature",
      "geometry": {
        "type": "Point",
        "coordinates": [
          149.264,
          -26.096
        ]
      },
      "properties": {
        "id": 1571,
        "location": "Roma, Australia",
        "updated_at": "2026-01-18 19:18:14 UTC",
        "last_record_at": "2026-01-18 00:00:00 UTC",
        "total_7_days": 0,
        "total_30_days": 5.6
      }
    },
    {
      "type": "Feature",
      "geometry": {
        "type": "Point",
        "coordinates": [
          153.133,
          -26.8
        ]
      },
      "properties": {
        "id": 1289,
        "location": "Caloundra, Australia",
        "updated_at": "2026-02-02 05:04:23 UTC",
        "last_record_at": "2026-01-27 00:00:00 UTC",
        "total_7_days": 0,
        "total_30_days": 11.0
      }
    },
    {
      "type": "Feature",
      "geometry": {
        "type": "Point",
        "coordinates": [
          152.787,
          -25.364
        ]
      },
      "properties": {
        "id": 468,
        "location": "Sunshine Acres",
        "updated_at": "2026-01-13 11:08:20 UTC",
        "last_record_at": "2026-01-13 00:00:00 UTC",
        "total_7_days": 0,
        "total_30_days": 4.0
      }
    },
    {
      "type": "Feature",
      "geometry": {
        "type": "Point",
        "coordinates": [
          29.99,
          -22.21
        ]
      },
      "properties": {
        "id": 1899,
        "location": "Beitbridge, Zimbabwe",
        "updated_at": "2026-01-22 04:26:46 UTC",
        "last_record_at": "2026-01-22 00:00:00 UTC",
        "total_7_days": 0,
        "total_30_days": 186.0
      }
    },
    {
      "type": "Feature",
      "geometry": {
        "type": "Point",
        "coordinates": [
          "133.000",
          "-27.000"
        ]
      },
      "properties": {
        "id": 1792,
        "location": "Australia",
        "updated_at": "2026-01-30 22:07:36 UTC",
        "last_record_at": "2026-01-30 00:00:00 UTC",
        "total_7_days": 0,
        "total_30_days": 55.0
      }
    },
    {
      "type": "Feature",
      "geometry": {
        "type": "Point",
        "coordinates": [
          2.788,
          39.707
        ]
      },
      "properties": {
        "id": 1955,
        "location": "Albacete, Spain",
        "updated_at": "2026-01-25 13:35:42 UTC",
        "last_record_at": "2026-01-25 00:00:00 UTC",
        "total_7_days": 0,
        "total_30_days": 13.0
      }
    },
    {
      "type": "Feature",
      "geometry": {
        "type": "Point",
        "coordinates": [
          176.854,
          -39.418
        ]
      },
      "properties": {
        "id": 835,
        "location": "Napier, New Zealand",
        "updated_at": "2026-01-13 01:54:04 UTC",
        "last_record_at": "2026-01-04 00:00:00 UTC"
      }
    },
    {
      "type": "Feature",
      "geometry": {
        "type": "Point",
        "coordinates": [
          28.229,
          -25.707
        ]
      },
      "properties": {
        "id": 1929,
        "location": "Pretoria, South Africa",
        "updated_at": "2026-01-04 12:19:03 UTC",
        "last_record_at": "2026-01-01 00:00:00 UTC"
      }
    },
    {
      "type": "Feature",
      "geometry": {
        "type": "Point",
        "coordinates": [
          151.946,
          -27.593
        ]
      },
      "properties": {
        "id": 710,
        "location": "Toowoomba, Australia",
        "updated_at": "2026-01-27 08:25:15 UTC",
        "last_record_at": "2026-01-26 00:00:00 UTC",
        "total_7_days": 0,
        "total_30_days": 18.0
      }
    },
    {
      "type": "Feature",
      "geometry": {
        "type": "Point",
        "coordinates": [
          29.64,
          -22.098
        ]
      },
      "properties": {
        "id": 1626,
        "location": "Zimbabwe",
        "updated_at": "2026-01-22 04:28:20 UTC",
        "last_record_at": "2026-01-22 00:00:00 UTC",
        "total_7_days": 0,
        "total_30_days": 170.0
      }
    },
    {
      "type": "Feature",
      "geometry": {
        "type": "Point",
        "coordinates": [
          29.627,
          -22.131
        ]
      },
      "properties": {
        "id": 1625,
        "location": "Zimbabwe",
        "updated_at": "2026-01-22 04:26:28 UTC",
        "last_record_at": "2026-01-22 00:00:00 UTC",
        "total_7_days": 0,
        "total_30_days": 141.0
      }
    },
    {
      "type": "Feature",
      "geometry": {
        "type": "Point",
        "coordinates": [
          -89.203,
          13.71
        ]
      },
      "properties": {
        "id": 1694,
        "location": "San Salvador, El Salvador",
        "updated_at": "2026-01-13 10:40:44 UTC",
        "last_record_at": "2026-01-10 00:00:00 UTC"
      }
    },
    {
      "type": "Feature",
      "geometry": {
        "type": "Point",
        "coordinates": [
          153.133,
          -26.8
        ]
      },
      "properties": {
        "id": 837,
        "location": "Caloundra, Australia",
        "updated_at": "2026-01-30 02:01:08 UTC",
        "last_record_at": "2026-01-29 00:00:00 UTC",
        "total_7_days": 0,
        "total_30_days": 20.5
      }
    },
    {
      "type": "Feature",
      "geometry": {
        "type": "Point",
        "coordinates": [
          25.912,
          -24.646
        ]
      },
      "properties": {
        "id": 833,
        "location": "Gaborone, Botswana",
        "updated_at": "2026-01-18 18:00:08 UTC",
        "last_record_at": "2026-01-18 00:00:00 UTC",
        "total_7_days": 0,
        "total_30_days": 12.0
      }
    },
    {
      "type": "Feature",
      "geometry": {
        "type": "Point",
        "coordinates": [
          29.639,
          -22.128
        ]
      },
      "properties": {
        "id": 1627,
        "location": "Zimbabwe",
        "updated_at": "2026-01-22 04:29:44 UTC",
        "last_record_at": "2026-01-22 00:00:00 UTC",
        "total_7_days": 0,
        "total_30_days": 180.0
      }
    },
    {
      "type": "Feature",
      "geometry": {
        "type": "Point",
        "coordinates": [
          133.0,
          -27.0
        ]
      },
      "properties": {
        "id": 812,
        "location": "Australia",
        "updated_at": "2026-01-29 09:35:16 UTC",
        "last_record_at": "2026-01-28 00:00:00 UTC",
        "total_7_days": 0,
        "total_30_days": 77.5
      }
    },
    {
      "type": "Feature",
      "geometry": {
        "type": "Point",
        "coordinates": [
          147.61,
          -37.83
        ]
      },
      "properties": {
        "id": 815,
        "location": "Bairnsdale, Australia",
        "updated_at": "2026-01-31 21:15:34 UTC",
        "last_record_at": "2026-01-31 00:00:00 UTC",
        "total_7_days": 0,
        "total_30_days": 39.0
      }
    },
    {
      "type": "Feature",
      "geometry": {
        "type": "Point",
        "coordinates": [
          152.351,
          -24.879
        ]
      },
      "properties": {
        "id": 948,
        "location": "Bundaberg, Australia",
        "updated_at": "2026-01-12 07:02:47 UTC",
        "last_record_at": "2026-01-12 00:00:00 UTC"
      }
    },
    {
      "type": "Feature",
      "geometry": {
        "type": "Point",
        "coordinates": [
          117.333,
          -35.002
        ]
      },
      "properties": {
        "id": 501,
        "location": "Ocean Beach, Australia",
        "updated_at": "2026-01-30 23:44:29 UTC",
        "last_record_at": "2026-01-30 00:00:00 UTC",
        "total_7_days": 0,
        "total_30_days": 10.0
      }
    },
    {
      "type": "Feature",
      "geometry": {
        "type": "Point",
        "coordinates": [
          148.597,
          -32.26
        ]
      },
      "properties": {
        "id": 1925,
        "location": "Dubbo, Australia",
        "updated_at": "2026-01-17 09:33:19 UTC",
        "last_record_at": "2026-01-14 00:00:00 UTC",
        "total_7_days": 0,
        "total_30_days": 41.0
      }
    },
    {
      "type": "Feature",
      "geometry": {
        "type": "Point",
        "coordinates": [
          30.97,
          -25.474
        ]
      },
      "properties": {
        "id": 950,
        "location": "Nelspruit, South Africa",
        "updated_at": "2026-02-01 13:55:24 UTC",
        "last_record_at": "2026-01-31 00:00:00 UTC",
        "total_7_days": 0,
        "total_30_days": 220.0
      }
    },
    {
      "type": "Feature",
      "geometry": {
        "type": "Point",
        "coordinates": [
          29.732,
          -22.113
        ]
      },
      "properties": {
        "id": 1631,
        "location": "Beitbridge, Zimbabwe",
        "updated_at": "2026-01-21 05:40:20 UTC",
        "last_record_at": "2026-01-21 00:00:00 UTC",
        "total_7_days": 0,
        "total_30_days": 135.0
      }
    },
    {
      "type": "Feature",
      "geometry": {
        "type": "Point",
        "coordinates": [
          29.604,
          -22.136
        ]
      },
      "properties": {
        "id": 1629,
        "location": "Beitbridge, Zimbabwe",
        "updated_at": "2026-01-22 04:27:20 UTC",
        "last_record_at": "2026-01-22 00:00:00 UTC",
        "total_7_days": 0,
        "total_30_days": 130.0
      }
    },
    {
      "type": "Feature",
      "geometry": {
        "type": "Point",
        "coordinates": [
          152.351,
          -24.879
        ]
      },
      "properties": {
        "id": 947,
        "location": "Bundaberg, Australia",
        "updated_at": "2026-01-25 09:53:52 UTC",
        "last_record_at": "2026-01-25 00:00:00 UTC",
        "total_7_days": 0,
        "total_30_days": 16.0
      }
    },
    {
      "type": "Feature",
      "geometry": {
        "type": "Point",
        "coordinates": [
          "133.000",
          "-27.000"
        ]
      },
      "properties": {
        "id": 555,
        "location": "Williams, Australia",
        "updated_at": "2026-01-03 09:41:22 UTC",
        "last_record_at": "2026-01-03 00:00:00 UTC"
      }
    },
    {
      "type": "Feature",
      "geometry": {
        "type": "Point",
        "coordinates": [
          29.99,
          -22.21
        ]
      },
      "properties": {
        "id": 1898,
        "location": "Beitbridge, Zimbabwe",
        "updated_at": "2026-02-02 09:59:19 UTC",
        "last_record_at": "2026-01-23 00:00:00 UTC",
        "total_7_days": 0,
        "total_30_days": 160.7
      }
    },
    {
      "type": "Feature",
      "geometry": {
        "type": "Point",
        "coordinates": [
          29.617,
          -22.121
        ]
      },
      "properties": {
        "id": 1630,
        "location": "Beitbridge, Zimbabwe",
        "updated_at": "2026-01-22 04:27:53 UTC",
        "last_record_at": "2026-01-22 00:00:00 UTC",
        "total_7_days": 0,
        "total_30_days": 137.0
      }
    },
    {
      "type": "Feature",
      "geometry": {
        "type": "Point",
        "coordinates": [
          143.58,
          -38.34
        ]
      },
      "properties": {
        "id": 814,
        "location": "Colac, Australia",
        "updated_at": "2026-01-15 21:21:35 UTC",
        "last_record_at": "2026-01-16 00:00:00 UTC",
        "total_7_days": 0,
        "total_30_days": 26.0
      }
    },
    {
      "type": "Feature",
      "geometry": {
        "type": "Point",
        "coordinates": [
          115.349,
          -33.656
        ]
      },
      "properties": {
        "id": 1324,
        "location": "Busselton, Australia",
        "updated_at": "2026-01-28 23:02:23 UTC",
        "last_record_at": "2026-01-26 00:00:00 UTC",
        "total_7_days": 0,
        "total_30_days": 4.0
      }
    },
    {
      "type": "Feature",
      "geometry": {
        "type": "Point",
        "coordinates": [
          "133.000",
          "-27.000"
        ]
      },
      "properties": {
        "id": 395,
        "location": "Wangandary Upper, Australia",
        "updated_at": "2026-01-17 19:41:28 UTC",
        "last_record_at": "2026-01-17 00:00:00 UTC",
        "total_7_days": 0,
        "total_30_days": 36.0
      }
    },
    {
      "type": "Feature",
      "geometry": {
        "type": "Point",
        "coordinates": [
          29.806,
          -22.14
        ]
      },
      "properties": {
        "id": 1632,
        "location": "Beitbridge, Zimbabwe",
        "updated_at": "2026-01-21 05:38:09 UTC",
        "last_record_at": "2026-01-21 00:00:00 UTC",
        "total_7_days": 0,
        "total_30_days": 150.0
      }
    },
    {
      "type": "Feature",
      "geometry": {
        "type": "Point",
        "coordinates": [
          149.15,
          -21.144
        ]
      },
      "properties": {
        "id": 1901,
        "location": "Mackay, Australia",
        "updated_at": "2025-12-25 01:58:44 UTC",
        "last_record_at": "2025-12-25 00:00:00 UTC"
      }
    },
    {
      "type": "Feature",
      "geometry": {
        "type": "Point",
        "coordinates": [
          -105.33,
          40.849
        ]
      },
      "properties": {
        "id": 1924,
        "location": "Fort Collins, United States of America",
        "updated_at": "2025-12-29 19:50:19 UTC",
        "last_record_at": "2025-12-20 00:00:00 UTC"
      }
    },
    {
      "type": "Feature",
      "geometry": {
        "type": "Point",
        "coordinates": [
          140.767,
          -36.316
        ]
      },
      "properties": {
        "id": 1030,
        "location": "Bordertown, Australia",
        "updated_at": "2026-01-03 11:50:42 UTC",
        "last_record_at": "2025-12-22 00:00:00 UTC"
      }
    },
    {
      "type": "Feature",
      "geometry": {
        "type": "Point",
        "coordinates": [
          -84.423,
          33.763
        ]
      },
      "properties": {
        "id": 1169,
        "location": "Atlanta, United States of America",
        "updated_at": "2025-12-19 22:03:28 UTC",
        "last_record_at": "2025-12-18 00:00:00 UTC"
      }
    },
    {
      "type": "Feature",
      "geometry": {
        "type": "Point",
        "coordinates": [
          145.283,
          -38.1
        ]
      },
      "properties": {
        "id": 836,
        "location": "Cranbourne, Australia",
        "updated_at": "2025-12-21 19:57:23 UTC",
        "last_record_at": "2025-12-21 00:00:00 UTC"
      }
    },
    {
      "type": "Feature",
      "geometry": {
        "type": "Point",
        "coordinates": [
          2.3,
          49.9
        ]
      },
      "properties": {
        "id": 1728,
        "location": "Amiens, France",
        "updated_at": "2025-12-23 18:05:49 UTC",
        "last_record_at": "2025-12-21 00:00:00 UTC"
      }
    },
    {
      "type": "Feature",
      "geometry": {
        "type": "Point",
        "coordinates": [
          17.71,
          -19.24
        ]
      },
      "properties": {
        "id": 1889,
        "location": "Tsumeb, Namibia",
        "updated_at": "2025-12-12 06:39:27 UTC",
        "last_record_at": "2025-12-11 00:00:00 UTC"
      }
    },
    {
      "type": "Feature",
      "geometry": {
        "type": "Point",
        "coordinates": [
          37.034,
          0.052
        ]
      },
      "properties": {
        "id": 1895,
        "location": "Nanyuki, Kenya",
        "updated_at": "2025-12-31 04:16:51 UTC",
        "last_record_at": "2025-12-31 00:00:00 UTC"
      }
    },
    {
      "type": "Feature",
      "geometry": {
        "type": "Point",
        "coordinates": [
          152.755,
          -26.37
        ]
      },
      "properties": {
        "id": 209,
        "location": "Coles Creek, Australia",
        "updated_at": "2026-01-06 00:41:57 UTC",
        "last_record_at": "2025-12-31 00:00:00 UTC"
      }
    },
    {
      "type": "Feature",
      "geometry": {
        "type": "Point",
        "coordinates": [
          -68.888,
          9.0
        ]
      },
      "properties": {
        "id": 1072,
        "location": "Acarigua, Venezuela (Bolivarian Republic of)",
        "updated_at": "2025-12-08 11:15:18 UTC",
        "last_record_at": "2025-12-07 00:00:00 UTC"
      }
    },
    {
      "type": "Feature",
      "geometry": {
        "type": "Point",
        "coordinates": [
          138.617,
          -33.343
        ]
      },
      "properties": {
        "id": 1956,
        "location": "Australia",
        "updated_at": "2026-01-26 08:23:25 UTC",
        "last_record_at": "2025-12-01 00:00:00 UTC"
      }
    },
    {
      "type": "Feature",
      "geometry": {
        "type": "Point",
        "coordinates": [
          152.784,
          -26.592
        ]
      },
      "properties": {
        "id": 453,
        "location": "Coolabine",
        "updated_at": "2026-01-07 07:15:26 UTC",
        "last_record_at": "2025-12-31 00:00:00 UTC"
      }
    },
    {
      "type": "Feature",
      "geometry": {
        "type": "Point",
        "coordinates": [
          36.817,
          -1.283
        ]
      },
      "properties": {
        "id": 1900,
        "location": "Nairobi, Kenya",
        "updated_at": "2025-12-31 04:16:10 UTC",
        "last_record_at": "2025-12-31 00:00:00 UTC"
      }
    },
    {
      "type": "Feature",
      "geometry": {
        "type": "Point",
        "coordinates": [
          145.681,
          -17.557
        ]
      },
      "properties": {
        "id": 1137,
        "location": "Innisfail, Australia",
        "updated_at": "2026-01-01 03:35:13 UTC",
        "last_record_at": "2025-12-31 00:00:00 UTC"
      }
    },
    {
      "type": "Feature",
      "geometry": {
        "type": "Point",
        "coordinates": [
          -85.86,
          11.25
        ]
      },
      "properties": {
        "id": 1249,
        "location": "San Juan del Sur, Nicaragua",
        "updated_at": "2025-12-23 14:07:47 UTC",
        "last_record_at": "2025-12-22 00:00:00 UTC"
      }
    },
    {
      "type": "Feature",
      "geometry": {
        "type": "Point",
        "coordinates": [
          17.71,
          -19.24
        ]
      },
      "properties": {
        "id": 1857,
        "location": "Tsumeb, Namibia",
        "updated_at": "2025-12-12 06:39:37 UTC",
        "last_record_at": "2025-12-11 00:00:00 UTC"
      }
    },
    {
      "type": "Feature",
      "geometry": {
        "type": "Point",
        "coordinates": [
          138.457,
          -35.269
        ]
      },
      "properties": {
        "id": 1568,
        "location": "Adelaide, Australia",
        "updated_at": "2025-12-22 06:48:09 UTC",
        "last_record_at": "2025-12-21 00:00:00 UTC"
      }
    },
    {
      "type": "Feature",
      "geometry": {
        "type": "Point",
        "coordinates": [
          "133.000",
          "-27.000"
        ]
      },
      "properties": {
        "id": 714,
        "location": "Kersbrook, Australia",
        "updated_at": "2025-12-21 04:45:13 UTC",
        "last_record_at": "2025-12-21 00:00:00 UTC"
      }
    },
    {
      "type": "Feature",
      "geometry": {
        "type": "Point",
        "coordinates": [
          27.1,
          -26.7
        ]
      },
      "properties": {
        "id": 1856,
        "location": "Potchefstroom, South Africa",
        "updated_at": "2025-12-25 05:26:27 UTC",
        "last_record_at": "2025-12-22 00:00:00 UTC"
      }
    },
    {
      "type": "Feature",
      "geometry": {
        "type": "Point",
        "coordinates": [
          "133.000",
          "-27.000"
        ]
      },
      "properties": {
        "id": 748,
        "location": "Bolgart, Australia",
        "updated_at": "2025-11-25 21:33:04 UTC",
        "last_record_at": "2025-11-24 00:00:00 UTC"
      }
    },
    {
      "type": "Feature",
      "geometry": {
        "type": "Point",
        "coordinates": [
          138.6,
          -34.935
        ]
      },
      "properties": {
        "id": 1791,
        "location": "Adelaide, Australia",
        "updated_at": "2025-11-30 00:29:23 UTC",
        "last_record_at": "2025-11-28 00:00:00 UTC"
      }
    },
    {
      "type": "Feature",
      "geometry": {
        "type": "Point",
        "coordinates": [
          "133.000",
          "-27.000"
        ]
      },
      "properties": {
        "id": 563,
        "location": "St Morris, Australia",
        "updated_at": "2026-01-07 05:37:05 UTC",
        "last_record_at": "2025-11-30 00:00:00 UTC"
      }
    },
    {
      "type": "Feature",
      "geometry": {
        "type": "Point",
        "coordinates": [
          115.84,
          -31.955
        ]
      },
      "properties": {
        "id": 873,
        "location": "Perth, Australia",
        "updated_at": "2025-11-06 23:41:55 UTC",
        "last_record_at": "2025-11-04 00:00:00 UTC"
      }
    },
    {
      "type": "Feature",
      "geometry": {
        "type": "Point",
        "coordinates": [
          138.552,
          -34.898
        ]
      },
      "properties": {
        "id": 507,
        "location": "Beverley, Australia",
        "updated_at": "2025-11-30 21:47:28 UTC",
        "last_record_at": "2025-11-30 00:00:00 UTC"
      }
    },
    {
      "type": "Feature",
      "geometry": {
        "type": "Point",
        "coordinates": [
          144.975,
          -37.82
        ]
      },
      "properties": {
        "id": 1729,
        "location": "Melbourne, Australia",
        "updated_at": "2025-11-04 05:30:49 UTC",
        "last_record_at": "2025-11-04 00:00:00 UTC"
      }
    },
    {
      "type": "Feature",
      "geometry": {
        "type": "Point",
        "coordinates": [
          80.74,
          16.08
        ]
      },
      "properties": {
        "id": 1077,
        "location": "Guntur, India",
        "updated_at": "2025-11-30 05:09:57 UTC",
        "last_record_at": "2025-11-30 00:00:00 UTC"
      }
    },
    {
      "type": "Feature",
      "geometry": {
        "type": "Point",
        "coordinates": [
          150.469,
          -33.726
        ]
      },
      "properties": {
        "id": 720,
        "location": "Hazelbrook, Australia",
        "updated_at": "2025-11-27 22:41:51 UTC",
        "last_record_at": "2025-11-26 00:00:00 UTC"
      }
    },
    {
      "type": "Feature",
      "geometry": {
        "type": "Point",
        "coordinates": [
          28.356,
          -17.134
        ]
      },
      "properties": {
        "id": 1893,
        "location": "Kariba, Zimbabwe",
        "updated_at": "2025-11-26 08:59:29 UTC",
        "last_record_at": "2025-11-26 00:00:00 UTC"
      }
    },
    {
      "type": "Feature",
      "geometry": {
        "type": "Point",
        "coordinates": [
          -5.801,
          57.374
        ]
      },
      "properties": {
        "id": 1119,
        "location": "Stirling, United Kingdom of Great Britain and Northern Ireland",
        "updated_at": "2025-11-24 12:47:23 UTC",
        "last_record_at": "2025-11-23 00:00:00 UTC"
      }
    },
    {
      "type": "Feature",
      "geometry": {
        "type": "Point",
        "coordinates": [
          115.747,
          -32.523
        ]
      },
      "properties": {
        "id": 1118,
        "location": "Mandurah, Australia",
        "updated_at": "2025-11-25 06:11:01 UTC",
        "last_record_at": "2025-11-23 00:00:00 UTC"
      }
    },
    {
      "type": "Feature",
      "geometry": {
        "type": "Point",
        "coordinates": [
          -0.883,
          52.25
        ]
      },
      "properties": {
        "id": 830,
        "location": "Northampton, United Kingdom of Great Britain and Northern Ireland",
        "updated_at": "2025-11-15 16:04:29 UTC",
        "last_record_at": "2025-11-14 00:00:00 UTC"
      }
    },
    {
      "type": "Feature",
      "geometry": {
        "type": "Point",
        "coordinates": [
          138.6,
          -34.935
        ]
      },
      "properties": {
        "id": 1826,
        "location": "Adelaide, Australia",
        "updated_at": "2025-10-07 09:26:56 UTC",
        "last_record_at": "2025-10-06 00:00:00 UTC"
      }
    },
    {
      "type": "Feature",
      "geometry": {
        "type": "Point",
        "coordinates": [
          152.938,
          -29.712
        ]
      },
      "properties": {
        "id": 1317,
        "location": "Grafton, Australia",
        "updated_at": "2025-09-03 06:56:21 UTC",
        "last_record_at": "2025-09-03 00:00:00 UTC"
      }
    },
    {
      "type": "Feature",
      "geometry": {
        "type": "Point",
        "coordinates": [
          150.917,
          -31.103
        ]
      },
      "properties": {
        "id": 1790,
        "location": "Tamworth, Australia",
        "updated_at": "2025-08-21 22:34:27 UTC",
        "last_record_at": "2025-08-22 00:00:00 UTC"
      }
    },
    {
      "type": "Feature",
      "geometry": {
        "type": "Point",
        "coordinates": [
          -93.639,
          41.732
        ]
      },
      "properties": {
        "id": 1726,
        "location": "Ankeny, United States of America",
        "updated_at": "2025-08-16 23:01:43 UTC",
        "last_record_at": "2025-08-12 00:00:00 UTC"
      }
    },
    {
      "type": "Feature",
      "geometry": {
        "type": "Point",
        "coordinates": [
          151.139,
          -33.824
        ]
      },
      "properties": {
        "id": 487,
        "location": "Hunters Hill",
        "updated_at": "2025-08-18 22:19:10 UTC",
        "last_record_at": "2025-08-18 00:00:00 UTC"
      }
    },
    {
      "type": "Feature",
      "geometry": {
        "type": "Point",
        "coordinates": [
          133.0,
          -27.0
        ]
      },
      "properties": {
        "id": 1132,
        "location": "Australia",
        "updated_at": "2025-08-13 22:13:02 UTC",
        "last_record_at": "2025-08-13 00:00:00 UTC"
      }
    },
    {
      "type": "Feature",
      "geometry": {
        "type": "Point",
        "coordinates": [
          121.889,
          -33.857
        ]
      },
      "properties": {
        "id": 1764,
        "location": "Esperance, Australia",
        "updated_at": "2025-08-03 03:32:24 UTC",
        "last_record_at": "2025-08-03 00:00:00 UTC"
      }
    },
    {
      "type": "Feature",
      "geometry": {
        "type": "Point",
        "coordinates": [
          117.811,
          -32.414
        ]
      },
      "properties": {
        "id": 1760,
        "location": "Narrogin, Australia",
        "updated_at": "2025-07-04 19:53:42 UTC",
        "last_record_at": "2025-07-04 00:00:00 UTC"
      }
    },
    {
      "type": "Feature",
      "geometry": {
        "type": "Point",
        "coordinates": [
          -93.195,
          47.454
        ]
      },
      "properties": {
        "id": 1761,
        "location": "United States of America",
        "updated_at": "2025-07-29 02:05:25 UTC",
        "last_record_at": "2025-07-27 00:00:00 UTC"
      }
    },
    {
      "type": "Feature",
      "geometry": {
        "type": "Point",
        "coordinates": [
          -0.449,
          39.453
        ]
      },
      "properties": {
        "id": 1765,
        "location": "Valencia, Spain",
        "updated_at": "2025-07-25 12:28:53 UTC",
        "last_record_at": "2025-07-01 00:00:00 UTC"
      }
    },
    {
      "type": "Feature",
      "geometry": {
        "type": "Point",
        "coordinates": [
          -2.487,
          51.826
        ]
      },
      "properties": {
        "id": 885,
        "location": "United Kingdom of Great Britain and Northern Ireland",
        "updated_at": "2025-06-08 06:52:48 UTC",
        "last_record_at": "2025-06-08 00:00:00 UTC"
      }
    },
    {
      "type": "Feature",
      "geometry": {
        "type": "Point",
        "coordinates": [
          117.892,
          -35.017
        ]
      },
      "properties": {
        "id": 1265,
        "location": "Albany, Australia",
        "updated_at": "2025-06-04 06:07:05 UTC",
        "last_record_at": "2025-06-04 00:00:00 UTC"
      }
    },
    {
      "type": "Feature",
      "geometry": {
        "type": "Point",
        "coordinates": [
          -92.748,
          44.033
        ]
      },
      "properties": {
        "id": 1248,
        "location": "Kasson, United States of America",
        "updated_at": "2025-06-15 15:06:36 UTC",
        "last_record_at": "2025-06-15 00:00:00 UTC"
      }
    },
    {
      "type": "Feature",
      "geometry": {
        "type": "Point",
        "coordinates": [
          "174.000",
          "-41.000"
        ]
      },
      "properties": {
        "id": 652,
        "location": "Hikuai, New Zealand",
        "updated_at": "2025-06-13 01:42:07 UTC",
        "last_record_at": "2025-06-12 00:00:00 UTC"
      }
    },
    {
      "type": "Feature",
      "geometry": {
        "type": "Point",
        "coordinates": [
          75.372,
          12.881
        ]
      },
      "properties": {
        "id": 1725,
        "location": "Mangalore, India",
        "updated_at": "2025-05-26 13:53:47 UTC",
        "last_record_at": "2025-05-26 00:00:00 UTC"
      }
    },
    {
      "type": "Feature",
      "geometry": {
        "type": "Point",
        "coordinates": [
          151.376,
          -33.521
        ]
      },
      "properties": {
        "id": 1273,
        "location": "Sydney, Australia",
        "updated_at": "2025-05-16 02:49:09 UTC",
        "last_record_at": "2025-05-16 00:00:00 UTC"
      }
    },
    {
      "type": "Feature",
      "geometry": {
        "type": "Point",
        "coordinates": [
          152.02,
          -28.229
        ]
      },
      "properties": {
        "id": 1691,
        "location": "Warwick, Australia",
        "updated_at": "2025-05-12 02:43:11 UTC",
        "last_record_at": "2025-05-12 00:00:00 UTC"
      }
    }
  ]
}