{
  "type": "FeatureCollection",
  "features": [
    {
      "type": "Feature",
      "geometry": {
        "type": "Point",
        "coordinates": [
          152.807,
          -30.611
        ]
      },
      "properties": {
        "id": 619,
        "title": "Windy Hill",
        "location": "Argents Hill, NSW",
        "total_7_days": 0,
        "total_30_days": 117.0
      }
    },
    {
      "type": "Feature",
      "geometry": {
        "type": "Point",
        "coordinates": [
          133.333,
          -26.974
        ]
      },
      "properties": {
        "id": 710,
        "title": "Jen",
        "location": "Toowoomba, QLD",
        "total_7_days": 0,
        "total_30_days": 37.0
      }
    },
    {
      "type": "Feature",
      "geometry": {
        "type": "Point",
        "coordinates": [
          151.139,
          -33.824
        ]
      },
      "properties": {
        "id": 487,
        "title": "Boronia Park",
        "location": "Hunters Hill, NSW",
        "total_7_days": 0,
        "total_30_days": 54.0
      }
    },
    {
      "type": "Feature",
      "geometry": {
        "type": "Point",
        "coordinates": [
          133.333,
          -26.974
        ]
      },
      "properties": {
        "id": 668,
        "title": "Taylor St",
        "location": "Ashburton, VIC",
        "total_7_days": 1.5,
        "total_30_days": 41.5
      }
    },
    {
      "type": "Feature",
      "geometry": {
        "type": "Point",
        "coordinates": [
          176.887,
          -39.513
        ]
      },
      "properties": {
        "id": 325,
        "title": "Napier Rainfall",
        "location": "Napier",
        "total_7_days": 41.0,
        "total_30_days": 51.0
      }
    },
    {
      "type": "Feature",
      "geometry": {
        "type": "Point",
        "coordinates": [
          149.014,
          -34.626
        ]
      },
      "properties": {
        "id": 475,
        "title": "Lynsdale Park",
        "location": "Blakney Creek, NSW",
        "total_7_days": 0,
        "total_30_days": 63.0
      }
    },
    {
      "type": "Feature",
      "geometry": {
        "type": "Point",
        "coordinates": [
          148.444,
          -33.909
        ]
      },
      "properties": {
        "id": 465,
        "title": "Rubyvale",
        "location": "Bumbaldry, NSW",
        "total_7_days": 0,
        "total_30_days": 73.0
      }
    },
    {
      "type": "Feature",
      "geometry": {
        "type": "Point",
        "coordinates": [
          133.333,
          -26.974
        ]
      },
      "properties": {
        "id": 704,
        "title": "BF Depot",
        "location": "Beechforest, VIC",
        "total_7_days": 110.0,
        "total_30_days": 110.0
      }
    },
    {
      "type": "Feature",
      "geometry": {
        "type": "Point",
        "coordinates": [
          133.333,
          -26.974
        ]
      },
      "properties": {
        "id": 571,
        "title": "Keith 6156",
        "location": "Melville, WA",
        "total_7_days": 52.5,
        "total_30_days": 100.5
      }
    },
    {
      "type": "Feature",
      "geometry": {
        "type": "Point",
        "coordinates": [
          133.333,
          -26.974
        ]
      },
      "properties": {
        "id": 638,
        "title": "Highfield at Oldbury Rd",
        "location": "Sutton Forest, NSW",
        "total_7_days": 0,
        "total_30_days": 18.0
      }
    },
    {
      "type": "Feature",
      "geometry": {
        "type": "Point",
        "coordinates": [
          133.333,
          -26.974
        ]
      },
      "properties": {
        "id": 603,
        "title": "Barragga Bay",
        "location": "Barragga Bay, NSW",
        "total_7_days": 0.0,
        "total_30_days": 13.4
      }
    },
    {
      "type": "Feature",
      "geometry": {
        "type": "Point",
        "coordinates": [
          133.333,
          -26.974
        ]
      },
      "properties": {
        "id": 644,
        "title": "Willows Kirwan",
        "location": "Kirwan, QLD",
        "total_7_days": 0,
        "total_30_days": 8.63
      }
    },
    {
      "type": "Feature",
      "geometry": {
        "type": "Point",
        "coordinates": [
          146.007,
          -17.808
        ]
      },
      "properties": {
        "id": 59,
        "title": "El Arish Rain",
        "location": "El Arish, QLD",
        "total_7_days": 32.0,
        "total_30_days": 200.0
      }
    },
    {
      "type": "Feature",
      "geometry": {
        "type": "Point",
        "coordinates": [
          148.612,
          -32.296
        ]
      },
      "properties": {
        "id": 225,
        "title": "Tannermount Rain Gauge",
        "location": "Dubbo, NSW",
        "total_7_days": 0,
        "total_30_days": 49.0
      }
    },
    {
      "type": "Feature",
      "geometry": {
        "type": "Point",
        "coordinates": [
          133.333,
          -26.974
        ]
      },
      "properties": {
        "id": 373,
        "title": "House gauge",
        "location": "Macedon, VIC",
        "total_7_days": 0,
        "total_30_days": 53.5
      }
    },
    {
      "type": "Feature",
      "geometry": {
        "type": "Point",
        "coordinates": [
          133.333,
          -26.974
        ]
      },
      "properties": {
        "id": 696,
        "title": "Rain1",
        "location": "Caldera , Panama",
        "total_7_days": 107.0,
        "total_30_days": 524.0
      }
    },
    {
      "type": "Feature",
      "geometry": {
        "type": "Point",
        "coordinates": [
          150.786,
          -31.527
        ]
      },
      "properties": {
        "id": 299,
        "title": "Wallabadah Rd  Quirindi",
        "location": "Quirindi, NSW",
        "total_7_days": 0,
        "total_30_days": 37.0
      }
    },
    {
      "type": "Feature",
      "geometry": {
        "type": "Point",
        "coordinates": [
          133.333,
          -26.974
        ]
      },
      "properties": {
        "id": 681,
        "title": "Garden Drive - Rain Gauge",
        "location": "Urangan. Hervey Bay, QLD",
        "total_7_days": 0,
        "total_30_days": 18.0
      }
    },
    {
      "type": "Feature",
      "geometry": {
        "type": "Point",
        "coordinates": [
          133.333,
          -26.974
        ]
      },
      "properties": {
        "id": 706,
        "title": "Lone Hill, Johannesburg, South Africa",
        "location": "Lone Hill, Johannesburg, South Africa",
        "total_7_days": 0,
        "total_30_days": 16.0
      }
    },
    {
      "type": "Feature",
      "geometry": {
        "type": "Point",
        "coordinates": [
          133.333,
          -26.974
        ]
      },
      "properties": {
        "id": 726,
        "title": "Ballagin",
        "location": "Wagin, WA",
        "total_7_days": 15.5,
        "total_30_days": 56.0
      }
    },
    {
      "type": "Feature",
      "geometry": {
        "type": "Point",
        "coordinates": [
          133.333,
          -26.974
        ]
      },
      "properties": {
        "id": 731,
        "title": "Test2020",
        "location": "Melbourne, VIC",
        "total_7_days": 0,
        "total_30_days": 0
      }
    },
    {
      "type": "Feature",
      "geometry": {
        "type": "Point",
        "coordinates": [
          145.311,
          -37.805
        ]
      },
      "properties": {
        "id": 122,
        "title": "Kilsyth ",
        "location": "Kilsyth, Yarra Ranges, VIC",
        "total_7_days": 4.0,
        "total_30_days": 42.0
      }
    },
    {
      "type": "Feature",
      "geometry": {
        "type": "Point",
        "coordinates": [
          133.333,
          -26.974
        ]
      },
      "properties": {
        "id": 713,
        "title": "Pete's place, Ocean St (North).",
        "location": "Burnett Heads, QLD",
        "total_7_days": 0,
        "total_30_days": 14.2
      }
    },
    {
      "type": "Feature",
      "geometry": {
        "type": "Point",
        "coordinates": [
          133.333,
          -26.974
        ]
      },
      "properties": {
        "id": 714,
        "title": "Kersbrook",
        "location": "Kersbrook, SA",
        "total_7_days": 0,
        "total_30_days": 99.8
      }
    },
    {
      "type": "Feature",
      "geometry": {
        "type": "Point",
        "coordinates": [
          138.552,
          -34.898
        ]
      },
      "properties": {
        "id": 507,
        "title": "104",
        "location": "Beverley, SA",
        "total_7_days": 0,
        "total_30_days": 48.0
      }
    },
    {
      "type": "Feature",
      "geometry": {
        "type": "Point",
        "coordinates": [
          133.333,
          -26.974
        ]
      },
      "properties": {
        "id": 518,
        "title": "Debbie's rain gauge",
        "location": "Tolaga Bay",
        "total_7_days": 239.5,
        "total_30_days": 482.4
      }
    },
    {
      "type": "Feature",
      "geometry": {
        "type": "Point",
        "coordinates": [
          133.333,
          -26.974
        ]
      },
      "properties": {
        "id": 652,
        "title": "Awatahi",
        "location": "Hikuai",
        "total_7_days": 119.0,
        "total_30_days": 411.0
      }
    },
    {
      "type": "Feature",
      "geometry": {
        "type": "Point",
        "coordinates": [
          152.751,
          -26.691
        ]
      },
      "properties": {
        "id": 476,
        "title": "Donovans Knob",
        "location": "Curramore, QLD",
        "total_7_days": 8.0,
        "total_30_days": 45.5
      }
    },
    {
      "type": "Feature",
      "geometry": {
        "type": "Point",
        "coordinates": [
          133.333,
          -26.974
        ]
      },
      "properties": {
        "id": 674,
        "title": "Hentie Gerber",
        "location": "Benoni",
        "total_7_days": 0,
        "total_30_days": 5.0
      }
    },
    {
      "type": "Feature",
      "geometry": {
        "type": "Point",
        "coordinates": [
          133.333,
          -26.974
        ]
      },
      "properties": {
        "id": 608,
        "title": "44 Grays Point",
        "location": "Grays Point, NSW",
        "total_7_days": 9.0,
        "total_30_days": 83.5
      }
    },
    {
      "type": "Feature",
      "geometry": {
        "type": "Point",
        "coordinates": [
          133.333,
          -26.974
        ]
      },
      "properties": {
        "id": 624,
        "title": "ErsnmyneManton",
        "location": "Manton, NSW",
        "total_7_days": 0,
        "total_30_days": 46.0
      }
    },
    {
      "type": "Feature",
      "geometry": {
        "type": "Point",
        "coordinates": [
          133.333,
          -26.974
        ]
      },
      "properties": {
        "id": 653,
        "title": "Quoit House",
        "location": "Marlesford, Woodbridge ",
        "total_7_days": 5.0,
        "total_30_days": 52.0
      }
    },
    {
      "type": "Feature",
      "geometry": {
        "type": "Point",
        "coordinates": [
          141.608,
          -38.132
        ]
      },
      "properties": {
        "id": 152,
        "title": "Kerlie Park",
        "location": "Heywood, VIC",
        "total_7_days": 0,
        "total_30_days": 53.75
      }
    },
    {
      "type": "Feature",
      "geometry": {
        "type": "Point",
        "coordinates": [
          133.333,
          -26.974
        ]
      },
      "properties": {
        "id": 697,
        "title": "craigs rain gauge",
        "location": "Croydon North, VIC",
        "total_7_days": 0,
        "total_30_days": 41.0
      }
    },
    {
      "type": "Feature",
      "geometry": {
        "type": "Point",
        "coordinates": [
          133.333,
          -26.974
        ]
      },
      "properties": {
        "id": 515,
        "title": "57",
        "location": "Blackbutt, QLD",
        "total_7_days": 0,
        "total_30_days": 23.0
      }
    },
    {
      "type": "Feature",
      "geometry": {
        "type": "Point",
        "coordinates": [
          133.333,
          -26.974
        ]
      },
      "properties": {
        "id": 669,
        "title": "Taylor St (Auto)",
        "location": "Ashburton, VIC",
        "total_7_days": 0.6,
        "total_30_days": 6.0
      }
    },
    {
      "type": "Feature",
      "geometry": {
        "type": "Point",
        "coordinates": [
          133.333,
          -26.974
        ]
      },
      "properties": {
        "id": 395,
        "title": "Belaradah, Wangandary Upper",
        "location": "Wangandary Upper, VIC",
        "total_7_days": 3.0,
        "total_30_days": 39.0
      }
    },
    {
      "type": "Feature",
      "geometry": {
        "type": "Point",
        "coordinates": [
          151.94,
          28.9
        ]
      },
      "properties": {
        "id": 370,
        "title": "Simjojims Rain Gauge",
        "location": "Wallangarra, QLD",
        "total_7_days": 0,
        "total_30_days": 23.0
      }
    },
    {
      "type": "Feature",
      "geometry": {
        "type": "Point",
        "coordinates": [
          151.153,
          -28.639
        ]
      },
      "properties": {
        "id": 443,
        "title": "Allambie",
        "location": "Brush Creek, QLD",
        "total_7_days": 0,
        "total_30_days": 29.5
      }
    },
    {
      "type": "Feature",
      "geometry": {
        "type": "Point",
        "coordinates": [
          150.298,
          -34.657
        ]
      },
      "properties": {
        "id": 643,
        "title": "Bundanoon Anglican Church",
        "location": "Bundanoon, NSW",
        "total_7_days": 2.4,
        "total_30_days": 25.0
      }
    },
    {
      "type": "Feature",
      "geometry": {
        "type": "Point",
        "coordinates": [
          152.953,
          -27.455
        ]
      },
      "properties": {
        "id": 38,
        "title": "Jim's rain guage",
        "location": "The Gap, QLD",
        "total_7_days": 0.7,
        "total_30_days": 36.8
      }
    },
    {
      "type": "Feature",
      "geometry": {
        "type": "Point",
        "coordinates": [
          133.333,
          -26.974
        ]
      },
      "properties": {
        "id": 712,
        "title": "Kenton Valley",
        "location": "Kenton Valley, SA",
        "total_7_days": 0,
        "total_30_days": 108.0
      }
    },
    {
      "type": "Feature",
      "geometry": {
        "type": "Point",
        "coordinates": [
          149.585,
          -33.412
        ]
      },
      "properties": {
        "id": 445,
        "title": "Limbrick's gauge",
        "location": "Bathurst, NSW",
        "total_7_days": 0,
        "total_30_days": 31.0
      }
    },
    {
      "type": "Feature",
      "geometry": {
        "type": "Point",
        "coordinates": [
          150.485,
          -33.517
        ]
      },
      "properties": {
        "id": 485,
        "title": "Noonameena",
        "location": "Bilpin, NSW",
        "total_7_days": 4.0,
        "total_30_days": 34.0
      }
    },
    {
      "type": "Feature",
      "geometry": {
        "type": "Point",
        "coordinates": [
          115.878,
          -32.049
        ]
      },
      "properties": {
        "id": 138,
        "title": "Willetton WA",
        "location": "Willetton, WA",
        "total_7_days": 37.1,
        "total_30_days": 83.2
      }
    },
    {
      "type": "Feature",
      "geometry": {
        "type": "Point",
        "coordinates": [
          133.333,
          -26.974
        ]
      },
      "properties": {
        "id": 268,
        "title": "the inlet",
        "location": "Attunga, NSW",
        "total_7_days": 0,
        "total_30_days": 33.0
      }
    },
    {
      "type": "Feature",
      "geometry": {
        "type": "Point",
        "coordinates": [
          133.333,
          -26.974
        ]
      },
      "properties": {
        "id": 730,
        "title": "Fat Goat farm",
        "location": "Noman's Lake, WA",
        "total_7_days": 7.5,
        "total_30_days": 37.0
      }
    },
    {
      "type": "Feature",
      "geometry": {
        "type": "Point",
        "coordinates": [
          133.333,
          -26.974
        ]
      },
      "properties": {
        "id": 733,
        "title": "Garland Rd",
        "location": "Bundanoon, NSW",
        "total_7_days": 4.0,
        "total_30_days": 27.0
      }
    },
    {
      "type": "Feature",
      "geometry": {
        "type": "Point",
        "coordinates": [
          133.333,
          -26.974
        ]
      },
      "properties": {
        "id": 554,
        "title": "Rendezvous Road",
        "location": "Busselton, WA",
        "total_7_days": 48.0,
        "total_30_days": 121.0
      }
    },
    {
      "type": "Feature",
      "geometry": {
        "type": "Point",
        "coordinates": [
          117.333,
          -35.002
        ]
      },
      "properties": {
        "id": 501,
        "title": "My Readings",
        "location": "Ocean Beach, WA",
        "total_7_days": 30.5,
        "total_30_days": 120.5
      }
    },
    {
      "type": "Feature",
      "geometry": {
        "type": "Point",
        "coordinates": [
          150.569,
          -33.726
        ]
      },
      "properties": {
        "id": 720,
        "title": "Hazelbrook",
        "location": "Hazelbrook, NSW",
        "total_7_days": 5.25,
        "total_30_days": 34.25
      }
    },
    {
      "type": "Feature",
      "geometry": {
        "type": "Point",
        "coordinates": [
          133.333,
          -26.974
        ]
      },
      "properties": {
        "id": 721,
        "title": "Korimako Reserve",
        "location": "Akaroa ",
        "total_7_days": 87.0,
        "total_30_days": 148.5
      }
    },
    {
      "type": "Feature",
      "geometry": {
        "type": "Point",
        "coordinates": [
          133.333,
          -26.974
        ]
      },
      "properties": {
        "id": 728,
        "title": "Hillside",
        "location": "Wagin, WA",
        "total_7_days": 26.0,
        "total_30_days": 60.5
      }
    },
    {
      "type": "Feature",
      "geometry": {
        "type": "Point",
        "coordinates": [
          152.787,
          -25.364
        ]
      },
      "properties": {
        "id": 468,
        "title": "Moorabinda drive",
        "location": "Sunshine Acres, QLD",
        "total_7_days": 8.0,
        "total_30_days": 63.0
      }
    },
    {
      "type": "Feature",
      "geometry": {
        "type": "Point",
        "coordinates": [
          152.784,
          -26.592
        ]
      },
      "properties": {
        "id": 453,
        "title": "Delicia@Mapleton",
        "location": "Coolabine, QLD",
        "total_7_days": 0,
        "total_30_days": 3.0
      }
    },
    {
      "type": "Feature",
      "geometry": {
        "type": "Point",
        "coordinates": [
          151.153,
          -28.629
        ]
      },
      "properties": {
        "id": 486,
        "title": "Allambie - House",
        "location": "Brush Creek, QLD",
        "total_7_days": 0,
        "total_30_days": 34.0
      }
    }
  ]
}