{
  "type": "FeatureCollection",
  "features": [
    {
      "type": "Feature",
      "geometry": {
        "type": "Point",
        "coordinates": [
          -1.5,
          52.933
        ]
      },
      "properties": {
        "id": 1724,
        "location": "Derby, United Kingdom of Great Britain and Northern Ireland",
        "updated_at": "2026-03-16 10:01:02 UTC",
        "last_record_at": "2026-03-16 00:00:00 UTC",
        "total_7_days": 5.5,
        "total_30_days": 93.5
      }
    },
    {
      "type": "Feature",
      "geometry": {
        "type": "Point",
        "coordinates": [
          151.299,
          -29.994
        ]
      },
      "properties": {
        "id": 1659,
        "location": "Inverell, Australia",
        "updated_at": "2026-03-21 03:23:50 UTC",
        "last_record_at": "2026-03-21 00:00:00 UTC",
        "total_7_days": 8.0,
        "total_30_days": 34.5
      }
    },
    {
      "type": "Feature",
      "geometry": {
        "type": "Point",
        "coordinates": [
          149.583,
          -36.639
        ]
      },
      "properties": {
        "id": 1294,
        "location": "Cooma, Australia",
        "updated_at": "2026-03-19 21:28:50 UTC",
        "last_record_at": "2026-03-20 00:00:00 UTC",
        "total_7_days": 17.0,
        "total_30_days": 101.0
      }
    },
    {
      "type": "Feature",
      "geometry": {
        "type": "Point",
        "coordinates": [
          133.0,
          -27.0
        ]
      },
      "properties": {
        "id": 122,
        "location": "Kilsyth, Yarra Ranges, Australia",
        "updated_at": "2026-03-12 01:24:08 UTC",
        "last_record_at": "2026-03-11 00:00:00 UTC",
        "total_7_days": 0,
        "total_30_days": 52.0
      }
    },
    {
      "type": "Feature",
      "geometry": {
        "type": "Point",
        "coordinates": [
          36.817,
          -1.283
        ]
      },
      "properties": {
        "id": 1900,
        "location": "Nairobi, Kenya",
        "updated_at": "2026-03-21 04:34:31 UTC",
        "last_record_at": "2026-03-21 00:00:00 UTC",
        "total_7_days": 62.0,
        "total_30_days": 440.0
      }
    },
    {
      "type": "Feature",
      "geometry": {
        "type": "Point",
        "coordinates": [
          149.57,
          -33.42
        ]
      },
      "properties": {
        "id": 952,
        "location": "Bathurst, Australia",
        "updated_at": "2026-03-19 21:35:02 UTC",
        "last_record_at": "2026-03-19 00:00:00 UTC",
        "total_7_days": 7.5,
        "total_30_days": 81.5
      }
    },
    {
      "type": "Feature",
      "geometry": {
        "type": "Point",
        "coordinates": [
          "24.000",
          "-29.000"
        ]
      },
      "properties": {
        "id": 694,
        "location": "Woodland Hills, South Africa",
        "updated_at": "2026-03-18 21:31:55 UTC",
        "last_record_at": "2026-03-17 00:00:00 UTC",
        "total_7_days": 30.0,
        "total_30_days": 145.0
      }
    },
    {
      "type": "Feature",
      "geometry": {
        "type": "Point",
        "coordinates": [
          133.0,
          -27.0
        ]
      },
      "properties": {
        "id": 1394,
        "location": "Australia",
        "updated_at": "2026-03-21 00:41:40 UTC",
        "last_record_at": "2026-03-21 00:00:00 UTC",
        "total_7_days": 28.0,
        "total_30_days": 424.5
      }
    },
    {
      "type": "Feature",
      "geometry": {
        "type": "Point",
        "coordinates": [
          152.02,
          -28.229
        ]
      },
      "properties": {
        "id": 882,
        "location": "Warwick, Australia",
        "updated_at": "2026-03-19 07:46:46 UTC",
        "last_record_at": "2026-03-10 00:00:00 UTC",
        "total_7_days": 0,
        "total_30_days": 8.5
      }
    },
    {
      "type": "Feature",
      "geometry": {
        "type": "Point",
        "coordinates": [
          26.851,
          -25.445
        ]
      },
      "properties": {
        "id": 1168,
        "location": "Rustenburg, South Africa",
        "updated_at": "2026-03-13 15:31:47 UTC",
        "last_record_at": "2026-03-09 00:00:00 UTC",
        "total_7_days": 0,
        "total_30_days": 97.0
      }
    },
    {
      "type": "Feature",
      "geometry": {
        "type": "Point",
        "coordinates": [
          29.604,
          -22.136
        ]
      },
      "properties": {
        "id": 1629,
        "location": "Beitbridge, Zimbabwe",
        "updated_at": "2026-03-17 08:00:14 UTC",
        "last_record_at": "2026-03-17 00:00:00 UTC",
        "total_7_days": 35.0,
        "total_30_days": 189.0
      }
    },
    {
      "type": "Feature",
      "geometry": {
        "type": "Point",
        "coordinates": [
          153.396,
          -28.119
        ]
      },
      "properties": {
        "id": 936,
        "location": "Gold Coast, Australia",
        "updated_at": "2026-03-19 22:44:59 UTC",
        "last_record_at": "2026-03-20 00:00:00 UTC",
        "total_7_days": 5.0,
        "total_30_days": 193.5
      }
    },
    {
      "type": "Feature",
      "geometry": {
        "type": "Point",
        "coordinates": [
          -89.203,
          13.71
        ]
      },
      "properties": {
        "id": 1694,
        "location": "San Salvador, El Salvador",
        "updated_at": "2026-03-15 12:44:52 UTC",
        "last_record_at": "2026-03-15 00:00:00 UTC",
        "total_7_days": 13.0,
        "total_30_days": 42.0
      }
    },
    {
      "type": "Feature",
      "geometry": {
        "type": "Point",
        "coordinates": [
          151.178,
          -33.869
        ]
      },
      "properties": {
        "id": 1894,
        "location": "Sydney, Australia",
        "updated_at": "2026-03-20 00:46:30 UTC",
        "last_record_at": "2026-03-20 00:00:00 UTC",
        "total_7_days": 10.0,
        "total_30_days": 157.0
      }
    },
    {
      "type": "Feature",
      "geometry": {
        "type": "Point",
        "coordinates": [
          133.0,
          -27.0
        ]
      },
      "properties": {
        "id": 1288,
        "location": "Australia",
        "updated_at": "2026-03-19 02:04:18 UTC",
        "last_record_at": "2026-03-19 00:00:00 UTC",
        "total_7_days": 12.0,
        "total_30_days": 77.5
      }
    },
    {
      "type": "Feature",
      "geometry": {
        "type": "Point",
        "coordinates": [
          143.84,
          -37.56
        ]
      },
      "properties": {
        "id": 1280,
        "location": "Ballarat, Australia",
        "updated_at": "2026-03-17 07:17:44 UTC",
        "last_record_at": "2026-03-17 00:00:00 UTC",
        "total_7_days": 12.0,
        "total_30_days": 89.5
      }
    },
    {
      "type": "Feature",
      "geometry": {
        "type": "Point",
        "coordinates": [
          141.573,
          -38.114
        ]
      },
      "properties": {
        "id": 152,
        "location": "Heywood, Australia",
        "updated_at": "2026-03-16 21:40:51 UTC",
        "last_record_at": "2026-03-16 00:00:00 UTC",
        "total_7_days": 10.75,
        "total_30_days": 30.75
      }
    },
    {
      "type": "Feature",
      "geometry": {
        "type": "Point",
        "coordinates": [
          153.477,
          -28.759
        ]
      },
      "properties": {
        "id": 892,
        "location": "Lismore, Australia",
        "updated_at": "2026-03-20 20:27:03 UTC",
        "last_record_at": "2026-03-20 00:00:00 UTC",
        "total_7_days": 7.4,
        "total_30_days": 195.5
      }
    },
    {
      "type": "Feature",
      "geometry": {
        "type": "Point",
        "coordinates": [
          144.93,
          -17.345
        ]
      },
      "properties": {
        "id": 818,
        "location": "Atherton, Australia",
        "updated_at": "2026-03-20 18:54:18 UTC",
        "last_record_at": "2026-03-21 00:00:00 UTC",
        "total_7_days": 0.0,
        "total_30_days": 225.0
      }
    },
    {
      "type": "Feature",
      "geometry": {
        "type": "Point",
        "coordinates": [
          29.627,
          -22.131
        ]
      },
      "properties": {
        "id": 1625,
        "location": "Zimbabwe",
        "updated_at": "2026-03-17 08:01:14 UTC",
        "last_record_at": "2026-03-17 00:00:00 UTC",
        "total_7_days": 53.0,
        "total_30_days": 184.6
      }
    },
    {
      "type": "Feature",
      "geometry": {
        "type": "Point",
        "coordinates": [
          174.903,
          -37.202
        ]
      },
      "properties": {
        "id": 1762,
        "location": "Pukekohe, New Zealand",
        "updated_at": "2026-03-12 18:36:56 UTC",
        "last_record_at": "2026-03-13 00:00:00 UTC",
        "total_7_days": 0,
        "total_30_days": 0.5
      }
    },
    {
      "type": "Feature",
      "geometry": {
        "type": "Point",
        "coordinates": [
          29.639,
          -22.128
        ]
      },
      "properties": {
        "id": 1627,
        "location": "Zimbabwe",
        "updated_at": "2026-03-17 08:00:32 UTC",
        "last_record_at": "2026-03-17 00:00:00 UTC",
        "total_7_days": 38.0,
        "total_30_days": 185.0
      }
    },
    {
      "type": "Feature",
      "geometry": {
        "type": "Point",
        "coordinates": [
          29.64,
          -22.098
        ]
      },
      "properties": {
        "id": 1626,
        "location": "Zimbabwe",
        "updated_at": "2026-03-18 09:26:38 UTC",
        "last_record_at": "2026-03-18 00:00:00 UTC",
        "total_7_days": 47.0,
        "total_30_days": 185.5
      }
    },
    {
      "type": "Feature",
      "geometry": {
        "type": "Point",
        "coordinates": [
          153.133,
          -26.8
        ]
      },
      "properties": {
        "id": 837,
        "location": "Caloundra, Australia",
        "updated_at": "2026-03-19 06:33:19 UTC",
        "last_record_at": "2026-03-17 00:00:00 UTC",
        "total_7_days": 7.0,
        "total_30_days": 456.25
      }
    },
    {
      "type": "Feature",
      "geometry": {
        "type": "Point",
        "coordinates": [
          29.617,
          -22.121
        ]
      },
      "properties": {
        "id": 1630,
        "location": "Beitbridge, Zimbabwe",
        "updated_at": "2026-03-18 09:26:49 UTC",
        "last_record_at": "2026-03-18 00:00:00 UTC",
        "total_7_days": 55.5,
        "total_30_days": 105.0
      }
    },
    {
      "type": "Feature",
      "geometry": {
        "type": "Point",
        "coordinates": [
          152.938,
          -29.712
        ]
      },
      "properties": {
        "id": 1142,
        "location": "Grafton, Australia",
        "updated_at": "2026-03-19 19:36:17 UTC",
        "last_record_at": "2026-03-19 00:00:00 UTC",
        "total_7_days": 0.5,
        "total_30_days": 53.5
      }
    },
    {
      "type": "Feature",
      "geometry": {
        "type": "Point",
        "coordinates": [
          "133.000",
          "-27.000"
        ]
      },
      "properties": {
        "id": 668,
        "location": "Ashburton, Australia",
        "updated_at": "2026-03-16 21:13:53 UTC",
        "last_record_at": "2026-03-17 00:00:00 UTC",
        "total_7_days": 16.0,
        "total_30_days": 66.5
      }
    },
    {
      "type": "Feature",
      "geometry": {
        "type": "Point",
        "coordinates": [
          152.395,
          -26.05
        ]
      },
      "properties": {
        "id": 1290,
        "location": "Gympie, Australia",
        "updated_at": "2026-03-19 21:46:06 UTC",
        "last_record_at": "2026-03-19 00:00:00 UTC",
        "total_7_days": 6.0,
        "total_30_days": 404.5
      }
    },
    {
      "type": "Feature",
      "geometry": {
        "type": "Point",
        "coordinates": [
          146.259,
          -20.081
        ]
      },
      "properties": {
        "id": 958,
        "location": "Charters Towers, Australia",
        "updated_at": "2026-03-15 20:27:13 UTC",
        "last_record_at": "2026-03-15 00:00:00 UTC",
        "total_7_days": 7.0,
        "total_30_days": 75.0
      }
    },
    {
      "type": "Feature",
      "geometry": {
        "type": "Point",
        "coordinates": [
          "133.000",
          "-27.000"
        ]
      },
      "properties": {
        "id": 515,
        "location": "Blackbutt, Australia",
        "updated_at": "2026-03-13 21:39:47 UTC",
        "last_record_at": "2026-03-13 00:00:00 UTC",
        "total_7_days": 0,
        "total_30_days": 214.5
      }
    },
    {
      "type": "Feature",
      "geometry": {
        "type": "Point",
        "coordinates": [
          153.035,
          -27.455
        ]
      },
      "properties": {
        "id": 888,
        "location": "Brisbane, Australia",
        "updated_at": "2026-03-09 08:25:04 UTC",
        "last_record_at": "2026-03-09 00:00:00 UTC",
        "total_7_days": 0,
        "total_30_days": 6.0
      }
    },
    {
      "type": "Feature",
      "geometry": {
        "type": "Point",
        "coordinates": [
          "133.000",
          "-27.000"
        ]
      },
      "properties": {
        "id": 638,
        "location": "Sutton Forest, Australia",
        "updated_at": "2026-03-20 20:16:43 UTC",
        "last_record_at": "2026-03-21 00:00:00 UTC",
        "total_7_days": 11.0,
        "total_30_days": 81.0
      }
    },
    {
      "type": "Feature",
      "geometry": {
        "type": "Point",
        "coordinates": [
          152.943,
          -27.444
        ]
      },
      "properties": {
        "id": 1768,
        "location": "Brisbane, Australia",
        "updated_at": "2026-03-20 20:54:16 UTC",
        "last_record_at": "2026-03-21 00:00:00 UTC",
        "total_7_days": 3.4,
        "total_30_days": 125.0
      }
    },
    {
      "type": "Feature",
      "geometry": {
        "type": "Point",
        "coordinates": [
          -2.433,
          53.583
        ]
      },
      "properties": {
        "id": 1567,
        "location": "Bolton, United Kingdom of Great Britain and Northern Ireland",
        "updated_at": "2026-03-19 20:16:48 UTC",
        "last_record_at": "2026-03-18 00:00:00 UTC",
        "total_7_days": 11.0,
        "total_30_days": 81.0
      }
    },
    {
      "type": "Feature",
      "geometry": {
        "type": "Point",
        "coordinates": [
          24.754,
          42.154
        ]
      },
      "properties": {
        "id": 1825,
        "location": "Plovdiv, Bulgaria",
        "updated_at": "2026-03-19 06:18:05 UTC",
        "last_record_at": "2026-03-18 00:00:00 UTC",
        "total_7_days": 6.6,
        "total_30_days": 41.2
      }
    },
    {
      "type": "Feature",
      "geometry": {
        "type": "Point",
        "coordinates": [
          150.917,
          -31.103
        ]
      },
      "properties": {
        "id": 816,
        "location": "Tamworth, Australia",
        "updated_at": "2026-03-20 05:44:15 UTC",
        "last_record_at": "2026-03-20 00:00:00 UTC",
        "total_7_days": 2.0,
        "total_30_days": 2.0
      }
    },
    {
      "type": "Feature",
      "geometry": {
        "type": "Point",
        "coordinates": [
          30.836,
          -16.783
        ]
      },
      "properties": {
        "id": 1277,
        "location": "Mazowe, Zimbabwe",
        "updated_at": "2026-03-20 07:50:31 UTC",
        "last_record_at": "2026-03-20 00:00:00 UTC",
        "total_7_days": 63.0,
        "total_30_days": 234.0
      }
    },
    {
      "type": "Feature",
      "geometry": {
        "type": "Point",
        "coordinates": [
          "133.000",
          "-27.000"
        ]
      },
      "properties": {
        "id": 669,
        "location": "Ashburton, Australia",
        "updated_at": "2026-03-16 15:10:14 UTC",
        "last_record_at": "2026-03-17 00:00:00 UTC",
        "total_7_days": 0.6,
        "total_30_days": 3.6
      }
    },
    {
      "type": "Feature",
      "geometry": {
        "type": "Point",
        "coordinates": [
          29.607,
          -22.148
        ]
      },
      "properties": {
        "id": 1628,
        "location": "Beitbridge, Zimbabwe",
        "updated_at": "2026-03-17 07:59:30 UTC",
        "last_record_at": "2026-03-17 00:00:00 UTC",
        "total_7_days": 34.0,
        "total_30_days": 185.0
      }
    },
    {
      "type": "Feature",
      "geometry": {
        "type": "Point",
        "coordinates": [
          171.243,
          -44.397
        ]
      },
      "properties": {
        "id": 1763,
        "location": "Timaru, New Zealand",
        "updated_at": "2026-03-10 23:14:49 UTC",
        "last_record_at": "2026-03-09 00:00:00 UTC",
        "total_7_days": 0,
        "total_30_days": 55.0
      }
    },
    {
      "type": "Feature",
      "geometry": {
        "type": "Point",
        "coordinates": [
          24.754,
          42.154
        ]
      },
      "properties": {
        "id": 1824,
        "location": "Plovdiv, Bulgaria",
        "updated_at": "2026-03-19 06:17:14 UTC",
        "last_record_at": "2026-03-18 00:00:00 UTC",
        "total_7_days": 4.4,
        "total_30_days": 38.4
      }
    },
    {
      "type": "Feature",
      "geometry": {
        "type": "Point",
        "coordinates": [
          31.157,
          -25.681
        ]
      },
      "properties": {
        "id": 923,
        "location": "Nelspruit, South Africa",
        "updated_at": "2026-03-19 08:20:02 UTC",
        "last_record_at": "2026-03-19 00:00:00 UTC",
        "total_7_days": 47.0,
        "total_30_days": 136.0
      }
    },
    {
      "type": "Feature",
      "geometry": {
        "type": "Point",
        "coordinates": [
          29.99,
          -22.21
        ]
      },
      "properties": {
        "id": 1899,
        "location": "Beitbridge, Zimbabwe",
        "updated_at": "2026-03-16 05:32:14 UTC",
        "last_record_at": "2026-03-16 00:00:00 UTC",
        "total_7_days": 38.0,
        "total_30_days": 193.0
      }
    },
    {
      "type": "Feature",
      "geometry": {
        "type": "Point",
        "coordinates": [
          133.0,
          -27.0
        ]
      },
      "properties": {
        "id": 1957,
        "location": "Australia",
        "updated_at": "2026-03-16 02:41:18 UTC",
        "last_record_at": "2026-03-16 00:00:00 UTC",
        "total_7_days": 8.0,
        "total_30_days": 69.0
      }
    },
    {
      "type": "Feature",
      "geometry": {
        "type": "Point",
        "coordinates": [
          149.44,
          -35.25
        ]
      },
      "properties": {
        "id": 1928,
        "location": "Canberra, Australia",
        "updated_at": "2026-03-21 04:16:38 UTC",
        "last_record_at": "2026-03-20 00:00:00 UTC",
        "total_7_days": 3.0,
        "total_30_days": 74.7
      }
    },
    {
      "type": "Feature",
      "geometry": {
        "type": "Point",
        "coordinates": [
          149.014,
          -34.626
        ]
      },
      "properties": {
        "id": 475,
        "location": "Blakney Creek",
        "updated_at": "2026-03-20 05:01:02 UTC",
        "last_record_at": "2026-03-19 00:00:00 UTC",
        "total_7_days": 4.0,
        "total_30_days": 59.0
      }
    },
    {
      "type": "Feature",
      "geometry": {
        "type": "Point",
        "coordinates": [
          144.564,
          -37.421
        ]
      },
      "properties": {
        "id": 373,
        "location": "Macedon, Australia",
        "updated_at": "2026-03-17 00:09:56 UTC",
        "last_record_at": "2026-03-17 00:00:00 UTC",
        "total_7_days": 10.0,
        "total_30_days": 126.0
      }
    },
    {
      "type": "Feature",
      "geometry": {
        "type": "Point",
        "coordinates": [
          138.552,
          -34.898
        ]
      },
      "properties": {
        "id": 507,
        "location": "Beverley, Australia",
        "updated_at": "2026-03-16 23:51:40 UTC",
        "last_record_at": "2026-03-17 00:00:00 UTC",
        "total_7_days": 21.0,
        "total_30_days": 54.0
      }
    },
    {
      "type": "Feature",
      "geometry": {
        "type": "Point",
        "coordinates": [
          138.457,
          -35.269
        ]
      },
      "properties": {
        "id": 1568,
        "location": "Adelaide, Australia",
        "updated_at": "2026-03-18 07:00:23 UTC",
        "last_record_at": "2026-03-17 00:00:00 UTC",
        "total_7_days": 7.1,
        "total_30_days": 27.4
      }
    },
    {
      "type": "Feature",
      "geometry": {
        "type": "Point",
        "coordinates": [
          -2.733,
          52.717
        ]
      },
      "properties": {
        "id": 1028,
        "location": "Shrewsbury, United Kingdom of Great Britain and Northern Ireland",
        "updated_at": "2026-03-20 12:12:43 UTC",
        "last_record_at": "2026-03-20 00:00:00 UTC",
        "total_7_days": 6.0,
        "total_30_days": 80.0
      }
    },
    {
      "type": "Feature",
      "geometry": {
        "type": "Point",
        "coordinates": [
          149.585,
          -33.412
        ]
      },
      "properties": {
        "id": 445,
        "location": "Bathurst",
        "updated_at": "2026-03-21 11:12:44 UTC",
        "last_record_at": "2026-03-21 00:00:00 UTC",
        "total_7_days": 15.1,
        "total_30_days": 100.4
      }
    },
    {
      "type": "Feature",
      "geometry": {
        "type": "Point",
        "coordinates": [
          18.435,
          -33.92
        ]
      },
      "properties": {
        "id": 1153,
        "location": "Cape Town, South Africa",
        "updated_at": "2026-03-09 12:38:12 UTC",
        "last_record_at": "2026-03-06 00:00:00 UTC",
        "total_7_days": 0,
        "total_30_days": 13.5
      }
    },
    {
      "type": "Feature",
      "geometry": {
        "type": "Point",
        "coordinates": [
          "133.000",
          "-27.000"
        ]
      },
      "properties": {
        "id": 733,
        "location": "Bundanoon, Australia",
        "updated_at": "2026-03-19 22:11:25 UTC",
        "last_record_at": "2026-03-19 00:00:00 UTC",
        "total_7_days": 53.0,
        "total_30_days": 253.0
      }
    },
    {
      "type": "Feature",
      "geometry": {
        "type": "Point",
        "coordinates": [
          30.97,
          -25.474
        ]
      },
      "properties": {
        "id": 950,
        "location": "Nelspruit, South Africa",
        "updated_at": "2026-03-17 05:03:40 UTC",
        "last_record_at": "2026-03-15 00:00:00 UTC",
        "total_7_days": 8.0,
        "total_30_days": 122.0
      }
    },
    {
      "type": "Feature",
      "geometry": {
        "type": "Point",
        "coordinates": [
          148.791,
          -26.559
        ]
      },
      "properties": {
        "id": 1428,
        "location": "Roma, Australia",
        "updated_at": "2026-03-09 20:34:14 UTC",
        "last_record_at": "2026-03-09 00:00:00 UTC",
        "total_7_days": 0,
        "total_30_days": 158.6
      }
    },
    {
      "type": "Feature",
      "geometry": {
        "type": "Point",
        "coordinates": [
          152.02,
          -28.229
        ]
      },
      "properties": {
        "id": 940,
        "location": "Warwick, Australia",
        "updated_at": "2026-03-20 02:10:07 UTC",
        "last_record_at": "2026-03-19 00:00:00 UTC",
        "total_7_days": 6.0,
        "total_30_days": 6.0
      }
    },
    {
      "type": "Feature",
      "geometry": {
        "type": "Point",
        "coordinates": [
          153.474,
          -28.282
        ]
      },
      "properties": {
        "id": 1167,
        "location": "Australia",
        "updated_at": "2026-03-09 21:09:31 UTC",
        "last_record_at": "2026-03-10 00:00:00 UTC",
        "total_7_days": 0,
        "total_30_days": 150.0
      }
    },
    {
      "type": "Feature",
      "geometry": {
        "type": "Point",
        "coordinates": [
          133.0,
          -27.0
        ]
      },
      "properties": {
        "id": 812,
        "location": "Australia",
        "updated_at": "2026-03-20 08:24:17 UTC",
        "last_record_at": "2026-03-20 00:00:00 UTC",
        "total_7_days": 1.0,
        "total_30_days": 110.0
      }
    },
    {
      "type": "Feature",
      "geometry": {
        "type": "Point",
        "coordinates": [
          150.501,
          -34.076
        ]
      },
      "properties": {
        "id": 1282,
        "location": "Australia",
        "updated_at": "2026-03-19 11:33:10 UTC",
        "last_record_at": "2026-03-19 00:00:00 UTC",
        "total_7_days": 6.0,
        "total_30_days": 99.0
      }
    },
    {
      "type": "Feature",
      "geometry": {
        "type": "Point",
        "coordinates": [
          27.856,
          -26.772
        ]
      },
      "properties": {
        "id": 1496,
        "location": "South Africa",
        "updated_at": "2026-03-21 12:36:48 UTC",
        "last_record_at": "2026-03-21 00:00:00 UTC",
        "total_7_days": 72.0,
        "total_30_days": 183.0
      }
    },
    {
      "type": "Feature",
      "geometry": {
        "type": "Point",
        "coordinates": [
          150.298,
          -34.657
        ]
      },
      "properties": {
        "id": 643,
        "location": "Bundanoon, Australia",
        "updated_at": "2026-03-20 22:07:29 UTC",
        "last_record_at": "2026-03-21 00:00:00 UTC",
        "total_7_days": 44.4,
        "total_30_days": 187.4
      }
    },
    {
      "type": "Feature",
      "geometry": {
        "type": "Point",
        "coordinates": [
          0.0,
          0.0
        ]
      },
      "properties": {
        "id": 653,
        "location": "Marlesford, Woodbridge, England",
        "updated_at": "2026-03-16 12:46:45 UTC",
        "last_record_at": "2026-03-15 00:00:00 UTC",
        "total_7_days": 5.0,
        "total_30_days": 18.0
      }
    },
    {
      "type": "Feature",
      "geometry": {
        "type": "Point",
        "coordinates": [
          -81.805,
          35.344
        ]
      },
      "properties": {
        "id": 1285,
        "location": "United States of America",
        "updated_at": "2026-03-16 21:18:10 UTC",
        "last_record_at": "2026-03-16 00:00:00 UTC",
        "total_7_days": 0.5,
        "total_30_days": 2.87
      }
    },
    {
      "type": "Feature",
      "geometry": {
        "type": "Point",
        "coordinates": [
          140.767,
          -36.316
        ]
      },
      "properties": {
        "id": 1030,
        "location": "Bordertown, Australia",
        "updated_at": "2026-02-28 23:47:13 UTC",
        "last_record_at": "2026-03-01 00:00:00 UTC",
        "total_7_days": 0,
        "total_30_days": 16.6
      }
    },
    {
      "type": "Feature",
      "geometry": {
        "type": "Point",
        "coordinates": [
          152.807,
          -30.611
        ]
      },
      "properties": {
        "id": 619,
        "location": "Argents Hill, Australia",
        "updated_at": "2026-03-21 01:09:22 UTC",
        "last_record_at": "2026-03-20 00:00:00 UTC",
        "total_7_days": 11.3,
        "total_30_days": 86.5
      }
    },
    {
      "type": "Feature",
      "geometry": {
        "type": "Point",
        "coordinates": [
          145.75,
          -16.931
        ]
      },
      "properties": {
        "id": 1146,
        "location": "Cairns, Australia",
        "updated_at": "2026-03-21 00:03:11 UTC",
        "last_record_at": "2026-03-21 00:00:00 UTC",
        "total_7_days": 364.0,
        "total_30_days": 694.0
      }
    },
    {
      "type": "Feature",
      "geometry": {
        "type": "Point",
        "coordinates": [
          152.35,
          -27.459
        ]
      },
      "properties": {
        "id": 129,
        "location": "Spring Creek",
        "updated_at": "2026-03-21 06:16:33 UTC",
        "last_record_at": "2026-03-21 00:00:00 UTC",
        "total_7_days": 18.0,
        "total_30_days": 91.0
      }
    },
    {
      "type": "Feature",
      "geometry": {
        "type": "Point",
        "coordinates": [
          133.0,
          -27.0
        ]
      },
      "properties": {
        "id": 1559,
        "location": "Australia",
        "updated_at": "2026-03-19 02:27:35 UTC",
        "last_record_at": "2026-03-19 00:00:00 UTC",
        "total_7_days": 16.6,
        "total_30_days": 103.4
      }
    },
    {
      "type": "Feature",
      "geometry": {
        "type": "Point",
        "coordinates": [
          27.971,
          -26.166
        ]
      },
      "properties": {
        "id": 776,
        "location": "Johannesburg, South Africa",
        "updated_at": "2026-03-20 06:48:09 UTC",
        "last_record_at": "2026-03-19 00:00:00 UTC",
        "total_7_days": 46.0,
        "total_30_days": 163.0
      }
    },
    {
      "type": "Feature",
      "geometry": {
        "type": "Point",
        "coordinates": [
          138.6,
          -34.935
        ]
      },
      "properties": {
        "id": 1826,
        "location": "Adelaide, Australia",
        "updated_at": "2026-03-16 23:04:54 UTC",
        "last_record_at": "2026-03-16 00:00:00 UTC",
        "total_7_days": 16.0,
        "total_30_days": 44.0
      }
    },
    {
      "type": "Feature",
      "geometry": {
        "type": "Point",
        "coordinates": [
          "133.000",
          "-27.000"
        ]
      },
      "properties": {
        "id": 714,
        "location": "Kersbrook, Australia",
        "updated_at": "2026-03-17 07:37:06 UTC",
        "last_record_at": "2026-03-17 00:00:00 UTC",
        "total_7_days": 22.0,
        "total_30_days": 38.5
      }
    },
    {
      "type": "Feature",
      "geometry": {
        "type": "Point",
        "coordinates": [
          19.031,
          -34.203
        ]
      },
      "properties": {
        "id": 1207,
        "location": "Hermanus, South Africa",
        "updated_at": "2026-03-21 07:28:57 UTC",
        "last_record_at": "2026-03-21 00:00:00 UTC",
        "total_7_days": 9.0,
        "total_30_days": 30.0
      }
    },
    {
      "type": "Feature",
      "geometry": {
        "type": "Point",
        "coordinates": [
          133.0,
          -27.0
        ]
      },
      "properties": {
        "id": 813,
        "location": "Australia",
        "updated_at": "2026-03-20 08:24:08 UTC",
        "last_record_at": "2026-03-20 00:00:00 UTC",
        "total_7_days": 23.0,
        "total_30_days": 114.0
      }
    },
    {
      "type": "Feature",
      "geometry": {
        "type": "Point",
        "coordinates": [
          27.703,
          -26.158
        ]
      },
      "properties": {
        "id": 1126,
        "location": "Johannesburg, South Africa",
        "updated_at": "2026-03-18 21:23:20 UTC",
        "last_record_at": "2026-03-18 00:00:00 UTC",
        "total_7_days": 8.0,
        "total_30_days": 181.0
      }
    },
    {
      "type": "Feature",
      "geometry": {
        "type": "Point",
        "coordinates": [
          152.351,
          -24.879
        ]
      },
      "properties": {
        "id": 947,
        "location": "Bundaberg, Australia",
        "updated_at": "2026-03-16 07:11:51 UTC",
        "last_record_at": "2026-03-14 00:00:00 UTC",
        "total_7_days": 0,
        "total_30_days": 162.0
      }
    },
    {
      "type": "Feature",
      "geometry": {
        "type": "Point",
        "coordinates": [
          -84.423,
          33.763
        ]
      },
      "properties": {
        "id": 1169,
        "location": "Atlanta, United States of America",
        "updated_at": "2026-03-16 23:03:39 UTC",
        "last_record_at": "2026-03-15 00:00:00 UTC",
        "total_7_days": 0.3,
        "total_30_days": 5.0
      }
    },
    {
      "type": "Feature",
      "geometry": {
        "type": "Point",
        "coordinates": [
          146.007,
          -17.808
        ]
      },
      "properties": {
        "id": 59,
        "location": "El arish",
        "updated_at": "2026-03-20 05:21:43 UTC",
        "last_record_at": "2026-03-20 00:00:00 UTC",
        "total_7_days": 165.0,
        "total_30_days": 596.5
      }
    },
    {
      "type": "Feature",
      "geometry": {
        "type": "Point",
        "coordinates": [
          29.806,
          -22.14
        ]
      },
      "properties": {
        "id": 1632,
        "location": "Beitbridge, Zimbabwe",
        "updated_at": "2026-03-16 05:37:12 UTC",
        "last_record_at": "2026-03-16 00:00:00 UTC",
        "total_7_days": 12.0,
        "total_30_days": 86.0
      }
    },
    {
      "type": "Feature",
      "geometry": {
        "type": "Point",
        "coordinates": [
          -3.15,
          58.478
        ]
      },
      "properties": {
        "id": 1759,
        "location": "Inverness, United Kingdom of Great Britain and Northern Ireland",
        "updated_at": "2026-03-21 09:14:33 UTC",
        "last_record_at": "2026-03-21 00:00:00 UTC",
        "total_7_days": 3.2,
        "total_30_days": 35.2
      }
    },
    {
      "type": "Feature",
      "geometry": {
        "type": "Point",
        "coordinates": [
          "133.000",
          "-27.000"
        ]
      },
      "properties": {
        "id": 704,
        "location": "Beechforest, Australia",
        "updated_at": "2026-03-16 20:59:22 UTC",
        "last_record_at": "2026-03-16 00:00:00 UTC",
        "total_7_days": 19.6,
        "total_30_days": 96.0
      }
    },
    {
      "type": "Feature",
      "geometry": {
        "type": "Point",
        "coordinates": [
          152.351,
          -24.879
        ]
      },
      "properties": {
        "id": 948,
        "location": "Bundaberg, Australia",
        "updated_at": "2026-03-08 07:11:44 UTC",
        "last_record_at": "2026-03-08 00:00:00 UTC",
        "total_7_days": 0,
        "total_30_days": 72.5
      }
    },
    {
      "type": "Feature",
      "geometry": {
        "type": "Point",
        "coordinates": [
          130.85,
          -12.425
        ]
      },
      "properties": {
        "id": 1658,
        "location": "Darwin, Australia",
        "updated_at": "2026-03-20 12:54:35 UTC",
        "last_record_at": "2026-03-19 00:00:00 UTC",
        "total_7_days": 31.5,
        "total_30_days": 669.0
      }
    },
    {
      "type": "Feature",
      "geometry": {
        "type": "Point",
        "coordinates": [
          148.444,
          -33.909
        ]
      },
      "properties": {
        "id": 465,
        "location": "Bumbaldry",
        "updated_at": "2026-03-07 06:45:30 UTC",
        "last_record_at": "2026-03-05 00:00:00 UTC",
        "total_7_days": 0,
        "total_30_days": 120.0
      }
    },
    {
      "type": "Feature",
      "geometry": {
        "type": "Point",
        "coordinates": [
          152.787,
          -25.364
        ]
      },
      "properties": {
        "id": 468,
        "location": "Sunshine Acres",
        "updated_at": "2026-03-15 09:15:19 UTC",
        "last_record_at": "2026-03-15 00:00:00 UTC",
        "total_7_days": 3.0,
        "total_30_days": 311.0
      }
    },
    {
      "type": "Feature",
      "geometry": {
        "type": "Point",
        "coordinates": [
          150.786,
          -31.527
        ]
      },
      "properties": {
        "id": 299,
        "location": "Quirindi",
        "updated_at": "2026-03-09 07:13:04 UTC",
        "last_record_at": "2026-03-06 00:00:00 UTC",
        "total_7_days": 0,
        "total_30_days": 43.5
      }
    },
    {
      "type": "Feature",
      "geometry": {
        "type": "Point",
        "coordinates": [
          -3.533,
          55.883
        ]
      },
      "properties": {
        "id": 938,
        "location": "Livingston, United Kingdom of Great Britain and Northern Ireland",
        "updated_at": "2026-03-16 06:42:52 UTC",
        "last_record_at": "2026-03-15 00:00:00 UTC",
        "total_7_days": 8.0,
        "total_30_days": 70.0
      }
    },
    {
      "type": "Feature",
      "geometry": {
        "type": "Point",
        "coordinates": [
          118.78,
          -32.87
        ]
      },
      "properties": {
        "id": 874,
        "location": "Australia",
        "updated_at": "2026-03-14 01:16:41 UTC",
        "last_record_at": "2026-03-14 00:00:00 UTC",
        "total_7_days": 0,
        "total_30_days": 2.5
      }
    },
    {
      "type": "Feature",
      "geometry": {
        "type": "Point",
        "coordinates": [
          150.52,
          -23.364
        ]
      },
      "properties": {
        "id": 1930,
        "location": "Rockhampton, Australia",
        "updated_at": "2026-03-20 10:13:56 UTC",
        "last_record_at": "2026-03-20 00:00:00 UTC",
        "total_7_days": 34.5,
        "total_30_days": 188.5
      }
    },
    {
      "type": "Feature",
      "geometry": {
        "type": "Point",
        "coordinates": [
          29.732,
          -22.113
        ]
      },
      "properties": {
        "id": 1631,
        "location": "Beitbridge, Zimbabwe",
        "updated_at": "2026-03-16 05:37:04 UTC",
        "last_record_at": "2026-03-16 00:00:00 UTC",
        "total_7_days": 12.0,
        "total_30_days": 146.0
      }
    },
    {
      "type": "Feature",
      "geometry": {
        "type": "Point",
        "coordinates": [
          18.472,
          -33.937
        ]
      },
      "properties": {
        "id": 884,
        "location": "Cape Town, South Africa",
        "updated_at": "2026-03-20 14:21:34 UTC",
        "last_record_at": "2026-03-20 00:00:00 UTC",
        "total_7_days": 2.0,
        "total_30_days": 23.0
      }
    },
    {
      "type": "Feature",
      "geometry": {
        "type": "Point",
        "coordinates": [
          151.153,
          -28.629
        ]
      },
      "properties": {
        "id": 486,
        "location": "Brush Creek",
        "updated_at": "2026-03-19 20:08:57 UTC",
        "last_record_at": "2026-03-19 00:00:00 UTC",
        "total_7_days": 1.0,
        "total_30_days": 1.0
      }
    },
    {
      "type": "Feature",
      "geometry": {
        "type": "Point",
        "coordinates": [
          151.946,
          -27.593
        ]
      },
      "properties": {
        "id": 710,
        "location": "Toowoomba, Australia",
        "updated_at": "2026-03-09 00:50:59 UTC",
        "last_record_at": "2026-03-08 00:00:00 UTC",
        "total_7_days": 0,
        "total_30_days": 31.0
      }
    },
    {
      "type": "Feature",
      "geometry": {
        "type": "Point",
        "coordinates": [
          "133.000",
          "-27.000"
        ]
      },
      "properties": {
        "id": 395,
        "location": "Wangandary Upper, Australia",
        "updated_at": "2026-03-19 02:48:26 UTC",
        "last_record_at": "2026-03-19 00:00:00 UTC",
        "total_7_days": 31.0,
        "total_30_days": 127.0
      }
    },
    {
      "type": "Feature",
      "geometry": {
        "type": "Point",
        "coordinates": [
          121.861,
          -33.833
        ]
      },
      "properties": {
        "id": 904,
        "location": "Esperance, Australia",
        "updated_at": "2026-03-20 06:35:44 UTC",
        "last_record_at": "2026-03-20 00:00:00 UTC",
        "total_7_days": 3.2,
        "total_30_days": 26.9
      }
    },
    {
      "type": "Feature",
      "geometry": {
        "type": "Point",
        "coordinates": [
          145.283,
          -38.1
        ]
      },
      "properties": {
        "id": 836,
        "location": "Cranbourne, Australia",
        "updated_at": "2026-03-17 05:25:29 UTC",
        "last_record_at": "2026-03-16 00:00:00 UTC",
        "total_7_days": 19.0,
        "total_30_days": 55.5
      }
    },
    {
      "type": "Feature",
      "geometry": {
        "type": "Point",
        "coordinates": [
          152.462,
          -31.898
        ]
      },
      "properties": {
        "id": 775,
        "location": "Taree, Australia",
        "updated_at": "2026-03-19 21:12:13 UTC",
        "last_record_at": "2026-03-19 00:00:00 UTC",
        "total_7_days": 29.0,
        "total_30_days": 87.0
      }
    },
    {
      "type": "Feature",
      "geometry": {
        "type": "Point",
        "coordinates": [
          18.5,
          -12.5
        ]
      },
      "properties": {
        "id": 1128,
        "location": "Angola",
        "updated_at": "2026-03-03 06:43:40 UTC",
        "last_record_at": "2026-03-02 00:00:00 UTC",
        "total_7_days": 0,
        "total_30_days": 80.0
      }
    },
    {
      "type": "Feature",
      "geometry": {
        "type": "Point",
        "coordinates": [
          144.975,
          -37.82
        ]
      },
      "properties": {
        "id": 1729,
        "location": "Melbourne, Australia",
        "updated_at": "2026-03-17 04:55:45 UTC",
        "last_record_at": "2026-03-16 00:00:00 UTC",
        "total_7_days": 12.5,
        "total_30_days": 47.5
      }
    },
    {
      "type": "Feature",
      "geometry": {
        "type": "Point",
        "coordinates": [
          153.568,
          -28.861
        ]
      },
      "properties": {
        "id": 941,
        "location": "Ballina, Australia",
        "updated_at": "2026-03-20 21:29:59 UTC",
        "last_record_at": "2026-03-20 00:00:00 UTC",
        "total_7_days": 3.5,
        "total_30_days": 249.85
      }
    },
    {
      "type": "Feature",
      "geometry": {
        "type": "Point",
        "coordinates": [
          152.662,
          -26.161
        ]
      },
      "properties": {
        "id": 1727,
        "location": "Gympie, Australia",
        "updated_at": "2026-03-21 08:59:57 UTC",
        "last_record_at": "2026-03-20 00:00:00 UTC",
        "total_7_days": 9.0,
        "total_30_days": 403.0
      }
    },
    {
      "type": "Feature",
      "geometry": {
        "type": "Point",
        "coordinates": [
          25.912,
          -24.646
        ]
      },
      "properties": {
        "id": 833,
        "location": "Gaborone, Botswana",
        "updated_at": "2026-03-06 16:48:24 UTC",
        "last_record_at": "2026-03-06 00:00:00 UTC",
        "total_7_days": 0,
        "total_30_days": 137.0
      }
    },
    {
      "type": "Feature",
      "geometry": {
        "type": "Point",
        "coordinates": [
          147.06,
          -38.11
        ]
      },
      "properties": {
        "id": 911,
        "location": "Sale, Australia",
        "updated_at": "2026-03-17 03:05:27 UTC",
        "last_record_at": "2026-03-17 00:00:00 UTC",
        "total_7_days": 9.0,
        "total_30_days": 90.0
      }
    },
    {
      "type": "Feature",
      "geometry": {
        "type": "Point",
        "coordinates": [
          152.351,
          -24.879
        ]
      },
      "properties": {
        "id": 1931,
        "location": "Bundaberg, Australia",
        "updated_at": "2026-03-21 02:33:22 UTC",
        "last_record_at": "2026-03-20 00:00:00 UTC",
        "total_7_days": 5.0,
        "total_30_days": 311.5
      }
    },
    {
      "type": "Feature",
      "geometry": {
        "type": "Point",
        "coordinates": [
          118.87,
          -32.78
        ]
      },
      "properties": {
        "id": 875,
        "location": "Narrogin, Australia",
        "updated_at": "2026-03-16 08:53:53 UTC",
        "last_record_at": "2026-03-14 00:00:00 UTC",
        "total_7_days": 0,
        "total_30_days": 4.25
      }
    },
    {
      "type": "Feature",
      "geometry": {
        "type": "Point",
        "coordinates": [
          -3.53,
          50.7
        ]
      },
      "properties": {
        "id": 1210,
        "location": "Exeter, United Kingdom of Great Britain and Northern Ireland",
        "updated_at": "2026-03-14 12:26:55 UTC",
        "last_record_at": "2026-03-13 00:00:00 UTC",
        "total_7_days": 0,
        "total_30_days": 68.0
      }
    },
    {
      "type": "Feature",
      "geometry": {
        "type": "Point",
        "coordinates": [
          "133.000",
          "-27.000"
        ]
      },
      "properties": {
        "id": 1792,
        "location": "Australia",
        "updated_at": "2026-03-14 21:27:12 UTC",
        "last_record_at": "2026-03-14 00:00:00 UTC",
        "total_7_days": 0,
        "total_30_days": 194.0
      }
    },
    {
      "type": "Feature",
      "geometry": {
        "type": "Point",
        "coordinates": [
          -97.908,
          38.067
        ]
      },
      "properties": {
        "id": 1326,
        "location": "Hutchinson, United States of America",
        "updated_at": "2026-03-11 13:11:48 UTC",
        "last_record_at": "2026-03-11 00:00:00 UTC",
        "total_7_days": 0,
        "total_30_days": 0.12
      }
    },
    {
      "type": "Feature",
      "geometry": {
        "type": "Point",
        "coordinates": [
          -7.738,
          52.121
        ]
      },
      "properties": {
        "id": 1272,
        "location": "Waterford, Ireland",
        "updated_at": "2026-03-10 16:37:24 UTC",
        "last_record_at": "2026-03-09 00:00:00 UTC",
        "total_7_days": 0,
        "total_30_days": 50.1
      }
    },
    {
      "type": "Feature",
      "geometry": {
        "type": "Point",
        "coordinates": [
          151.953,
          -24.99
        ]
      },
      "properties": {
        "id": 943,
        "location": "Bundaberg, Australia",
        "updated_at": "2026-03-11 22:35:36 UTC",
        "last_record_at": "2026-03-11 00:00:00 UTC",
        "total_7_days": 0,
        "total_30_days": 120.0
      }
    },
    {
      "type": "Feature",
      "geometry": {
        "type": "Point",
        "coordinates": [
          147.592,
          -38.036
        ]
      },
      "properties": {
        "id": 1695,
        "location": "Sale, Australia",
        "updated_at": "2026-03-21 00:22:53 UTC",
        "last_record_at": "2026-03-21 00:00:00 UTC",
        "total_7_days": 13.0,
        "total_30_days": 62.6
      }
    },
    {
      "type": "Feature",
      "geometry": {
        "type": "Point",
        "coordinates": [
          152.95,
          -27.083
        ]
      },
      "properties": {
        "id": 1286,
        "location": "Caboolture, Australia",
        "updated_at": "2026-03-20 22:11:40 UTC",
        "last_record_at": "2026-03-21 00:00:00 UTC",
        "total_7_days": 1.0,
        "total_30_days": 201.0
      }
    },
    {
      "type": "Feature",
      "geometry": {
        "type": "Point",
        "coordinates": [
          151.884,
          -25.246
        ]
      },
      "properties": {
        "id": 944,
        "location": "Bundaberg, Australia",
        "updated_at": "2026-03-08 07:11:32 UTC",
        "last_record_at": "2026-03-07 00:00:00 UTC",
        "total_7_days": 0,
        "total_30_days": 55.0
      }
    },
    {
      "type": "Feature",
      "geometry": {
        "type": "Point",
        "coordinates": [
          27.984,
          -26.011
        ]
      },
      "properties": {
        "id": 1124,
        "location": "Johannesburg, South Africa",
        "updated_at": "2026-03-21 07:55:58 UTC",
        "last_record_at": "2026-03-19 00:00:00 UTC",
        "total_7_days": 57.0,
        "total_30_days": 127.5
      }
    },
    {
      "type": "Feature",
      "geometry": {
        "type": "Point",
        "coordinates": [
          152.919,
          -31.445
        ]
      },
      "properties": {
        "id": 810,
        "location": "Port Macquarie, Australia",
        "updated_at": "2026-03-21 03:39:39 UTC",
        "last_record_at": "2026-03-21 00:00:00 UTC",
        "total_7_days": 16.0,
        "total_30_days": 86.5
      }
    },
    {
      "type": "Feature",
      "geometry": {
        "type": "Point",
        "coordinates": [
          29.99,
          -22.21
        ]
      },
      "properties": {
        "id": 1898,
        "location": "Beitbridge, Zimbabwe",
        "updated_at": "2026-03-16 13:24:56 UTC",
        "last_record_at": "2026-03-16 00:00:00 UTC",
        "total_7_days": 41.8,
        "total_30_days": 187.1
      }
    },
    {
      "type": "Feature",
      "geometry": {
        "type": "Point",
        "coordinates": [
          143.58,
          -38.34
        ]
      },
      "properties": {
        "id": 814,
        "location": "Colac, Australia",
        "updated_at": "2026-03-19 22:48:56 UTC",
        "last_record_at": "2026-03-18 00:00:00 UTC",
        "total_7_days": 22.0,
        "total_30_days": 55.0
      }
    },
    {
      "type": "Feature",
      "geometry": {
        "type": "Point",
        "coordinates": [
          150.485,
          -33.517
        ]
      },
      "properties": {
        "id": 485,
        "location": "Bilpin",
        "updated_at": "2026-03-18 21:41:23 UTC",
        "last_record_at": "2026-03-19 00:00:00 UTC",
        "total_7_days": 2.5,
        "total_30_days": 267.0
      }
    },
    {
      "type": "Feature",
      "geometry": {
        "type": "Point",
        "coordinates": [
          152.95,
          -27.083
        ]
      },
      "properties": {
        "id": 1135,
        "location": "Caboolture, Australia",
        "updated_at": "2026-03-21 03:19:20 UTC",
        "last_record_at": "2026-03-21 00:00:00 UTC",
        "total_7_days": 15.0,
        "total_30_days": 251.5
      }
    },
    {
      "type": "Feature",
      "geometry": {
        "type": "Point",
        "coordinates": [
          174.323,
          -35.726
        ]
      },
      "properties": {
        "id": 1029,
        "location": "Whangarei, New Zealand",
        "updated_at": "2026-03-12 18:33:16 UTC",
        "last_record_at": "2026-03-12 00:00:00 UTC",
        "total_7_days": 0,
        "total_30_days": 30.0
      }
    },
    {
      "type": "Feature",
      "geometry": {
        "type": "Point",
        "coordinates": [
          151.153,
          -28.639
        ]
      },
      "properties": {
        "id": 443,
        "location": "Brush Creek",
        "updated_at": "2026-03-19 20:09:06 UTC",
        "last_record_at": "2026-03-19 00:00:00 UTC",
        "total_7_days": 2.0,
        "total_30_days": 2.0
      }
    },
    {
      "type": "Feature",
      "geometry": {
        "type": "Point",
        "coordinates": [
          146.705,
          -19.378
        ]
      },
      "properties": {
        "id": 1923,
        "location": "Townsville, Australia",
        "updated_at": "2026-03-11 23:23:21 UTC",
        "last_record_at": "2026-03-11 00:00:00 UTC",
        "total_7_days": 0,
        "total_30_days": 197.5
      }
    },
    {
      "type": "Feature",
      "geometry": {
        "type": "Point",
        "coordinates": [
          153.349,
          -28.4
        ]
      },
      "properties": {
        "id": 1143,
        "location": "Australia",
        "updated_at": "2026-03-20 01:30:17 UTC",
        "last_record_at": "2026-03-20 00:00:00 UTC",
        "total_7_days": 10.0,
        "total_30_days": 263.0
      }
    },
    {
      "type": "Feature",
      "geometry": {
        "type": "Point",
        "coordinates": [
          141.433,
          -31.95
        ]
      },
      "properties": {
        "id": 1209,
        "location": "Broken Hill, Australia",
        "updated_at": "2026-03-18 21:38:18 UTC",
        "last_record_at": "2026-03-18 00:00:00 UTC",
        "total_7_days": 19.6,
        "total_30_days": 119.9
      }
    },
    {
      "type": "Feature",
      "geometry": {
        "type": "Point",
        "coordinates": [
          -95.696,
          39.035
        ]
      },
      "properties": {
        "id": 2023,
        "location": "Topeka, United States of America",
        "updated_at": "2026-03-07 16:14:26 UTC",
        "last_record_at": "2026-03-06 00:00:00 UTC",
        "total_7_days": 0,
        "total_30_days": 0.35
      }
    },
    {
      "type": "Feature",
      "geometry": {
        "type": "Point",
        "coordinates": [
          28.346,
          -26.477
        ]
      },
      "properties": {
        "id": 1315,
        "location": "Vereeniging, South Africa",
        "updated_at": "2026-03-15 11:03:35 UTC",
        "last_record_at": "2026-03-14 00:00:00 UTC",
        "total_7_days": 0,
        "total_30_days": 51.0
      }
    },
    {
      "type": "Feature",
      "geometry": {
        "type": "Point",
        "coordinates": [
          152.714,
          -30.335
        ]
      },
      "properties": {
        "id": 1660,
        "location": "Coffs Harbour, Australia",
        "updated_at": "2026-03-21 11:45:45 UTC",
        "last_record_at": "2026-03-21 00:00:00 UTC",
        "total_7_days": 7.0,
        "total_30_days": 146.5
      }
    },
    {
      "type": "Feature",
      "geometry": {
        "type": "Point",
        "coordinates": [
          147.61,
          -37.83
        ]
      },
      "properties": {
        "id": 815,
        "location": "Bairnsdale, Australia",
        "updated_at": "2026-03-16 22:02:21 UTC",
        "last_record_at": "2026-03-16 00:00:00 UTC",
        "total_7_days": 18.0,
        "total_30_days": 74.0
      }
    },
    {
      "type": "Feature",
      "geometry": {
        "type": "Point",
        "coordinates": [
          173.247,
          -41.293
        ]
      },
      "properties": {
        "id": 1070,
        "location": "Nelson, New Zealand",
        "updated_at": "2026-02-15 18:13:29 UTC",
        "last_record_at": "2026-02-16 00:00:00 UTC"
      }
    },
    {
      "type": "Feature",
      "geometry": {
        "type": "Point",
        "coordinates": [
          118.738,
          -32.708
        ]
      },
      "properties": {
        "id": 1301,
        "location": "Australia",
        "updated_at": "2026-02-11 02:20:00 UTC",
        "last_record_at": "2026-02-11 00:00:00 UTC"
      }
    },
    {
      "type": "Feature",
      "geometry": {
        "type": "Point",
        "coordinates": [
          117.098,
          -31.178
        ]
      },
      "properties": {
        "id": 1959,
        "location": "Northam, Australia",
        "updated_at": "2026-02-27 13:28:51 UTC",
        "last_record_at": "2026-02-11 00:00:00 UTC"
      }
    },
    {
      "type": "Feature",
      "geometry": {
        "type": "Point",
        "coordinates": [
          115.882,
          -32.12
        ]
      },
      "properties": {
        "id": 903,
        "location": "Perth, Australia",
        "updated_at": "2026-02-28 03:24:17 UTC",
        "last_record_at": "2026-02-27 00:00:00 UTC",
        "total_7_days": 0,
        "total_30_days": 4.5
      }
    },
    {
      "type": "Feature",
      "geometry": {
        "type": "Point",
        "coordinates": [
          115.705,
          -31.634
        ]
      },
      "properties": {
        "id": 764,
        "location": "Perth, Australia",
        "updated_at": "2026-02-10 09:02:42 UTC",
        "last_record_at": "2026-02-10 00:00:00 UTC"
      }
    },
    {
      "type": "Feature",
      "geometry": {
        "type": "Point",
        "coordinates": [
          119.069,
          -32.731
        ]
      },
      "properties": {
        "id": 1071,
        "location": "Australia",
        "updated_at": "2026-02-11 09:51:33 UTC",
        "last_record_at": "2026-02-11 00:00:00 UTC"
      }
    },
    {
      "type": "Feature",
      "geometry": {
        "type": "Point",
        "coordinates": [
          151.113,
          -29.767
        ]
      },
      "properties": {
        "id": 1291,
        "location": "Inverell, Australia",
        "updated_at": "2026-02-27 21:46:47 UTC",
        "last_record_at": "2026-02-27 00:00:00 UTC",
        "total_7_days": 0,
        "total_30_days": 27.25
      }
    },
    {
      "type": "Feature",
      "geometry": {
        "type": "Point",
        "coordinates": [
          115.349,
          -33.656
        ]
      },
      "properties": {
        "id": 1324,
        "location": "Busselton, Australia",
        "updated_at": "2026-02-15 03:36:52 UTC",
        "last_record_at": "2026-02-15 00:00:00 UTC"
      }
    },
    {
      "type": "Feature",
      "geometry": {
        "type": "Point",
        "coordinates": [
          148.68,
          -33.83
        ]
      },
      "properties": {
        "id": 1566,
        "location": "Cowra, Australia",
        "updated_at": "2026-02-08 02:35:47 UTC",
        "last_record_at": "2026-02-08 00:00:00 UTC"
      }
    },
    {
      "type": "Feature",
      "geometry": {
        "type": "Point",
        "coordinates": [
          26.22,
          -29.078
        ]
      },
      "properties": {
        "id": 768,
        "location": "Bloemfontein, South Africa",
        "updated_at": "2026-02-24 17:37:15 UTC",
        "last_record_at": "2026-02-24 00:00:00 UTC",
        "total_7_days": 0,
        "total_30_days": 80.0
      }
    },
    {
      "type": "Feature",
      "geometry": {
        "type": "Point",
        "coordinates": [
          37.034,
          0.052
        ]
      },
      "properties": {
        "id": 1895,
        "location": "Nanyuki, Kenya",
        "updated_at": "2026-03-21 11:56:07 UTC",
        "last_record_at": "2026-02-26 00:00:00 UTC",
        "total_7_days": 0,
        "total_30_days": 64.0
      }
    },
    {
      "type": "Feature",
      "geometry": {
        "type": "Point",
        "coordinates": [
          115.801,
          -32.035
        ]
      },
      "properties": {
        "id": 571,
        "location": "Melville, Australia",
        "updated_at": "2026-02-26 20:15:38 UTC",
        "last_record_at": "2026-02-27 00:00:00 UTC",
        "total_7_days": 0,
        "total_30_days": 3.5
      }
    },
    {
      "type": "Feature",
      "geometry": {
        "type": "Point",
        "coordinates": [
          "133.000",
          "-27.000"
        ]
      },
      "properties": {
        "id": 748,
        "location": "Bolgart, Australia",
        "updated_at": "2026-02-24 06:26:36 UTC",
        "last_record_at": "2026-02-11 00:00:00 UTC"
      }
    },
    {
      "type": "Feature",
      "geometry": {
        "type": "Point",
        "coordinates": [
          116.653,
          -31.657
        ]
      },
      "properties": {
        "id": 1958,
        "location": "Northam, Australia",
        "updated_at": "2026-03-09 08:59:57 UTC",
        "last_record_at": "2026-02-11 00:00:00 UTC"
      }
    },
    {
      "type": "Feature",
      "geometry": {
        "type": "Point",
        "coordinates": [
          17.084,
          -22.57
        ]
      },
      "properties": {
        "id": 823,
        "location": "Windhoek, Namibia",
        "updated_at": "2026-02-26 19:14:53 UTC",
        "last_record_at": "2026-02-26 00:00:00 UTC",
        "total_7_days": 0,
        "total_30_days": 27.0
      }
    },
    {
      "type": "Feature",
      "geometry": {
        "type": "Point",
        "coordinates": [
          115.84,
          -31.955
        ]
      },
      "properties": {
        "id": 873,
        "location": "Perth, Australia",
        "updated_at": "2026-03-07 13:58:13 UTC",
        "last_record_at": "2026-02-26 00:00:00 UTC",
        "total_7_days": 0,
        "total_30_days": 5.0
      }
    },
    {
      "type": "Feature",
      "geometry": {
        "type": "Point",
        "coordinates": [
          151.94,
          28.9
        ]
      },
      "properties": {
        "id": 370,
        "location": "Wallangarra, Australia",
        "updated_at": "2026-02-15 20:32:43 UTC",
        "last_record_at": "2026-02-15 00:00:00 UTC"
      }
    },
    {
      "type": "Feature",
      "geometry": {
        "type": "Point",
        "coordinates": [
          "133.000",
          "-27.000"
        ]
      },
      "properties": {
        "id": 603,
        "location": "Barragga Bay, Australia",
        "updated_at": "2026-02-15 19:28:38 UTC",
        "last_record_at": "2026-02-16 00:00:00 UTC"
      }
    },
    {
      "type": "Feature",
      "geometry": {
        "type": "Point",
        "coordinates": [
          -0.595,
          44.85
        ]
      },
      "properties": {
        "id": 1926,
        "location": "Bordeaux, France",
        "updated_at": "2026-02-09 08:24:11 UTC",
        "last_record_at": "2026-02-08 00:00:00 UTC"
      }
    },
    {
      "type": "Feature",
      "geometry": {
        "type": "Point",
        "coordinates": [
          28.229,
          -25.707
        ]
      },
      "properties": {
        "id": 1929,
        "location": "Pretoria, South Africa",
        "updated_at": "2026-01-04 12:19:03 UTC",
        "last_record_at": "2026-01-01 00:00:00 UTC"
      }
    },
    {
      "type": "Feature",
      "geometry": {
        "type": "Point",
        "coordinates": [
          "133.000",
          "-27.000"
        ]
      },
      "properties": {
        "id": 555,
        "location": "Williams, Australia",
        "updated_at": "2026-01-03 09:41:22 UTC",
        "last_record_at": "2026-01-03 00:00:00 UTC"
      }
    },
    {
      "type": "Feature",
      "geometry": {
        "type": "Point",
        "coordinates": [
          153.133,
          -26.8
        ]
      },
      "properties": {
        "id": 1289,
        "location": "Caloundra, Australia",
        "updated_at": "2026-02-02 05:04:23 UTC",
        "last_record_at": "2026-01-27 00:00:00 UTC"
      }
    },
    {
      "type": "Feature",
      "geometry": {
        "type": "Point",
        "coordinates": [
          149.264,
          -26.096
        ]
      },
      "properties": {
        "id": 1571,
        "location": "Roma, Australia",
        "updated_at": "2026-01-18 19:18:14 UTC",
        "last_record_at": "2026-01-18 00:00:00 UTC"
      }
    },
    {
      "type": "Feature",
      "geometry": {
        "type": "Point",
        "coordinates": [
          -4.233,
          57.467
        ]
      },
      "properties": {
        "id": 1897,
        "location": "Inverness, United Kingdom of Great Britain and Northern Ireland",
        "updated_at": "2026-01-11 14:17:35 UTC",
        "last_record_at": "2026-01-10 00:00:00 UTC"
      }
    },
    {
      "type": "Feature",
      "geometry": {
        "type": "Point",
        "coordinates": [
          176.854,
          -39.418
        ]
      },
      "properties": {
        "id": 835,
        "location": "Napier, New Zealand",
        "updated_at": "2026-01-13 01:54:04 UTC",
        "last_record_at": "2026-01-04 00:00:00 UTC"
      }
    },
    {
      "type": "Feature",
      "geometry": {
        "type": "Point",
        "coordinates": [
          2.788,
          39.707
        ]
      },
      "properties": {
        "id": 1955,
        "location": "Albacete, Spain",
        "updated_at": "2026-01-25 13:35:42 UTC",
        "last_record_at": "2026-01-25 00:00:00 UTC"
      }
    },
    {
      "type": "Feature",
      "geometry": {
        "type": "Point",
        "coordinates": [
          117.333,
          -35.002
        ]
      },
      "properties": {
        "id": 501,
        "location": "Ocean Beach, Australia",
        "updated_at": "2026-01-30 23:44:29 UTC",
        "last_record_at": "2026-01-30 00:00:00 UTC"
      }
    },
    {
      "type": "Feature",
      "geometry": {
        "type": "Point",
        "coordinates": [
          148.597,
          -32.26
        ]
      },
      "properties": {
        "id": 1925,
        "location": "Dubbo, Australia",
        "updated_at": "2026-01-17 09:33:19 UTC",
        "last_record_at": "2026-01-14 00:00:00 UTC"
      }
    },
    {
      "type": "Feature",
      "geometry": {
        "type": "Point",
        "coordinates": [
          -95.228,
          31.219
        ]
      },
      "properties": {
        "id": 1927,
        "location": "United States of America",
        "updated_at": "2026-01-03 22:33:54 UTC",
        "last_record_at": "2026-01-03 00:00:00 UTC"
      }
    },
    {
      "type": "Feature",
      "geometry": {
        "type": "Point",
        "coordinates": [
          17.71,
          -19.24
        ]
      },
      "properties": {
        "id": 1889,
        "location": "Tsumeb, Namibia",
        "updated_at": "2025-12-12 06:39:27 UTC",
        "last_record_at": "2025-12-11 00:00:00 UTC"
      }
    },
    {
      "type": "Feature",
      "geometry": {
        "type": "Point",
        "coordinates": [
          2.3,
          49.9
        ]
      },
      "properties": {
        "id": 1728,
        "location": "Amiens, France",
        "updated_at": "2025-12-23 18:05:49 UTC",
        "last_record_at": "2025-12-21 00:00:00 UTC"
      }
    },
    {
      "type": "Feature",
      "geometry": {
        "type": "Point",
        "coordinates": [
          17.71,
          -19.24
        ]
      },
      "properties": {
        "id": 1857,
        "location": "Tsumeb, Namibia",
        "updated_at": "2025-12-12 06:39:37 UTC",
        "last_record_at": "2025-12-11 00:00:00 UTC"
      }
    },
    {
      "type": "Feature",
      "geometry": {
        "type": "Point",
        "coordinates": [
          -68.888,
          9.0
        ]
      },
      "properties": {
        "id": 1072,
        "location": "Acarigua, Venezuela (Bolivarian Republic of)",
        "updated_at": "2025-12-08 11:15:18 UTC",
        "last_record_at": "2025-12-07 00:00:00 UTC"
      }
    },
    {
      "type": "Feature",
      "geometry": {
        "type": "Point",
        "coordinates": [
          27.1,
          -26.7
        ]
      },
      "properties": {
        "id": 1856,
        "location": "Potchefstroom, South Africa",
        "updated_at": "2025-12-25 05:26:27 UTC",
        "last_record_at": "2025-12-22 00:00:00 UTC"
      }
    },
    {
      "type": "Feature",
      "geometry": {
        "type": "Point",
        "coordinates": [
          138.617,
          -33.343
        ]
      },
      "properties": {
        "id": 1956,
        "location": "Australia",
        "updated_at": "2026-01-26 08:23:25 UTC",
        "last_record_at": "2025-12-01 00:00:00 UTC"
      }
    },
    {
      "type": "Feature",
      "geometry": {
        "type": "Point",
        "coordinates": [
          152.755,
          -26.37
        ]
      },
      "properties": {
        "id": 209,
        "location": "Coles Creek, Australia",
        "updated_at": "2026-01-06 00:41:57 UTC",
        "last_record_at": "2025-12-31 00:00:00 UTC"
      }
    },
    {
      "type": "Feature",
      "geometry": {
        "type": "Point",
        "coordinates": [
          145.681,
          -17.557
        ]
      },
      "properties": {
        "id": 1137,
        "location": "Innisfail, Australia",
        "updated_at": "2026-01-01 03:35:13 UTC",
        "last_record_at": "2025-12-31 00:00:00 UTC"
      }
    },
    {
      "type": "Feature",
      "geometry": {
        "type": "Point",
        "coordinates": [
          152.839,
          -26.389
        ]
      },
      "properties": {
        "id": 1569,
        "location": "Gympie, Australia",
        "updated_at": "2026-03-17 05:35:09 UTC",
        "last_record_at": "2025-12-31 00:00:00 UTC"
      }
    },
    {
      "type": "Feature",
      "geometry": {
        "type": "Point",
        "coordinates": [
          -105.33,
          40.849
        ]
      },
      "properties": {
        "id": 1924,
        "location": "Fort Collins, United States of America",
        "updated_at": "2025-12-29 19:50:19 UTC",
        "last_record_at": "2025-12-20 00:00:00 UTC"
      }
    },
    {
      "type": "Feature",
      "geometry": {
        "type": "Point",
        "coordinates": [
          -85.86,
          11.25
        ]
      },
      "properties": {
        "id": 1249,
        "location": "San Juan del Sur, Nicaragua",
        "updated_at": "2025-12-23 14:07:47 UTC",
        "last_record_at": "2025-12-22 00:00:00 UTC"
      }
    },
    {
      "type": "Feature",
      "geometry": {
        "type": "Point",
        "coordinates": [
          149.15,
          -21.144
        ]
      },
      "properties": {
        "id": 1901,
        "location": "Mackay, Australia",
        "updated_at": "2025-12-25 01:58:44 UTC",
        "last_record_at": "2025-12-25 00:00:00 UTC"
      }
    },
    {
      "type": "Feature",
      "geometry": {
        "type": "Point",
        "coordinates": [
          152.784,
          -26.592
        ]
      },
      "properties": {
        "id": 453,
        "location": "Coolabine",
        "updated_at": "2026-01-07 07:15:26 UTC",
        "last_record_at": "2025-12-31 00:00:00 UTC"
      }
    },
    {
      "type": "Feature",
      "geometry": {
        "type": "Point",
        "coordinates": [
          115.747,
          -32.523
        ]
      },
      "properties": {
        "id": 1118,
        "location": "Mandurah, Australia",
        "updated_at": "2025-11-25 06:11:01 UTC",
        "last_record_at": "2025-11-23 00:00:00 UTC"
      }
    },
    {
      "type": "Feature",
      "geometry": {
        "type": "Point",
        "coordinates": [
          150.469,
          -33.726
        ]
      },
      "properties": {
        "id": 720,
        "location": "Hazelbrook, Australia",
        "updated_at": "2025-11-27 22:41:51 UTC",
        "last_record_at": "2025-11-26 00:00:00 UTC"
      }
    },
    {
      "type": "Feature",
      "geometry": {
        "type": "Point",
        "coordinates": [
          "133.000",
          "-27.000"
        ]
      },
      "properties": {
        "id": 563,
        "location": "St Morris, Australia",
        "updated_at": "2026-01-07 05:37:05 UTC",
        "last_record_at": "2025-11-30 00:00:00 UTC"
      }
    },
    {
      "type": "Feature",
      "geometry": {
        "type": "Point",
        "coordinates": [
          80.74,
          16.08
        ]
      },
      "properties": {
        "id": 1077,
        "location": "Guntur, India",
        "updated_at": "2025-11-30 05:09:57 UTC",
        "last_record_at": "2025-11-30 00:00:00 UTC"
      }
    },
    {
      "type": "Feature",
      "geometry": {
        "type": "Point",
        "coordinates": [
          28.356,
          -17.134
        ]
      },
      "properties": {
        "id": 1893,
        "location": "Kariba, Zimbabwe",
        "updated_at": "2025-11-26 08:59:29 UTC",
        "last_record_at": "2025-11-26 00:00:00 UTC"
      }
    },
    {
      "type": "Feature",
      "geometry": {
        "type": "Point",
        "coordinates": [
          -0.883,
          52.25
        ]
      },
      "properties": {
        "id": 830,
        "location": "Northampton, United Kingdom of Great Britain and Northern Ireland",
        "updated_at": "2025-11-15 16:04:29 UTC",
        "last_record_at": "2025-11-14 00:00:00 UTC"
      }
    },
    {
      "type": "Feature",
      "geometry": {
        "type": "Point",
        "coordinates": [
          138.6,
          -34.935
        ]
      },
      "properties": {
        "id": 1791,
        "location": "Adelaide, Australia",
        "updated_at": "2025-11-30 00:29:23 UTC",
        "last_record_at": "2025-11-28 00:00:00 UTC"
      }
    },
    {
      "type": "Feature",
      "geometry": {
        "type": "Point",
        "coordinates": [
          -5.801,
          57.374
        ]
      },
      "properties": {
        "id": 1119,
        "location": "Stirling, United Kingdom of Great Britain and Northern Ireland",
        "updated_at": "2025-11-24 12:47:23 UTC",
        "last_record_at": "2025-11-23 00:00:00 UTC"
      }
    },
    {
      "type": "Feature",
      "geometry": {
        "type": "Point",
        "coordinates": [
          -100.518,
          31.411
        ]
      },
      "properties": {
        "id": 586,
        "location": "Early, United states",
        "updated_at": "2026-02-14 23:24:29 UTC",
        "last_record_at": "2025-11-28 00:00:00 UTC"
      }
    },
    {
      "type": "Feature",
      "geometry": {
        "type": "Point",
        "coordinates": [
          152.938,
          -29.712
        ]
      },
      "properties": {
        "id": 1317,
        "location": "Grafton, Australia",
        "updated_at": "2025-09-03 06:56:21 UTC",
        "last_record_at": "2025-09-03 00:00:00 UTC"
      }
    },
    {
      "type": "Feature",
      "geometry": {
        "type": "Point",
        "coordinates": [
          150.917,
          -31.103
        ]
      },
      "properties": {
        "id": 1790,
        "location": "Tamworth, Australia",
        "updated_at": "2025-08-21 22:34:27 UTC",
        "last_record_at": "2025-08-22 00:00:00 UTC"
      }
    },
    {
      "type": "Feature",
      "geometry": {
        "type": "Point",
        "coordinates": [
          133.0,
          -27.0
        ]
      },
      "properties": {
        "id": 1132,
        "location": "Australia",
        "updated_at": "2025-08-13 22:13:02 UTC",
        "last_record_at": "2025-08-13 00:00:00 UTC"
      }
    },
    {
      "type": "Feature",
      "geometry": {
        "type": "Point",
        "coordinates": [
          -93.639,
          41.732
        ]
      },
      "properties": {
        "id": 1726,
        "location": "Ankeny, United States of America",
        "updated_at": "2025-08-16 23:01:43 UTC",
        "last_record_at": "2025-08-12 00:00:00 UTC"
      }
    },
    {
      "type": "Feature",
      "geometry": {
        "type": "Point",
        "coordinates": [
          121.889,
          -33.857
        ]
      },
      "properties": {
        "id": 1764,
        "location": "Esperance, Australia",
        "updated_at": "2025-08-03 03:32:24 UTC",
        "last_record_at": "2025-08-03 00:00:00 UTC"
      }
    },
    {
      "type": "Feature",
      "geometry": {
        "type": "Point",
        "coordinates": [
          151.139,
          -33.824
        ]
      },
      "properties": {
        "id": 487,
        "location": "Hunters Hill",
        "updated_at": "2025-08-18 22:19:10 UTC",
        "last_record_at": "2025-08-18 00:00:00 UTC"
      }
    },
    {
      "type": "Feature",
      "geometry": {
        "type": "Point",
        "coordinates": [
          117.811,
          -32.414
        ]
      },
      "properties": {
        "id": 1760,
        "location": "Narrogin, Australia",
        "updated_at": "2025-07-04 19:53:42 UTC",
        "last_record_at": "2025-07-04 00:00:00 UTC"
      }
    },
    {
      "type": "Feature",
      "geometry": {
        "type": "Point",
        "coordinates": [
          -0.449,
          39.453
        ]
      },
      "properties": {
        "id": 1765,
        "location": "Valencia, Spain",
        "updated_at": "2025-07-25 12:28:53 UTC",
        "last_record_at": "2025-07-01 00:00:00 UTC"
      }
    },
    {
      "type": "Feature",
      "geometry": {
        "type": "Point",
        "coordinates": [
          -93.195,
          47.454
        ]
      },
      "properties": {
        "id": 1761,
        "location": "United States of America",
        "updated_at": "2025-07-29 02:05:25 UTC",
        "last_record_at": "2025-07-27 00:00:00 UTC"
      }
    }
  ]
}