{
  "type": "FeatureCollection",
  "features": [
    {
      "type": "Feature",
      "geometry": {
        "type": "Point",
        "coordinates": [
          133.333,
          -26.974
        ]
      },
      "properties": {
        "id": 730,
        "title": "Fat Goat farm",
        "location": "Noman's Lake, WA",
        "total_7_days": 14.0,
        "total_30_days": 34.5
      }
    },
    {
      "type": "Feature",
      "geometry": {
        "type": "Point",
        "coordinates": [
          152.423,
          -24.78
        ]
      },
      "properties": {
        "id": 713,
        "title": "Pete's place, Ocean St (North).",
        "location": "Burnett Heads, QLD",
        "total_7_days": 0,
        "total_30_days": 21.5
      }
    },
    {
      "type": "Feature",
      "geometry": {
        "type": "Point",
        "coordinates": [
          133.333,
          -26.974
        ]
      },
      "properties": {
        "id": 726,
        "title": "Ballagin",
        "location": "Wagin, WA",
        "total_7_days": 18.0,
        "total_30_days": 52.0
      }
    },
    {
      "type": "Feature",
      "geometry": {
        "type": "Point",
        "coordinates": [
          148.612,
          -32.296
        ]
      },
      "properties": {
        "id": 225,
        "title": "Tannermount Rain Gauge",
        "location": "Dubbo, NSW",
        "total_7_days": 0,
        "total_30_days": 98.0
      }
    },
    {
      "type": "Feature",
      "geometry": {
        "type": "Point",
        "coordinates": [
          133.333,
          -26.974
        ]
      },
      "properties": {
        "id": 696,
        "title": "Rain1",
        "location": "Caldera , Panama",
        "total_7_days": 158.0,
        "total_30_days": 514.0
      }
    },
    {
      "type": "Feature",
      "geometry": {
        "type": "Point",
        "coordinates": [
          133.333,
          -26.974
        ]
      },
      "properties": {
        "id": 704,
        "title": "BF Depot",
        "location": "Beechforest, VIC",
        "total_7_days": 39.0,
        "total_30_days": 118.0
      }
    },
    {
      "type": "Feature",
      "geometry": {
        "type": "Point",
        "coordinates": [
          152.787,
          -25.364
        ]
      },
      "properties": {
        "id": 468,
        "title": "Moorabinda drive",
        "location": "Sunshine Acres, QLD",
        "total_7_days": 2.0,
        "total_30_days": 81.0
      }
    },
    {
      "type": "Feature",
      "geometry": {
        "type": "Point",
        "coordinates": [
          133.333,
          -26.974
        ]
      },
      "properties": {
        "id": 603,
        "title": "Barragga Bay",
        "location": "Barragga Bay, NSW",
        "total_7_days": 1.5,
        "total_30_days": 300.7
      }
    },
    {
      "type": "Feature",
      "geometry": {
        "type": "Point",
        "coordinates": [
          152.953,
          -27.455
        ]
      },
      "properties": {
        "id": 38,
        "title": "Jim's rain guage",
        "location": "The Gap, QLD",
        "total_7_days": 0,
        "total_30_days": 53.0
      }
    },
    {
      "type": "Feature",
      "geometry": {
        "type": "Point",
        "coordinates": [
          152.807,
          -30.611
        ]
      },
      "properties": {
        "id": 619,
        "title": "Windy Hill",
        "location": "Argents Hill, NSW",
        "total_7_days": 0,
        "total_30_days": 57.5
      }
    },
    {
      "type": "Feature",
      "geometry": {
        "type": "Point",
        "coordinates": [
          141.608,
          -38.132
        ]
      },
      "properties": {
        "id": 152,
        "title": "Kerlie Park",
        "location": "Heywood, VIC",
        "total_7_days": 14.25,
        "total_30_days": 48.25
      }
    },
    {
      "type": "Feature",
      "geometry": {
        "type": "Point",
        "coordinates": [
          150.569,
          -33.726
        ]
      },
      "properties": {
        "id": 720,
        "title": "Hazelbrook",
        "location": "Hazelbrook, NSW",
        "total_7_days": 0,
        "total_30_days": 132.75
      }
    },
    {
      "type": "Feature",
      "geometry": {
        "type": "Point",
        "coordinates": [
          133.333,
          -26.974
        ]
      },
      "properties": {
        "id": 638,
        "title": "Highfield at Oldbury Rd",
        "location": "Sutton Forest, NSW",
        "total_7_days": 0,
        "total_30_days": 192.0
      }
    },
    {
      "type": "Feature",
      "geometry": {
        "type": "Point",
        "coordinates": [
          133.333,
          -26.974
        ]
      },
      "properties": {
        "id": 742,
        "title": "Ms",
        "location": "Sunshine Acres, Queensland ",
        "total_7_days": 0,
        "total_30_days": 60.0
      }
    },
    {
      "type": "Feature",
      "geometry": {
        "type": "Point",
        "coordinates": [
          151.94,
          28.9
        ]
      },
      "properties": {
        "id": 370,
        "title": "Simjojims Rain Gauge",
        "location": "Wallangarra, QLD",
        "total_7_days": 7.0,
        "total_30_days": 37.0
      }
    },
    {
      "type": "Feature",
      "geometry": {
        "type": "Point",
        "coordinates": [
          152.751,
          -26.691
        ]
      },
      "properties": {
        "id": 476,
        "title": "Donovans Knob",
        "location": "Curramore, QLD",
        "total_7_days": 0,
        "total_30_days": 47.0
      }
    },
    {
      "type": "Feature",
      "geometry": {
        "type": "Point",
        "coordinates": [
          115.801,
          -32.036
        ]
      },
      "properties": {
        "id": 571,
        "title": "Keith 6156",
        "location": "Melville, WA",
        "total_7_days": 12.0,
        "total_30_days": 87.5
      }
    },
    {
      "type": "Feature",
      "geometry": {
        "type": "Point",
        "coordinates": [
          176.887,
          -39.513
        ]
      },
      "properties": {
        "id": 325,
        "title": "Napier Rainfall",
        "location": "Napier",
        "total_7_days": 0,
        "total_30_days": 56.0
      }
    },
    {
      "type": "Feature",
      "geometry": {
        "type": "Point",
        "coordinates": [
          133.333,
          -26.974
        ]
      },
      "properties": {
        "id": 554,
        "title": "Rendezvous Road",
        "location": "Busselton, WA",
        "total_7_days": 17.0,
        "total_30_days": 83.0
      }
    },
    {
      "type": "Feature",
      "geometry": {
        "type": "Point",
        "coordinates": [
          133.333,
          -26.974
        ]
      },
      "properties": {
        "id": 681,
        "title": "Garden Drive - Rain Gauge",
        "location": "Urangan. Hervey Bay, QLD",
        "total_7_days": 0,
        "total_30_days": 36.0
      }
    },
    {
      "type": "Feature",
      "geometry": {
        "type": "Point",
        "coordinates": [
          117.333,
          -35.002
        ]
      },
      "properties": {
        "id": 501,
        "title": "My Readings",
        "location": "Ocean Beach, WA",
        "total_7_days": 93.0,
        "total_30_days": 217.0
      }
    },
    {
      "type": "Feature",
      "geometry": {
        "type": "Point",
        "coordinates": [
          133.333,
          -26.974
        ]
      },
      "properties": {
        "id": 644,
        "title": "Willows Kirwan",
        "location": "Kirwan, QLD",
        "total_7_days": 0,
        "total_30_days": 35.06
      }
    },
    {
      "type": "Feature",
      "geometry": {
        "type": "Point",
        "coordinates": [
          133.333,
          -26.974
        ]
      },
      "properties": {
        "id": 669,
        "title": "Taylor St (Auto)",
        "location": "Ashburton, VIC",
        "total_7_days": 7.5,
        "total_30_days": 14.1
      }
    },
    {
      "type": "Feature",
      "geometry": {
        "type": "Point",
        "coordinates": [
          133.333,
          -26.974
        ]
      },
      "properties": {
        "id": 710,
        "title": "Jen",
        "location": "Toowoomba, QLD",
        "total_7_days": 0,
        "total_30_days": 30.0
      }
    },
    {
      "type": "Feature",
      "geometry": {
        "type": "Point",
        "coordinates": [
          133.333,
          -26.974
        ]
      },
      "properties": {
        "id": 515,
        "title": "57",
        "location": "Blackbutt, QLD",
        "total_7_days": 0,
        "total_30_days": 25.5
      }
    },
    {
      "type": "Feature",
      "geometry": {
        "type": "Point",
        "coordinates": [
          150.786,
          -31.527
        ]
      },
      "properties": {
        "id": 299,
        "title": "Wallabadah Rd  Quirindi",
        "location": "Quirindi, NSW",
        "total_7_days": 0,
        "total_30_days": 75.5
      }
    },
    {
      "type": "Feature",
      "geometry": {
        "type": "Point",
        "coordinates": [
          145.311,
          -37.805
        ]
      },
      "properties": {
        "id": 122,
        "title": "Kilsyth ",
        "location": "Kilsyth, Yarra Ranges, VIC",
        "total_7_days": 24.0,
        "total_30_days": 39.0
      }
    },
    {
      "type": "Feature",
      "geometry": {
        "type": "Point",
        "coordinates": [
          133.333,
          -26.974
        ]
      },
      "properties": {
        "id": 608,
        "title": "44 Grays Point",
        "location": "Grays Point, NSW",
        "total_7_days": 0,
        "total_30_days": 137.0
      }
    },
    {
      "type": "Feature",
      "geometry": {
        "type": "Point",
        "coordinates": [
          133.333,
          -26.974
        ]
      },
      "properties": {
        "id": 728,
        "title": "Hillside",
        "location": "Wagin, WA",
        "total_7_days": 0,
        "total_30_days": 15.0
      }
    },
    {
      "type": "Feature",
      "geometry": {
        "type": "Point",
        "coordinates": [
          172.867,
          -43.691
        ]
      },
      "properties": {
        "id": 721,
        "title": "Korimako Reserve",
        "location": "Akaroa, Canterbury ",
        "total_7_days": 0,
        "total_30_days": 27.3
      }
    },
    {
      "type": "Feature",
      "geometry": {
        "type": "Point",
        "coordinates": [
          133.333,
          -26.974
        ]
      },
      "properties": {
        "id": 668,
        "title": "Taylor St",
        "location": "Ashburton, VIC",
        "total_7_days": 18.0,
        "total_30_days": 36.0
      }
    },
    {
      "type": "Feature",
      "geometry": {
        "type": "Point",
        "coordinates": [
          150.298,
          -34.657
        ]
      },
      "properties": {
        "id": 643,
        "title": "Bundanoon Anglican Church",
        "location": "Bundanoon, NSW",
        "total_7_days": 3.0,
        "total_30_days": 207.0
      }
    },
    {
      "type": "Feature",
      "geometry": {
        "type": "Point",
        "coordinates": [
          133.333,
          -26.974
        ]
      },
      "properties": {
        "id": 652,
        "title": "Awatahi",
        "location": "Hikuai",
        "total_7_days": 40.0,
        "total_30_days": 500.0
      }
    },
    {
      "type": "Feature",
      "geometry": {
        "type": "Point",
        "coordinates": [
          148.444,
          -33.909
        ]
      },
      "properties": {
        "id": 465,
        "title": "Rubyvale",
        "location": "Bumbaldry, NSW",
        "total_7_days": 24.0,
        "total_30_days": 113.0
      }
    },
    {
      "type": "Feature",
      "geometry": {
        "type": "Point",
        "coordinates": [
          150.485,
          -33.517
        ]
      },
      "properties": {
        "id": 485,
        "title": "Noonameena",
        "location": "Bilpin, NSW",
        "total_7_days": 0,
        "total_30_days": 103.0
      }
    },
    {
      "type": "Feature",
      "geometry": {
        "type": "Point",
        "coordinates": [
          133.333,
          -26.974
        ]
      },
      "properties": {
        "id": 518,
        "title": "Debbie's rain gauge",
        "location": "Tolaga Bay",
        "total_7_days": 13.4,
        "total_30_days": 366.7
      }
    },
    {
      "type": "Feature",
      "geometry": {
        "type": "Point",
        "coordinates": [
          146.007,
          -17.808
        ]
      },
      "properties": {
        "id": 59,
        "title": "El Arish Rain",
        "location": "El Arish, QLD",
        "total_7_days": 72.0,
        "total_30_days": 119.0
      }
    },
    {
      "type": "Feature",
      "geometry": {
        "type": "Point",
        "coordinates": [
          115.878,
          -32.049
        ]
      },
      "properties": {
        "id": 138,
        "title": "Willetton WA",
        "location": "Willetton, WA",
        "total_7_days": 13.1,
        "total_30_days": 82.4
      }
    },
    {
      "type": "Feature",
      "geometry": {
        "type": "Point",
        "coordinates": [
          133.333,
          -26.974
        ]
      },
      "properties": {
        "id": 653,
        "title": "Quoit House",
        "location": "Marlesford, Woodbridge ",
        "total_7_days": 7.0,
        "total_30_days": 26.0
      }
    }
  ]
}