{
  "type": "FeatureCollection",
  "features": [
    {
      "type": "Feature",
      "geometry": {
        "type": "Point",
        "coordinates": [
          150.469,
          -33.726
        ]
      },
      "properties": {
        "id": 720,
        "location": "Hazelbrook, Australia",
        "updated_at": "2024-01-31 23:42:40 UTC",
        "last_record_at": "2024-02-01 00:00:00 UTC",
        "total_7_days": 21.5,
        "total_30_days": 203.5
      }
    },
    {
      "type": "Feature",
      "geometry": {
        "type": "Point",
        "coordinates": [
          150.485,
          -33.517
        ]
      },
      "properties": {
        "id": 485,
        "location": "Bilpin",
        "updated_at": "2024-01-31 21:00:04 UTC",
        "last_record_at": "2024-02-01 00:00:00 UTC",
        "total_7_days": 35.5,
        "total_30_days": 262.5
      }
    },
    {
      "type": "Feature",
      "geometry": {
        "type": "Point",
        "coordinates": [
          145.75,
          -16.931
        ]
      },
      "properties": {
        "id": 1146,
        "location": "Cairns, Australia",
        "updated_at": "2024-01-31 23:37:13 UTC",
        "last_record_at": "2024-02-01 00:00:00 UTC",
        "total_7_days": 23.0,
        "total_30_days": 605.0
      }
    },
    {
      "type": "Feature",
      "geometry": {
        "type": "Point",
        "coordinates": [
          150.298,
          -34.657
        ]
      },
      "properties": {
        "id": 643,
        "location": "Bundanoon, Australia",
        "updated_at": "2024-01-31 21:17:50 UTC",
        "last_record_at": "2024-02-01 00:00:00 UTC",
        "total_7_days": 11.0,
        "total_30_days": 122.2
      }
    },
    {
      "type": "Feature",
      "geometry": {
        "type": "Point",
        "coordinates": [
          121.861,
          -33.833
        ]
      },
      "properties": {
        "id": 904,
        "location": "Esperance, Australia",
        "updated_at": "2024-02-01 03:58:44 UTC",
        "last_record_at": "2024-02-01 00:00:00 UTC",
        "total_7_days": 0.0,
        "total_30_days": 17.5
      }
    },
    {
      "type": "Feature",
      "geometry": {
        "type": "Point",
        "coordinates": [
          -5.801,
          57.374
        ]
      },
      "properties": {
        "id": 1119,
        "location": "Stirling, United Kingdom of Great Britain and Northern Ireland",
        "updated_at": "2024-02-01 10:16:24 UTC",
        "last_record_at": "2024-02-01 00:00:00 UTC",
        "total_7_days": 49.2,
        "total_30_days": 185.6
      }
    },
    {
      "type": "Feature",
      "geometry": {
        "type": "Point",
        "coordinates": [
          153.396,
          -28.119
        ]
      },
      "properties": {
        "id": 936,
        "location": "Gold Coast, Australia",
        "updated_at": "2024-01-31 20:49:50 UTC",
        "last_record_at": "2024-02-01 00:00:00 UTC",
        "total_7_days": 32.5,
        "total_30_days": 258.5
      }
    },
    {
      "type": "Feature",
      "geometry": {
        "type": "Point",
        "coordinates": [
          144.93,
          -17.345
        ]
      },
      "properties": {
        "id": 818,
        "location": "Atherton, Australia",
        "updated_at": "2024-01-31 20:27:08 UTC",
        "last_record_at": "2024-02-01 00:00:00 UTC",
        "total_7_days": 89.0,
        "total_30_days": 781.0
      }
    },
    {
      "type": "Feature",
      "geometry": {
        "type": "Point",
        "coordinates": [
          146.007,
          -17.808
        ]
      },
      "properties": {
        "id": 59,
        "location": "El arish",
        "updated_at": "2024-02-01 05:05:56 UTC",
        "last_record_at": "2024-02-01 00:00:00 UTC",
        "total_7_days": 67.0,
        "total_30_days": 720.0
      }
    },
    {
      "type": "Feature",
      "geometry": {
        "type": "Point",
        "coordinates": [
          144.25,
          -23.45
        ]
      },
      "properties": {
        "id": 1163,
        "location": "Longreach, Australia",
        "updated_at": "2024-01-30 00:06:58 UTC",
        "last_record_at": "2024-01-28 00:00:00 UTC",
        "total_7_days": 40.0,
        "total_30_days": 87.0
      }
    },
    {
      "type": "Feature",
      "geometry": {
        "type": "Point",
        "coordinates": [
          174.323,
          -35.726
        ]
      },
      "properties": {
        "id": 1029,
        "location": "Whangarei, New Zealand",
        "updated_at": "2024-01-30 08:02:24 UTC",
        "last_record_at": "2024-01-29 00:00:00 UTC",
        "total_7_days": 8.0,
        "total_30_days": 43.0
      }
    },
    {
      "type": "Feature",
      "geometry": {
        "type": "Point",
        "coordinates": [
          174.763,
          -36.848
        ]
      },
      "properties": {
        "id": 767,
        "location": "Auckland, New Zealand",
        "updated_at": "2024-01-28 21:44:09 UTC",
        "last_record_at": "2024-01-29 00:00:00 UTC",
        "total_7_days": 21.0,
        "total_30_days": 31.0
      }
    },
    {
      "type": "Feature",
      "geometry": {
        "type": "Point",
        "coordinates": [
          -2.733,
          52.717
        ]
      },
      "properties": {
        "id": 1028,
        "location": "Shrewsbury, United Kingdom of Great Britain and Northern Ireland",
        "updated_at": "2024-01-30 19:02:40 UTC",
        "last_record_at": "2024-01-30 00:00:00 UTC",
        "total_7_days": 9.0,
        "total_30_days": 105.0
      }
    },
    {
      "type": "Feature",
      "geometry": {
        "type": "Point",
        "coordinates": [
          118.87,
          -32.78
        ]
      },
      "properties": {
        "id": 875,
        "location": "Narrogin, Australia",
        "updated_at": "2024-01-12 02:46:01 UTC",
        "last_record_at": "2024-01-12 00:00:00 UTC",
        "total_7_days": 0,
        "total_30_days": 9.0
      }
    },
    {
      "type": "Feature",
      "geometry": {
        "type": "Point",
        "coordinates": [
          144.25,
          -23.45
        ]
      },
      "properties": {
        "id": 1157,
        "location": "Longreach, Australia",
        "updated_at": "2024-01-28 10:06:46 UTC",
        "last_record_at": "2024-01-28 00:00:00 UTC",
        "total_7_days": 50.0,
        "total_30_days": 86.0
      }
    },
    {
      "type": "Feature",
      "geometry": {
        "type": "Point",
        "coordinates": [
          153.035,
          -27.455
        ]
      },
      "properties": {
        "id": 888,
        "location": "Brisbane, Australia",
        "updated_at": "2024-01-31 06:16:20 UTC",
        "last_record_at": "2024-01-31 00:00:00 UTC",
        "total_7_days": 103.0,
        "total_30_days": 115.5
      }
    },
    {
      "type": "Feature",
      "geometry": {
        "type": "Point",
        "coordinates": [
          "133.000",
          "-27.000"
        ]
      },
      "properties": {
        "id": 668,
        "location": "Ashburton, Australia",
        "updated_at": "2024-01-25 22:53:08 UTC",
        "last_record_at": "2024-01-26 00:00:00 UTC",
        "total_7_days": 7.5,
        "total_30_days": 120.5
      }
    },
    {
      "type": "Feature",
      "geometry": {
        "type": "Point",
        "coordinates": [
          152.462,
          -31.898
        ]
      },
      "properties": {
        "id": 775,
        "location": "Taree, Australia",
        "updated_at": "2024-01-31 22:01:58 UTC",
        "last_record_at": "2024-01-31 00:00:00 UTC",
        "total_7_days": 3.0,
        "total_30_days": 76.0
      }
    },
    {
      "type": "Feature",
      "geometry": {
        "type": "Point",
        "coordinates": [
          151.153,
          -28.629
        ]
      },
      "properties": {
        "id": 486,
        "location": "Brush Creek",
        "updated_at": "2024-01-29 22:04:43 UTC",
        "last_record_at": "2024-01-29 00:00:00 UTC",
        "total_7_days": 30.5,
        "total_30_days": 124.0
      }
    },
    {
      "type": "Feature",
      "geometry": {
        "type": "Point",
        "coordinates": [
          "133.000",
          "-27.000"
        ]
      },
      "properties": {
        "id": 712,
        "location": "Kenton Valley, Australia",
        "updated_at": "2024-01-30 04:39:34 UTC",
        "last_record_at": "2024-01-24 00:00:00 UTC",
        "total_7_days": 0,
        "total_30_days": 34.0
      }
    },
    {
      "type": "Feature",
      "geometry": {
        "type": "Point",
        "coordinates": [
          151.139,
          -33.824
        ]
      },
      "properties": {
        "id": 487,
        "location": "Hunters Hill",
        "updated_at": "2024-01-22 21:20:29 UTC",
        "last_record_at": "2024-01-18 00:00:00 UTC",
        "total_7_days": 0,
        "total_30_days": 263.0
      }
    },
    {
      "type": "Feature",
      "geometry": {
        "type": "Point",
        "coordinates": [
          -3.53,
          50.7
        ]
      },
      "properties": {
        "id": 1210,
        "location": "Exeter, United Kingdom of Great Britain and Northern Ireland",
        "updated_at": "2024-01-30 12:49:54 UTC",
        "last_record_at": "2024-01-29 00:00:00 UTC",
        "total_7_days": 1.75,
        "total_30_days": 72.75
      }
    },
    {
      "type": "Feature",
      "geometry": {
        "type": "Point",
        "coordinates": [
          152.95,
          -27.083
        ]
      },
      "properties": {
        "id": 1135,
        "location": "Caboolture, Australia",
        "updated_at": "2024-02-01 04:11:22 UTC",
        "last_record_at": "2024-01-31 00:00:00 UTC",
        "total_7_days": 195.0,
        "total_30_days": 533.0
      }
    },
    {
      "type": "Feature",
      "geometry": {
        "type": "Point",
        "coordinates": [
          146.92,
          -36.06
        ]
      },
      "properties": {
        "id": 1292,
        "location": "Albury, Australia",
        "updated_at": "2024-01-25 21:16:51 UTC",
        "last_record_at": "2024-01-26 00:00:00 UTC",
        "total_7_days": 9.5,
        "total_30_days": 51.5
      }
    },
    {
      "type": "Feature",
      "geometry": {
        "type": "Point",
        "coordinates": [
          18.435,
          -33.92
        ]
      },
      "properties": {
        "id": 1153,
        "location": "Cape Town, South Africa",
        "updated_at": "2024-01-31 04:20:29 UTC",
        "last_record_at": "2024-01-29 00:00:00 UTC",
        "total_7_days": 5.0,
        "total_30_days": 5.0
      }
    },
    {
      "type": "Feature",
      "geometry": {
        "type": "Point",
        "coordinates": [
          152.671,
          -26.189
        ]
      },
      "properties": {
        "id": 1289,
        "location": "Gympie, Australia",
        "updated_at": "2024-01-30 22:37:44 UTC",
        "last_record_at": "2024-01-30 00:00:00 UTC",
        "total_7_days": 128.5,
        "total_30_days": 196.5
      }
    },
    {
      "type": "Feature",
      "geometry": {
        "type": "Point",
        "coordinates": [
          27.703,
          -26.158
        ]
      },
      "properties": {
        "id": 1126,
        "location": "Johannesburg, South Africa",
        "updated_at": "2024-01-30 21:50:34 UTC",
        "last_record_at": "2024-01-30 00:00:00 UTC",
        "total_7_days": 22.0,
        "total_30_days": 213.0
      }
    },
    {
      "type": "Feature",
      "geometry": {
        "type": "Point",
        "coordinates": [
          -0.883,
          52.25
        ]
      },
      "properties": {
        "id": 830,
        "location": "Northampton, United Kingdom of Great Britain and Northern Ireland",
        "updated_at": "2024-01-08 20:31:19 UTC",
        "last_record_at": "2024-01-07 00:00:00 UTC",
        "total_7_days": 0,
        "total_30_days": 15.3
      }
    },
    {
      "type": "Feature",
      "geometry": {
        "type": "Point",
        "coordinates": [
          152.95,
          -27.083
        ]
      },
      "properties": {
        "id": 1286,
        "location": "Caboolture, Australia",
        "updated_at": "2024-01-30 21:08:41 UTC",
        "last_record_at": "2024-01-30 00:00:00 UTC",
        "total_7_days": 225.0,
        "total_30_days": 288.0
      }
    },
    {
      "type": "Feature",
      "geometry": {
        "type": "Point",
        "coordinates": [
          "174.000",
          "-41.000"
        ]
      },
      "properties": {
        "id": 652,
        "location": "Hikuai, New Zealand",
        "updated_at": "2024-01-26 01:24:31 UTC",
        "last_record_at": "2024-01-25 00:00:00 UTC",
        "total_7_days": 0,
        "total_30_days": 108.0
      }
    },
    {
      "type": "Feature",
      "geometry": {
        "type": "Point",
        "coordinates": [
          153.474,
          -28.282
        ]
      },
      "properties": {
        "id": 1167,
        "location": "Australia",
        "updated_at": "2024-01-29 20:56:58 UTC",
        "last_record_at": "2024-01-29 00:00:00 UTC",
        "total_7_days": 20.0,
        "total_30_days": 245.0
      }
    },
    {
      "type": "Feature",
      "geometry": {
        "type": "Point",
        "coordinates": [
          152.919,
          -31.445
        ]
      },
      "properties": {
        "id": 810,
        "location": "Port Macquarie, Australia",
        "updated_at": "2024-01-30 23:58:05 UTC",
        "last_record_at": "2024-01-30 00:00:00 UTC",
        "total_7_days": 32.0,
        "total_30_days": 100.5
      }
    },
    {
      "type": "Feature",
      "geometry": {
        "type": "Point",
        "coordinates": [
          149.583,
          -36.64
        ]
      },
      "properties": {
        "id": 1294,
        "location": "Cooma, Australia",
        "updated_at": "2024-01-25 20:23:33 UTC",
        "last_record_at": "2024-01-26 00:00:00 UTC",
        "total_7_days": 14.0,
        "total_30_days": 62.0
      }
    },
    {
      "type": "Feature",
      "geometry": {
        "type": "Point",
        "coordinates": [
          117.333,
          -35.002
        ]
      },
      "properties": {
        "id": 501,
        "location": "Ocean Beach, Australia",
        "updated_at": "2024-01-31 22:45:59 UTC",
        "last_record_at": "2024-01-31 00:00:00 UTC",
        "total_7_days": 0.5,
        "total_30_days": 2.5
      }
    },
    {
      "type": "Feature",
      "geometry": {
        "type": "Point",
        "coordinates": [
          "133.000",
          "-27.000"
        ]
      },
      "properties": {
        "id": 603,
        "location": "Barragga Bay, Australia",
        "updated_at": "2024-01-07 22:02:13 UTC",
        "last_record_at": "2024-01-05 00:00:00 UTC",
        "total_7_days": 0,
        "total_30_days": 5.5
      }
    },
    {
      "type": "Feature",
      "geometry": {
        "type": "Point",
        "coordinates": [
          144.25,
          -23.45
        ]
      },
      "properties": {
        "id": 1158,
        "location": "Longreach, Australia",
        "updated_at": "2024-01-28 09:45:16 UTC",
        "last_record_at": "2024-01-28 00:00:00 UTC",
        "total_7_days": 24.5,
        "total_30_days": 45.0
      }
    },
    {
      "type": "Feature",
      "geometry": {
        "type": "Point",
        "coordinates": [
          -81.805,
          35.344
        ]
      },
      "properties": {
        "id": 1285,
        "location": "United States of America",
        "updated_at": "2024-01-31 12:22:19 UTC",
        "last_record_at": "2024-01-31 00:00:00 UTC",
        "total_7_days": 1.3,
        "total_30_days": 8.7
      }
    },
    {
      "type": "Feature",
      "geometry": {
        "type": "Point",
        "coordinates": [
          144.25,
          -23.45
        ]
      },
      "properties": {
        "id": 1162,
        "location": "Longreach, Australia",
        "updated_at": "2024-01-30 00:07:14 UTC",
        "last_record_at": "2024-01-28 00:00:00 UTC",
        "total_7_days": 70.0,
        "total_30_days": 113.0
      }
    },
    {
      "type": "Feature",
      "geometry": {
        "type": "Point",
        "coordinates": [
          148.444,
          -33.909
        ]
      },
      "properties": {
        "id": 465,
        "location": "Bumbaldry",
        "updated_at": "2024-01-17 07:21:22 UTC",
        "last_record_at": "2024-01-17 00:00:00 UTC",
        "total_7_days": 0,
        "total_30_days": 63.0
      }
    },
    {
      "type": "Feature",
      "geometry": {
        "type": "Point",
        "coordinates": [
          149.585,
          -33.412
        ]
      },
      "properties": {
        "id": 445,
        "location": "Bathurst",
        "updated_at": "2024-01-30 12:14:06 UTC",
        "last_record_at": "2024-01-30 00:00:00 UTC",
        "total_7_days": 9.0,
        "total_30_days": 65.5
      }
    },
    {
      "type": "Feature",
      "geometry": {
        "type": "Point",
        "coordinates": [
          "133.000",
          "-27.000"
        ]
      },
      "properties": {
        "id": 733,
        "location": "Bundanoon, Australia",
        "updated_at": "2024-01-31 21:41:00 UTC",
        "last_record_at": "2024-01-31 00:00:00 UTC",
        "total_7_days": 13.0,
        "total_30_days": 122.0
      }
    },
    {
      "type": "Feature",
      "geometry": {
        "type": "Point",
        "coordinates": [
          144.25,
          -23.45
        ]
      },
      "properties": {
        "id": 959,
        "location": "Longreach, Australia",
        "updated_at": "2024-01-29 23:42:08 UTC",
        "last_record_at": "2024-01-28 00:00:00 UTC",
        "total_7_days": 64.5,
        "total_30_days": 117.5
      }
    },
    {
      "type": "Feature",
      "geometry": {
        "type": "Point",
        "coordinates": [
          144.25,
          -23.45
        ]
      },
      "properties": {
        "id": 1159,
        "location": "Longreach, Australia",
        "updated_at": "2024-01-30 00:06:46 UTC",
        "last_record_at": "2024-01-28 00:00:00 UTC",
        "total_7_days": 30.0,
        "total_30_days": 90.0
      }
    },
    {
      "type": "Feature",
      "geometry": {
        "type": "Point",
        "coordinates": [
          143.84,
          -37.56
        ]
      },
      "properties": {
        "id": 1280,
        "location": "Ballarat, Australia",
        "updated_at": "2024-01-28 09:19:25 UTC",
        "last_record_at": "2024-01-26 00:00:00 UTC",
        "total_7_days": 10.0,
        "total_30_days": 80.5
      }
    },
    {
      "type": "Feature",
      "geometry": {
        "type": "Point",
        "coordinates": [
          152.344,
          -27.587
        ]
      },
      "properties": {
        "id": 754,
        "location": "Toowoomba, Australia",
        "updated_at": "2024-01-30 22:55:23 UTC",
        "last_record_at": "2024-01-31 00:00:00 UTC",
        "total_7_days": 138.0,
        "total_30_days": 214.0
      }
    },
    {
      "type": "Feature",
      "geometry": {
        "type": "Point",
        "coordinates": [
          "24.000",
          "-29.000"
        ]
      },
      "properties": {
        "id": 694,
        "location": "Woodland Hills, South Africa",
        "updated_at": "2024-01-29 05:52:03 UTC",
        "last_record_at": "2024-01-28 00:00:00 UTC",
        "total_7_days": 10.0,
        "total_30_days": 69.0
      }
    },
    {
      "type": "Feature",
      "geometry": {
        "type": "Point",
        "coordinates": [
          149.014,
          -34.626
        ]
      },
      "properties": {
        "id": 475,
        "location": "Blakney Creek",
        "updated_at": "2024-01-27 20:54:53 UTC",
        "last_record_at": "2024-01-26 00:00:00 UTC",
        "total_7_days": 0.5,
        "total_30_days": 98.5
      }
    },
    {
      "type": "Feature",
      "geometry": {
        "type": "Point",
        "coordinates": [
          115.878,
          -32.049
        ]
      },
      "properties": {
        "id": 138,
        "location": "Willetton, Australia",
        "updated_at": "2024-01-13 02:57:55 UTC",
        "last_record_at": "2024-01-13 00:00:00 UTC",
        "total_7_days": 0,
        "total_30_days": 1.0
      }
    },
    {
      "type": "Feature",
      "geometry": {
        "type": "Point",
        "coordinates": [
          30.98,
          -29.865
        ]
      },
      "properties": {
        "id": 1079,
        "location": "Durban, South Africa",
        "updated_at": "2024-01-24 04:44:00 UTC",
        "last_record_at": "2024-01-23 00:00:00 UTC",
        "total_7_days": 0,
        "total_30_days": 139.5
      }
    },
    {
      "type": "Feature",
      "geometry": {
        "type": "Point",
        "coordinates": [
          152.938,
          -29.712
        ]
      },
      "properties": {
        "id": 1142,
        "location": "Grafton, Australia",
        "updated_at": "2024-01-31 01:49:06 UTC",
        "last_record_at": "2024-01-30 00:00:00 UTC",
        "total_7_days": 26.0,
        "total_30_days": 109.0
      }
    },
    {
      "type": "Feature",
      "geometry": {
        "type": "Point",
        "coordinates": [
          144.396,
          -38.167
        ]
      },
      "properties": {
        "id": 928,
        "location": "Geelong, Australia",
        "updated_at": "2024-01-02 01:59:06 UTC",
        "last_record_at": "2024-01-02 00:00:00 UTC"
      }
    },
    {
      "type": "Feature",
      "geometry": {
        "type": "Point",
        "coordinates": [
          150.786,
          -31.527
        ]
      },
      "properties": {
        "id": 299,
        "location": "Quirindi",
        "updated_at": "2024-01-31 03:53:25 UTC",
        "last_record_at": "2024-01-30 00:00:00 UTC",
        "total_7_days": 19.0,
        "total_30_days": 132.6
      }
    },
    {
      "type": "Feature",
      "geometry": {
        "type": "Point",
        "coordinates": [
          151.113,
          -29.767
        ]
      },
      "properties": {
        "id": 1291,
        "location": "Inverell, Australia",
        "updated_at": "2024-01-31 21:14:54 UTC",
        "last_record_at": "2024-01-31 00:00:00 UTC",
        "total_7_days": 56.0,
        "total_30_days": 77.5
      }
    },
    {
      "type": "Feature",
      "geometry": {
        "type": "Point",
        "coordinates": [
          30.97,
          -25.474
        ]
      },
      "properties": {
        "id": 950,
        "location": "Nelspruit, South Africa",
        "updated_at": "2024-01-31 04:30:14 UTC",
        "last_record_at": "2024-01-30 00:00:00 UTC",
        "total_7_days": 9.0,
        "total_30_days": 28.0
      }
    },
    {
      "type": "Feature",
      "geometry": {
        "type": "Point",
        "coordinates": [
          152.953,
          -27.455
        ]
      },
      "properties": {
        "id": 38,
        "location": "The Gap, Australia",
        "updated_at": "2024-01-30 20:00:10 UTC",
        "last_record_at": "2024-01-31 00:00:00 UTC",
        "total_7_days": 107.2,
        "total_30_days": 207.45
      }
    },
    {
      "type": "Feature",
      "geometry": {
        "type": "Point",
        "coordinates": [
          145.283,
          -38.1
        ]
      },
      "properties": {
        "id": 836,
        "location": "Cranbourne, Australia",
        "updated_at": "2024-01-30 10:58:18 UTC",
        "last_record_at": "2024-01-27 00:00:00 UTC",
        "total_7_days": 3.0,
        "total_30_days": 96.5
      }
    },
    {
      "type": "Feature",
      "geometry": {
        "type": "Point",
        "coordinates": [
          141.573,
          -38.114
        ]
      },
      "properties": {
        "id": 152,
        "location": "Heywood, Australia",
        "updated_at": "2024-01-23 22:27:36 UTC",
        "last_record_at": "2024-01-23 00:00:00 UTC",
        "total_7_days": 0,
        "total_30_days": 38.25
      }
    },
    {
      "type": "Feature",
      "geometry": {
        "type": "Point",
        "coordinates": [
          118.78,
          -32.87
        ]
      },
      "properties": {
        "id": 874,
        "location": "Australia",
        "updated_at": "2024-01-12 02:46:13 UTC",
        "last_record_at": "2024-01-12 00:00:00 UTC",
        "total_7_days": 0,
        "total_30_days": 12.0
      }
    },
    {
      "type": "Feature",
      "geometry": {
        "type": "Point",
        "coordinates": [
          152.351,
          -24.879
        ]
      },
      "properties": {
        "id": 1283,
        "location": "Bundaberg, Australia",
        "updated_at": "2024-02-01 02:31:24 UTC",
        "last_record_at": "2024-01-31 00:00:00 UTC",
        "total_7_days": 130.0,
        "total_30_days": 130.0
      }
    },
    {
      "type": "Feature",
      "geometry": {
        "type": "Point",
        "coordinates": [
          119.317,
          -31.216
        ]
      },
      "properties": {
        "id": 1293,
        "location": "Southern Cross, Australia",
        "updated_at": "2024-01-17 05:53:04 UTC",
        "last_record_at": "2024-01-16 00:00:00 UTC",
        "total_7_days": 0,
        "total_30_days": 31.5
      }
    },
    {
      "type": "Feature",
      "geometry": {
        "type": "Point",
        "coordinates": [
          -84.423,
          33.763
        ]
      },
      "properties": {
        "id": 1169,
        "location": "Atlanta, United States of America",
        "updated_at": "2024-01-31 10:02:38 UTC",
        "last_record_at": "2024-01-31 00:00:00 UTC",
        "total_7_days": 0.4,
        "total_30_days": 5.8
      }
    },
    {
      "type": "Feature",
      "geometry": {
        "type": "Point",
        "coordinates": [
          152.02,
          -28.229
        ]
      },
      "properties": {
        "id": 940,
        "location": "Warwick, Australia",
        "updated_at": "2024-01-31 12:47:23 UTC",
        "last_record_at": "2024-01-31 00:00:00 UTC",
        "total_7_days": 70.5,
        "total_30_days": 144.5
      }
    },
    {
      "type": "Feature",
      "geometry": {
        "type": "Point",
        "coordinates": [
          178.018,
          -38.663
        ]
      },
      "properties": {
        "id": 518,
        "location": "Gisborne, New Zealand",
        "updated_at": "2024-01-04 23:19:09 UTC",
        "last_record_at": "2024-01-04 00:00:00 UTC",
        "total_7_days": 0,
        "total_30_days": 4.0
      }
    },
    {
      "type": "Feature",
      "geometry": {
        "type": "Point",
        "coordinates": [
          144.25,
          -23.45
        ]
      },
      "properties": {
        "id": 1161,
        "location": "Longreach, Australia",
        "updated_at": "2024-01-30 00:07:35 UTC",
        "last_record_at": "2024-01-28 00:00:00 UTC",
        "total_7_days": 65.0,
        "total_30_days": 65.0
      }
    },
    {
      "type": "Feature",
      "geometry": {
        "type": "Point",
        "coordinates": [
          153.349,
          -28.4
        ]
      },
      "properties": {
        "id": 1143,
        "location": "Australia",
        "updated_at": "2024-01-30 19:42:48 UTC",
        "last_record_at": "2024-01-31 00:00:00 UTC",
        "total_7_days": 43.0,
        "total_30_days": 387.0
      }
    },
    {
      "type": "Feature",
      "geometry": {
        "type": "Point",
        "coordinates": [
          151.953,
          -24.99
        ]
      },
      "properties": {
        "id": 943,
        "location": "Bundaberg, Australia",
        "updated_at": "2024-01-31 08:30:32 UTC",
        "last_record_at": "2024-01-30 00:00:00 UTC",
        "total_7_days": 78.0,
        "total_30_days": 153.5
      }
    },
    {
      "type": "Feature",
      "geometry": {
        "type": "Point",
        "coordinates": [
          25.912,
          -24.646
        ]
      },
      "properties": {
        "id": 833,
        "location": "Gaborone, Botswana",
        "updated_at": "2024-01-31 14:41:47 UTC",
        "last_record_at": "2024-01-30 00:00:00 UTC",
        "total_7_days": 6.0,
        "total_30_days": 48.0
      }
    },
    {
      "type": "Feature",
      "geometry": {
        "type": "Point",
        "coordinates": [
          118.78,
          -32.75
        ]
      },
      "properties": {
        "id": 917,
        "location": "Australia",
        "updated_at": "2024-01-12 02:45:46 UTC",
        "last_record_at": "2024-01-12 00:00:00 UTC",
        "total_7_days": 0,
        "total_30_days": 6.5
      }
    },
    {
      "type": "Feature",
      "geometry": {
        "type": "Point",
        "coordinates": [
          140.767,
          -36.316
        ]
      },
      "properties": {
        "id": 1030,
        "location": "Bordertown, Australia",
        "updated_at": "2024-02-01 01:33:52 UTC",
        "last_record_at": "2024-01-26 00:00:00 UTC",
        "total_7_days": 5.8,
        "total_30_days": 17.8
      }
    },
    {
      "type": "Feature",
      "geometry": {
        "type": "Point",
        "coordinates": [
          153.568,
          -28.861
        ]
      },
      "properties": {
        "id": 941,
        "location": "Ballina, Australia",
        "updated_at": "2024-01-31 20:18:07 UTC",
        "last_record_at": "2024-01-31 00:00:00 UTC",
        "total_7_days": 31.75,
        "total_30_days": 331.0
      }
    },
    {
      "type": "Feature",
      "geometry": {
        "type": "Point",
        "coordinates": [
          18.472,
          -33.937
        ]
      },
      "properties": {
        "id": 884,
        "location": "Cape Town, South Africa",
        "updated_at": "2024-01-30 04:38:14 UTC",
        "last_record_at": "2024-01-30 00:00:00 UTC",
        "total_7_days": 6.0,
        "total_30_days": 6.0
      }
    },
    {
      "type": "Feature",
      "geometry": {
        "type": "Point",
        "coordinates": [
          30.03,
          -22.34
        ]
      },
      "properties": {
        "id": 1275,
        "location": "Musina, South Africa",
        "updated_at": "2024-01-05 17:02:29 UTC",
        "last_record_at": "2024-01-04 00:00:00 UTC",
        "total_7_days": 0,
        "total_30_days": 28.0
      }
    },
    {
      "type": "Feature",
      "geometry": {
        "type": "Point",
        "coordinates": [
          -85.86,
          11.25
        ]
      },
      "properties": {
        "id": 1249,
        "location": "San Juan del Sur, Nicaragua",
        "updated_at": "2024-01-22 23:09:17 UTC",
        "last_record_at": "2024-01-20 00:00:00 UTC",
        "total_7_days": 0,
        "total_30_days": 0.3
      }
    },
    {
      "type": "Feature",
      "geometry": {
        "type": "Point",
        "coordinates": [
          28.264,
          -25.82
        ]
      },
      "properties": {
        "id": 992,
        "location": "Pretoria, South Africa",
        "updated_at": "2024-01-31 04:16:35 UTC",
        "last_record_at": "2024-01-30 00:00:00 UTC",
        "total_7_days": 49.0,
        "total_30_days": 182.0
      }
    },
    {
      "type": "Feature",
      "geometry": {
        "type": "Point",
        "coordinates": [
          26.22,
          -29.078
        ]
      },
      "properties": {
        "id": 768,
        "location": "Bloemfontein, South Africa",
        "updated_at": "2024-01-29 15:13:18 UTC",
        "last_record_at": "2024-01-29 00:00:00 UTC",
        "total_7_days": 9.0,
        "total_30_days": 51.0
      }
    },
    {
      "type": "Feature",
      "geometry": {
        "type": "Point",
        "coordinates": [
          26.851,
          -25.445
        ]
      },
      "properties": {
        "id": 1168,
        "location": "Rustenburg, South Africa",
        "updated_at": "2024-01-30 04:49:06 UTC",
        "last_record_at": "2024-01-30 00:00:00 UTC",
        "total_7_days": 53.0,
        "total_30_days": 219.0
      }
    },
    {
      "type": "Feature",
      "geometry": {
        "type": "Point",
        "coordinates": [
          133.0,
          -27.0
        ]
      },
      "properties": {
        "id": 812,
        "location": "Australia",
        "updated_at": "2024-01-30 08:23:07 UTC",
        "last_record_at": "2024-01-30 00:00:00 UTC",
        "total_7_days": 85.0,
        "total_30_days": 224.0
      }
    },
    {
      "type": "Feature",
      "geometry": {
        "type": "Point",
        "coordinates": [
          "133.000",
          "-27.000"
        ]
      },
      "properties": {
        "id": 669,
        "location": "Ashburton, Australia",
        "updated_at": "2024-01-26 06:41:40 UTC",
        "last_record_at": "2024-01-26 00:00:00 UTC",
        "total_7_days": 0.9,
        "total_30_days": 76.8
      }
    },
    {
      "type": "Feature",
      "geometry": {
        "type": "Point",
        "coordinates": [
          151.94,
          28.9
        ]
      },
      "properties": {
        "id": 370,
        "location": "Wallangarra, Australia",
        "updated_at": "2024-01-29 19:49:21 UTC",
        "last_record_at": "2024-01-30 00:00:00 UTC",
        "total_7_days": 54.0,
        "total_30_days": 108.0
      }
    },
    {
      "type": "Feature",
      "geometry": {
        "type": "Point",
        "coordinates": [
          144.25,
          -23.45
        ]
      },
      "properties": {
        "id": 1160,
        "location": "Longreach, Australia",
        "updated_at": "2024-01-30 00:07:51 UTC",
        "last_record_at": "2024-01-28 00:00:00 UTC",
        "total_7_days": 65.0,
        "total_30_days": 100.0
      }
    },
    {
      "type": "Feature",
      "geometry": {
        "type": "Point",
        "coordinates": [
          133.0,
          -27.0
        ]
      },
      "properties": {
        "id": 813,
        "location": "Australia",
        "updated_at": "2024-01-30 08:25:47 UTC",
        "last_record_at": "2024-01-30 00:00:00 UTC",
        "total_7_days": 108.0,
        "total_30_days": 142.0
      }
    },
    {
      "type": "Feature",
      "geometry": {
        "type": "Point",
        "coordinates": [
          138.552,
          -34.898
        ]
      },
      "properties": {
        "id": 507,
        "location": "Beverley, Australia",
        "updated_at": "2024-01-25 23:58:10 UTC",
        "last_record_at": "2024-01-26 00:00:00 UTC",
        "total_7_days": 2.0,
        "total_30_days": 57.0
      }
    },
    {
      "type": "Feature",
      "geometry": {
        "type": "Point",
        "coordinates": [
          144.442,
          -37.396
        ]
      },
      "properties": {
        "id": 1203,
        "location": "Sunbury, Australia",
        "updated_at": "2024-01-25 22:30:24 UTC",
        "last_record_at": "2024-01-26 00:00:00 UTC",
        "total_7_days": 13.5,
        "total_30_days": 136.0
      }
    },
    {
      "type": "Feature",
      "geometry": {
        "type": "Point",
        "coordinates": [
          173.247,
          -41.293
        ]
      },
      "properties": {
        "id": 1070,
        "location": "Nelson, New Zealand",
        "updated_at": "2024-01-26 17:55:30 UTC",
        "last_record_at": "2024-01-27 00:00:00 UTC",
        "total_7_days": 12.0,
        "total_30_days": 43.5
      }
    },
    {
      "type": "Feature",
      "geometry": {
        "type": "Point",
        "coordinates": [
          115.882,
          -32.12
        ]
      },
      "properties": {
        "id": 903,
        "location": "Perth, Australia",
        "updated_at": "2024-01-14 02:05:32 UTC",
        "last_record_at": "2024-01-13 00:00:00 UTC",
        "total_7_days": 0,
        "total_30_days": 1.5
      }
    },
    {
      "type": "Feature",
      "geometry": {
        "type": "Point",
        "coordinates": [
          138.0,
          -35.0
        ]
      },
      "properties": {
        "id": 1287,
        "location": "Australia",
        "updated_at": "2024-01-01 10:37:21 UTC",
        "last_record_at": "2024-01-01 00:00:00 UTC"
      }
    },
    {
      "type": "Feature",
      "geometry": {
        "type": "Point",
        "coordinates": [
          "133.000",
          "-27.000"
        ]
      },
      "properties": {
        "id": 515,
        "location": "Blackbutt, Australia",
        "updated_at": "2024-01-31 00:01:53 UTC",
        "last_record_at": "2024-01-30 00:00:00 UTC",
        "total_7_days": 60.0,
        "total_30_days": 124.5
      }
    },
    {
      "type": "Feature",
      "geometry": {
        "type": "Point",
        "coordinates": [
          152.351,
          -24.879
        ]
      },
      "properties": {
        "id": 947,
        "location": "Bundaberg, Australia",
        "updated_at": "2024-01-30 11:54:40 UTC",
        "last_record_at": "2024-01-30 00:00:00 UTC",
        "total_7_days": 121.0,
        "total_30_days": 252.0
      }
    },
    {
      "type": "Feature",
      "geometry": {
        "type": "Point",
        "coordinates": [
          147.06,
          -38.11
        ]
      },
      "properties": {
        "id": 911,
        "location": "Sale, Australia",
        "updated_at": "2024-01-25 22:25:48 UTC",
        "last_record_at": "2024-01-26 00:00:00 UTC",
        "total_7_days": 8.0,
        "total_30_days": 91.0
      }
    },
    {
      "type": "Feature",
      "geometry": {
        "type": "Point",
        "coordinates": [
          144.564,
          -37.421
        ]
      },
      "properties": {
        "id": 373,
        "location": "Macedon, Australia",
        "updated_at": "2024-01-25 21:07:06 UTC",
        "last_record_at": "2024-01-26 00:00:00 UTC",
        "total_7_days": 11.0,
        "total_30_days": 123.0
      }
    },
    {
      "type": "Feature",
      "geometry": {
        "type": "Point",
        "coordinates": [
          -2.487,
          51.826
        ]
      },
      "properties": {
        "id": 885,
        "location": "United Kingdom of Great Britain and Northern Ireland",
        "updated_at": "2024-01-26 08:05:54 UTC",
        "last_record_at": "2024-01-26 00:00:00 UTC",
        "total_7_days": 0.4,
        "total_30_days": 2.2
      }
    },
    {
      "type": "Feature",
      "geometry": {
        "type": "Point",
        "coordinates": [
          149.57,
          -33.42
        ]
      },
      "properties": {
        "id": 952,
        "location": "Bathurst, Australia",
        "updated_at": "2024-01-30 05:35:12 UTC",
        "last_record_at": "2024-01-30 00:00:00 UTC",
        "total_7_days": 15.0,
        "total_30_days": 69.0
      }
    },
    {
      "type": "Feature",
      "geometry": {
        "type": "Point",
        "coordinates": [
          152.351,
          -24.879
        ]
      },
      "properties": {
        "id": 948,
        "location": "Bundaberg, Australia",
        "updated_at": "2024-01-30 07:49:36 UTC",
        "last_record_at": "2024-01-30 00:00:00 UTC",
        "total_7_days": 62.0,
        "total_30_days": 112.5
      }
    },
    {
      "type": "Feature",
      "geometry": {
        "type": "Point",
        "coordinates": [
          "133.000",
          "-27.000"
        ]
      },
      "properties": {
        "id": 638,
        "location": "Sutton Forest, Australia",
        "updated_at": "2024-01-18 10:04:38 UTC",
        "last_record_at": "2024-01-18 00:00:00 UTC",
        "total_7_days": 0,
        "total_30_days": 60.0
      }
    },
    {
      "type": "Feature",
      "geometry": {
        "type": "Point",
        "coordinates": [
          "133.000",
          "-27.000"
        ]
      },
      "properties": {
        "id": 704,
        "location": "Beechforest, Australia",
        "updated_at": "2024-01-29 00:19:38 UTC",
        "last_record_at": "2024-01-29 00:00:00 UTC",
        "total_7_days": 11.5,
        "total_30_days": 55.5
      }
    },
    {
      "type": "Feature",
      "geometry": {
        "type": "Point",
        "coordinates": [
          151.946,
          -27.593
        ]
      },
      "properties": {
        "id": 710,
        "location": "Toowoomba, Australia",
        "updated_at": "2024-01-30 00:05:18 UTC",
        "last_record_at": "2024-01-29 00:00:00 UTC",
        "total_7_days": 129.0,
        "total_30_days": 176.0
      }
    },
    {
      "type": "Feature",
      "geometry": {
        "type": "Point",
        "coordinates": [
          27.971,
          -26.166
        ]
      },
      "properties": {
        "id": 776,
        "location": "Johannesburg, South Africa",
        "updated_at": "2024-01-31 07:27:07 UTC",
        "last_record_at": "2024-01-30 00:00:00 UTC",
        "total_7_days": 90.0,
        "total_30_days": 260.5
      }
    },
    {
      "type": "Feature",
      "geometry": {
        "type": "Point",
        "coordinates": [
          31.157,
          -25.681
        ]
      },
      "properties": {
        "id": 923,
        "location": "Nelspruit, South Africa",
        "updated_at": "2024-01-18 05:57:01 UTC",
        "last_record_at": "2024-01-18 00:00:00 UTC",
        "total_7_days": 0,
        "total_30_days": 73.0
      }
    },
    {
      "type": "Feature",
      "geometry": {
        "type": "Point",
        "coordinates": [
          0.0,
          0.0
        ]
      },
      "properties": {
        "id": 653,
        "location": "Marlesford, Woodbridge, England",
        "updated_at": "2024-01-25 13:01:31 UTC",
        "last_record_at": "2024-01-24 00:00:00 UTC",
        "total_7_days": 0,
        "total_30_days": 26.0
      }
    },
    {
      "type": "Feature",
      "geometry": {
        "type": "Point",
        "coordinates": [
          115.84,
          -31.955
        ]
      },
      "properties": {
        "id": 873,
        "location": "Perth, Australia",
        "updated_at": "2024-01-14 08:18:02 UTC",
        "last_record_at": "2024-01-13 00:00:00 UTC",
        "total_7_days": 0,
        "total_30_days": 9.6
      }
    },
    {
      "type": "Feature",
      "geometry": {
        "type": "Point",
        "coordinates": [
          151.376,
          -33.521
        ]
      },
      "properties": {
        "id": 1273,
        "location": "Sydney, Australia",
        "updated_at": "2024-01-23 22:38:24 UTC",
        "last_record_at": "2024-01-23 00:00:00 UTC",
        "total_7_days": 0,
        "total_30_days": 97.6
      }
    },
    {
      "type": "Feature",
      "geometry": {
        "type": "Point",
        "coordinates": [
          152.02,
          -28.229
        ]
      },
      "properties": {
        "id": 819,
        "location": "Warwick, Australia",
        "updated_at": "2024-01-30 23:36:27 UTC",
        "last_record_at": "2024-01-31 00:00:00 UTC",
        "total_7_days": 56.0,
        "total_30_days": 104.6
      }
    },
    {
      "type": "Feature",
      "geometry": {
        "type": "Point",
        "coordinates": [
          150.501,
          -34.076
        ]
      },
      "properties": {
        "id": 1282,
        "location": "Australia",
        "updated_at": "2024-01-28 02:18:09 UTC",
        "last_record_at": "2024-01-27 00:00:00 UTC",
        "total_7_days": 1.5,
        "total_30_days": 93.5
      }
    },
    {
      "type": "Feature",
      "geometry": {
        "type": "Point",
        "coordinates": [
          151.153,
          -28.639
        ]
      },
      "properties": {
        "id": 443,
        "location": "Brush Creek",
        "updated_at": "2024-01-29 22:04:51 UTC",
        "last_record_at": "2024-01-29 00:00:00 UTC",
        "total_7_days": 36.5,
        "total_30_days": 127.5
      }
    },
    {
      "type": "Feature",
      "geometry": {
        "type": "Point",
        "coordinates": [
          -90.649,
          38.501
        ]
      },
      "properties": {
        "id": 1145,
        "location": "Eureka, United States of America",
        "updated_at": "2024-01-22 03:11:21 UTC",
        "last_record_at": "2024-01-21 00:00:00 UTC",
        "total_7_days": 0,
        "total_30_days": 18.0
      }
    },
    {
      "type": "Feature",
      "geometry": {
        "type": "Point",
        "coordinates": [
          133.0,
          -27.0
        ]
      },
      "properties": {
        "id": 122,
        "location": "Kilsyth, Yarra Ranges, Australia",
        "updated_at": "2024-01-25 22:52:40 UTC",
        "last_record_at": "2024-01-25 00:00:00 UTC",
        "total_7_days": 0,
        "total_30_days": 118.0
      }
    },
    {
      "type": "Feature",
      "geometry": {
        "type": "Point",
        "coordinates": [
          153.035,
          -27.455
        ]
      },
      "properties": {
        "id": 887,
        "location": "Brisbane, Australia",
        "updated_at": "2024-01-29 02:12:59 UTC",
        "last_record_at": "2024-01-28 00:00:00 UTC",
        "total_7_days": 15.0,
        "total_30_days": 43.5
      }
    },
    {
      "type": "Feature",
      "geometry": {
        "type": "Point",
        "coordinates": [
          152.395,
          -26.05
        ]
      },
      "properties": {
        "id": 1290,
        "location": "Gympie, Australia",
        "updated_at": "2024-01-30 22:27:55 UTC",
        "last_record_at": "2024-01-30 00:00:00 UTC",
        "total_7_days": 67.5,
        "total_30_days": 143.5
      }
    },
    {
      "type": "Feature",
      "geometry": {
        "type": "Point",
        "coordinates": [
          143.58,
          -38.34
        ]
      },
      "properties": {
        "id": 814,
        "location": "Colac, Australia",
        "updated_at": "2024-01-20 05:05:43 UTC",
        "last_record_at": "2024-01-19 00:00:00 UTC",
        "total_7_days": 0,
        "total_30_days": 24.0
      }
    },
    {
      "type": "Feature",
      "geometry": {
        "type": "Point",
        "coordinates": [
          115.801,
          -32.035
        ]
      },
      "properties": {
        "id": 571,
        "location": "Melville, Australia",
        "updated_at": "2024-01-14 02:18:26 UTC",
        "last_record_at": "2024-01-12 00:00:00 UTC",
        "total_7_days": 0,
        "total_30_days": 10.5
      }
    },
    {
      "type": "Feature",
      "geometry": {
        "type": "Point",
        "coordinates": [
          153.477,
          -28.759
        ]
      },
      "properties": {
        "id": 892,
        "location": "Lismore, Australia",
        "updated_at": "2024-01-30 19:15:37 UTC",
        "last_record_at": "2024-01-30 00:00:00 UTC",
        "total_7_days": 26.2,
        "total_30_days": 175.0
      }
    },
    {
      "type": "Feature",
      "geometry": {
        "type": "Point",
        "coordinates": [
          "133.000",
          "-27.000"
        ]
      },
      "properties": {
        "id": 395,
        "location": "Wangandary Upper, Australia",
        "updated_at": "2024-01-29 20:52:17 UTC",
        "last_record_at": "2024-01-25 00:00:00 UTC",
        "total_7_days": 0,
        "total_30_days": 75.0
      }
    },
    {
      "type": "Feature",
      "geometry": {
        "type": "Point",
        "coordinates": [
          17.084,
          -22.57
        ]
      },
      "properties": {
        "id": 823,
        "location": "Windhoek, Namibia",
        "updated_at": "2024-01-31 17:18:19 UTC",
        "last_record_at": "2024-01-31 00:00:00 UTC",
        "total_7_days": 25.0,
        "total_30_days": 46.5
      }
    },
    {
      "type": "Feature",
      "geometry": {
        "type": "Point",
        "coordinates": [
          152.787,
          -25.364
        ]
      },
      "properties": {
        "id": 468,
        "location": "Sunshine Acres",
        "updated_at": "2024-01-19 05:00:04 UTC",
        "last_record_at": "2024-01-17 00:00:00 UTC",
        "total_7_days": 0,
        "total_30_days": 77.0
      }
    },
    {
      "type": "Feature",
      "geometry": {
        "type": "Point",
        "coordinates": [
          141.433,
          -31.95
        ]
      },
      "properties": {
        "id": 1209,
        "location": "Broken Hill, Australia",
        "updated_at": "2024-01-17 03:39:39 UTC",
        "last_record_at": "2024-01-17 00:00:00 UTC",
        "total_7_days": 0,
        "total_30_days": 174.5
      }
    },
    {
      "type": "Feature",
      "geometry": {
        "type": "Point",
        "coordinates": [
          -3.533,
          55.883
        ]
      },
      "properties": {
        "id": 938,
        "location": "Livingston, United Kingdom of Great Britain and Northern Ireland",
        "updated_at": "2024-02-01 07:03:12 UTC",
        "last_record_at": "2024-01-31 00:00:00 UTC",
        "total_7_days": 17.0,
        "total_30_days": 82.0
      }
    },
    {
      "type": "Feature",
      "geometry": {
        "type": "Point",
        "coordinates": [
          152.02,
          -28.229
        ]
      },
      "properties": {
        "id": 882,
        "location": "Warwick, Australia",
        "updated_at": "2024-01-29 21:56:35 UTC",
        "last_record_at": "2024-01-29 00:00:00 UTC",
        "total_7_days": 127.0,
        "total_30_days": 161.0
      }
    },
    {
      "type": "Feature",
      "geometry": {
        "type": "Point",
        "coordinates": [
          "133.000",
          "-27.000"
        ]
      },
      "properties": {
        "id": 714,
        "location": "Kersbrook, Australia",
        "updated_at": "2024-01-29 07:01:30 UTC",
        "last_record_at": "2024-01-26 00:00:00 UTC",
        "total_7_days": 0.5,
        "total_30_days": 36.5
      }
    },
    {
      "type": "Feature",
      "geometry": {
        "type": "Point",
        "coordinates": [
          146.259,
          -20.081
        ]
      },
      "properties": {
        "id": 958,
        "location": "Charters Towers, Australia",
        "updated_at": "2024-01-31 21:10:37 UTC",
        "last_record_at": "2024-01-31 00:00:00 UTC",
        "total_7_days": 78.0,
        "total_30_days": 151.0
      }
    },
    {
      "type": "Feature",
      "geometry": {
        "type": "Point",
        "coordinates": [
          152.807,
          -30.611
        ]
      },
      "properties": {
        "id": 619,
        "location": "Argents Hill, Australia",
        "updated_at": "2024-01-30 22:33:50 UTC",
        "last_record_at": "2024-01-30 00:00:00 UTC",
        "total_7_days": 48.2,
        "total_30_days": 243.2
      }
    },
    {
      "type": "Feature",
      "geometry": {
        "type": "Point",
        "coordinates": [
          27.984,
          -26.011
        ]
      },
      "properties": {
        "id": 1124,
        "location": "Johannesburg, South Africa",
        "updated_at": "2024-01-30 16:36:53 UTC",
        "last_record_at": "2024-01-30 00:00:00 UTC",
        "total_7_days": 28.0,
        "total_30_days": 130.0
      }
    },
    {
      "type": "Feature",
      "geometry": {
        "type": "Point",
        "coordinates": [
          153.133,
          -26.8
        ]
      },
      "properties": {
        "id": 837,
        "location": "Caloundra, Australia",
        "updated_at": "2024-01-29 23:46:35 UTC",
        "last_record_at": "2024-01-29 00:00:00 UTC",
        "total_7_days": 75.0,
        "total_30_days": 282.0
      }
    },
    {
      "type": "Feature",
      "geometry": {
        "type": "Point",
        "coordinates": [
          149.129,
          -35.283
        ]
      },
      "properties": {
        "id": 905,
        "location": "Canberra, Australia",
        "updated_at": "2024-01-18 09:32:08 UTC",
        "last_record_at": "2024-01-18 00:00:00 UTC",
        "total_7_days": 0,
        "total_30_days": 121.5
      }
    },
    {
      "type": "Feature",
      "geometry": {
        "type": "Point",
        "coordinates": [
          133.0,
          -27.0
        ]
      },
      "properties": {
        "id": 1288,
        "location": "Australia",
        "updated_at": "2024-01-25 22:35:18 UTC",
        "last_record_at": "2024-01-25 00:00:00 UTC",
        "total_7_days": 0,
        "total_30_days": 33.5
      }
    },
    {
      "type": "Feature",
      "geometry": {
        "type": "Point",
        "coordinates": [
          152.35,
          -27.459
        ]
      },
      "properties": {
        "id": 129,
        "location": "Spring Creek",
        "updated_at": "2024-01-30 08:38:12 UTC",
        "last_record_at": "2024-01-30 00:00:00 UTC",
        "total_7_days": 197.0,
        "total_30_days": 263.5
      }
    },
    {
      "type": "Feature",
      "geometry": {
        "type": "Point",
        "coordinates": [
          133.0,
          -27.0
        ]
      },
      "properties": {
        "id": 1132,
        "location": "Australia",
        "updated_at": "2024-01-30 20:03:12 UTC",
        "last_record_at": "2024-01-30 00:00:00 UTC",
        "total_7_days": 47.0,
        "total_30_days": 124.0
      }
    },
    {
      "type": "Feature",
      "geometry": {
        "type": "Point",
        "coordinates": [
          -7.738,
          52.121
        ]
      },
      "properties": {
        "id": 1272,
        "location": "Waterford, Ireland",
        "updated_at": "2024-01-30 07:48:15 UTC",
        "last_record_at": "2024-01-29 00:00:00 UTC",
        "total_7_days": 14.0,
        "total_30_days": 71.0
      }
    },
    {
      "type": "Feature",
      "geometry": {
        "type": "Point",
        "coordinates": [
          151.884,
          -25.246
        ]
      },
      "properties": {
        "id": 944,
        "location": "Bundaberg, Australia",
        "updated_at": "2024-01-30 07:50:18 UTC",
        "last_record_at": "2024-01-30 00:00:00 UTC",
        "total_7_days": 73.0,
        "total_30_days": 102.5
      }
    },
    {
      "type": "Feature",
      "geometry": {
        "type": "Point",
        "coordinates": [
          150.917,
          -31.103
        ]
      },
      "properties": {
        "id": 816,
        "location": "Tamworth, Australia",
        "updated_at": "2024-01-18 22:02:59 UTC",
        "last_record_at": "2024-01-19 00:00:00 UTC",
        "total_7_days": 0,
        "total_30_days": 38.0
      }
    },
    {
      "type": "Feature",
      "geometry": {
        "type": "Point",
        "coordinates": [
          147.61,
          -37.83
        ]
      },
      "properties": {
        "id": 815,
        "location": "Bairnsdale, Australia",
        "updated_at": "2024-01-25 22:58:26 UTC",
        "last_record_at": "2024-01-25 00:00:00 UTC",
        "total_7_days": 0,
        "total_30_days": 74.0
      }
    },
    {
      "type": "Feature",
      "geometry": {
        "type": "Point",
        "coordinates": [
          30.836,
          -16.783
        ]
      },
      "properties": {
        "id": 1277,
        "location": "Mazowe, Zimbabwe",
        "updated_at": "2024-01-26 05:14:34 UTC",
        "last_record_at": "2024-01-25 00:00:00 UTC",
        "total_7_days": 0,
        "total_30_days": 216.5
      }
    },
    {
      "type": "Feature",
      "geometry": {
        "type": "Point",
        "coordinates": [
          152.755,
          -26.37
        ]
      },
      "properties": {
        "id": 209,
        "location": "Coles Creek, Australia",
        "updated_at": "2024-01-01 02:52:04 UTC",
        "last_record_at": "2023-12-31 00:00:00 UTC"
      }
    },
    {
      "type": "Feature",
      "geometry": {
        "type": "Point",
        "coordinates": [
          117.375,
          -33.365
        ]
      },
      "properties": {
        "id": 1264,
        "location": "Australia",
        "updated_at": "2023-12-04 12:19:00 UTC",
        "last_record_at": "2023-12-04 00:00:00 UTC"
      }
    },
    {
      "type": "Feature",
      "geometry": {
        "type": "Point",
        "coordinates": [
          "133.000",
          "-27.000"
        ]
      },
      "properties": {
        "id": 563,
        "location": "St Morris, Australia",
        "updated_at": "2024-01-04 07:32:32 UTC",
        "last_record_at": "2023-12-29 00:00:00 UTC"
      }
    },
    {
      "type": "Feature",
      "geometry": {
        "type": "Point",
        "coordinates": [
          145.469,
          -17.27
        ]
      },
      "properties": {
        "id": 1148,
        "location": "Atherton, Australia",
        "updated_at": "2024-01-05 02:41:08 UTC",
        "last_record_at": "2023-12-27 00:00:00 UTC"
      }
    },
    {
      "type": "Feature",
      "geometry": {
        "type": "Point",
        "coordinates": [
          145.681,
          -17.557
        ]
      },
      "properties": {
        "id": 1137,
        "location": "Innisfail, Australia",
        "updated_at": "2023-12-31 07:37:47 UTC",
        "last_record_at": "2023-12-27 00:00:00 UTC"
      }
    },
    {
      "type": "Feature",
      "geometry": {
        "type": "Point",
        "coordinates": [
          21.911,
          48.557
        ]
      },
      "properties": {
        "id": 1076,
        "location": "Kosice, Slovakia",
        "updated_at": "2023-12-15 06:12:37 UTC",
        "last_record_at": "2023-12-15 00:00:00 UTC"
      }
    },
    {
      "type": "Feature",
      "geometry": {
        "type": "Point",
        "coordinates": [
          80.74,
          16.08
        ]
      },
      "properties": {
        "id": 1254,
        "location": "Guntur, India",
        "updated_at": "2023-12-31 18:20:27 UTC",
        "last_record_at": "2023-12-06 00:00:00 UTC"
      }
    },
    {
      "type": "Feature",
      "geometry": {
        "type": "Point",
        "coordinates": [
          "133.000",
          "-27.000"
        ]
      },
      "properties": {
        "id": 748,
        "location": "Bolgart, Australia",
        "updated_at": "2023-12-19 02:04:26 UTC",
        "last_record_at": "2023-12-19 00:00:00 UTC"
      }
    },
    {
      "type": "Feature",
      "geometry": {
        "type": "Point",
        "coordinates": [
          167.712,
          -45.446
        ]
      },
      "properties": {
        "id": 1284,
        "location": "Te Anau, New Zealand",
        "updated_at": "2023-12-24 20:06:08 UTC",
        "last_record_at": "2023-12-25 00:00:00 UTC"
      }
    },
    {
      "type": "Feature",
      "geometry": {
        "type": "Point",
        "coordinates": [
          80.74,
          16.08
        ]
      },
      "properties": {
        "id": 1077,
        "location": "Guntur, India",
        "updated_at": "2023-12-31 18:28:59 UTC",
        "last_record_at": "2023-12-06 00:00:00 UTC"
      }
    },
    {
      "type": "Feature",
      "geometry": {
        "type": "Point",
        "coordinates": [
          80.72,
          16.074
        ]
      },
      "properties": {
        "id": 1078,
        "location": "Guntur, India",
        "updated_at": "2023-12-31 18:15:49 UTC",
        "last_record_at": "2023-12-06 00:00:00 UTC"
      }
    },
    {
      "type": "Feature",
      "geometry": {
        "type": "Point",
        "coordinates": [
          145.469,
          -17.27
        ]
      },
      "properties": {
        "id": 1164,
        "location": "Atherton, Australia",
        "updated_at": "2024-01-05 02:08:58 UTC",
        "last_record_at": "2023-12-31 00:00:00 UTC"
      }
    },
    {
      "type": "Feature",
      "geometry": {
        "type": "Point",
        "coordinates": [
          18.5,
          -12.5
        ]
      },
      "properties": {
        "id": 1128,
        "location": "Angola",
        "updated_at": "2023-12-03 06:47:11 UTC",
        "last_record_at": "2023-12-02 00:00:00 UTC"
      }
    },
    {
      "type": "Feature",
      "geometry": {
        "type": "Point",
        "coordinates": [
          -68.888,
          9.0
        ]
      },
      "properties": {
        "id": 1072,
        "location": "Acarigua, Venezuela (Bolivarian Republic of)",
        "updated_at": "2023-12-28 14:01:43 UTC",
        "last_record_at": "2023-12-28 00:00:00 UTC"
      }
    },
    {
      "type": "Feature",
      "geometry": {
        "type": "Point",
        "coordinates": [
          19.031,
          -34.203
        ]
      },
      "properties": {
        "id": 1207,
        "location": "Hermanus, South Africa",
        "updated_at": "2023-12-31 04:00:13 UTC",
        "last_record_at": "2023-12-31 00:00:00 UTC"
      }
    },
    {
      "type": "Feature",
      "geometry": {
        "type": "Point",
        "coordinates": [
          152.784,
          -26.592
        ]
      },
      "properties": {
        "id": 453,
        "location": "Coolabine",
        "updated_at": "2023-12-31 04:21:14 UTC",
        "last_record_at": "2023-12-30 00:00:00 UTC"
      }
    },
    {
      "type": "Feature",
      "geometry": {
        "type": "Point",
        "coordinates": [
          115.747,
          -32.523
        ]
      },
      "properties": {
        "id": 1118,
        "location": "Mandurah, Australia",
        "updated_at": "2023-11-29 08:25:15 UTC",
        "last_record_at": "2023-11-28 00:00:00 UTC"
      }
    },
    {
      "type": "Feature",
      "geometry": {
        "type": "Point",
        "coordinates": [
          117.892,
          -35.017
        ]
      },
      "properties": {
        "id": 1265,
        "location": "Albany, Australia",
        "updated_at": "2024-01-01 03:05:55 UTC",
        "last_record_at": "2023-11-29 00:00:00 UTC"
      }
    },
    {
      "type": "Feature",
      "geometry": {
        "type": "Point",
        "coordinates": [
          0.117,
          52.2
        ]
      },
      "properties": {
        "id": 1208,
        "location": "Cambridge, United Kingdom of Great Britain and Northern Ireland",
        "updated_at": "2023-11-07 16:17:13 UTC",
        "last_record_at": "2023-11-06 00:00:00 UTC"
      }
    },
    {
      "type": "Feature",
      "geometry": {
        "type": "Point",
        "coordinates": [
          115.705,
          -31.634
        ]
      },
      "properties": {
        "id": 764,
        "location": "Perth, Australia",
        "updated_at": "2023-12-01 09:00:07 UTC",
        "last_record_at": "2023-11-30 00:00:00 UTC"
      }
    },
    {
      "type": "Feature",
      "geometry": {
        "type": "Point",
        "coordinates": [
          31.148,
          -17.747
        ]
      },
      "properties": {
        "id": 1276,
        "location": "Harare, Zimbabwe",
        "updated_at": "2023-11-09 03:45:52 UTC",
        "last_record_at": "2023-11-08 00:00:00 UTC"
      }
    },
    {
      "type": "Feature",
      "geometry": {
        "type": "Point",
        "coordinates": [
          130.781,
          -13.154
        ]
      },
      "properties": {
        "id": 1279,
        "location": "Darwin, Australia",
        "updated_at": "2023-11-28 09:13:22 UTC",
        "last_record_at": "2023-11-27 00:00:00 UTC"
      }
    },
    {
      "type": "Feature",
      "geometry": {
        "type": "Point",
        "coordinates": [
          153.035,
          -27.455
        ]
      },
      "properties": {
        "id": 1278,
        "location": "Brisbane, Australia",
        "updated_at": "2023-11-24 23:17:44 UTC",
        "last_record_at": "2023-11-25 00:00:00 UTC"
      }
    },
    {
      "type": "Feature",
      "geometry": {
        "type": "Point",
        "coordinates": [
          115.349,
          -33.656
        ]
      },
      "properties": {
        "id": 1255,
        "location": "Busselton, Australia",
        "updated_at": "2023-11-28 23:43:03 UTC",
        "last_record_at": "2023-10-30 00:00:00 UTC"
      }
    },
    {
      "type": "Feature",
      "geometry": {
        "type": "Point",
        "coordinates": [
          145.824,
          -38.432
        ]
      },
      "properties": {
        "id": 994,
        "location": "Melbourne, Australia",
        "updated_at": "2023-10-14 07:44:08 UTC",
        "last_record_at": "2023-10-14 00:00:00 UTC"
      }
    },
    {
      "type": "Feature",
      "geometry": {
        "type": "Point",
        "coordinates": [
          0.0,
          0.0
        ]
      },
      "properties": {
        "id": 743,
        "location": "Bodmin, United Kingdom",
        "updated_at": "2023-09-17 11:57:48 UTC",
        "last_record_at": "2023-09-16 00:00:00 UTC"
      }
    },
    {
      "type": "Feature",
      "geometry": {
        "type": "Point",
        "coordinates": [
          -92.748,
          44.033
        ]
      },
      "properties": {
        "id": 1248,
        "location": "Kasson, United States of America",
        "updated_at": "2023-10-05 01:07:07 UTC",
        "last_record_at": "2023-09-27 00:00:00 UTC"
      }
    },
    {
      "type": "Feature",
      "geometry": {
        "type": "Point",
        "coordinates": [
          153.035,
          -27.455
        ]
      },
      "properties": {
        "id": 879,
        "location": "Brisbane, Australia",
        "updated_at": "2023-09-28 07:30:03 UTC",
        "last_record_at": "2023-09-28 00:00:00 UTC"
      }
    },
    {
      "type": "Feature",
      "geometry": {
        "type": "Point",
        "coordinates": [
          119.069,
          -32.731
        ]
      },
      "properties": {
        "id": 1071,
        "location": "Australia",
        "updated_at": "2023-09-14 00:59:27 UTC",
        "last_record_at": "2023-09-14 00:00:00 UTC"
      }
    },
    {
      "type": "Feature",
      "geometry": {
        "type": "Point",
        "coordinates": [
          0.0,
          0.0
        ]
      },
      "properties": {
        "id": 1270,
        "location": "Abingdon, United States of America",
        "updated_at": "2023-09-21 22:13:38 UTC",
        "last_record_at": "2023-09-20 00:00:00 UTC"
      }
    },
    {
      "type": "Feature",
      "geometry": {
        "type": "Point",
        "coordinates": [
          176.854,
          -39.418
        ]
      },
      "properties": {
        "id": 835,
        "location": "Napier, New Zealand",
        "updated_at": "2023-10-03 04:00:48 UTC",
        "last_record_at": "2023-09-30 00:00:00 UTC"
      }
    },
    {
      "type": "Feature",
      "geometry": {
        "type": "Point",
        "coordinates": [
          144.371,
          -36.198
        ]
      },
      "properties": {
        "id": 1269,
        "location": "Echuca, Australia",
        "updated_at": "2023-09-01 01:49:43 UTC",
        "last_record_at": "2023-08-29 00:00:00 UTC"
      }
    },
    {
      "type": "Feature",
      "geometry": {
        "type": "Point",
        "coordinates": [
          145.576,
          -35.345
        ]
      },
      "properties": {
        "id": 1257,
        "location": "Australia",
        "updated_at": "2023-08-17 22:18:04 UTC",
        "last_record_at": "2023-08-17 00:00:00 UTC"
      }
    },
    {
      "type": "Feature",
      "geometry": {
        "type": "Point",
        "coordinates": [
          145.53,
          -35.346
        ]
      },
      "properties": {
        "id": 1260,
        "location": "Australia",
        "updated_at": "2023-08-17 22:17:28 UTC",
        "last_record_at": "2023-08-18 00:00:00 UTC"
      }
    },
    {
      "type": "Feature",
      "geometry": {
        "type": "Point",
        "coordinates": [
          "133.000",
          "-27.000"
        ]
      },
      "properties": {
        "id": 697,
        "location": "CROYDON NORTH, Australia",
        "updated_at": "2023-08-27 04:31:59 UTC",
        "last_record_at": "2023-08-24 00:00:00 UTC"
      }
    },
    {
      "type": "Feature",
      "geometry": {
        "type": "Point",
        "coordinates": [
          145.569,
          -35.371
        ]
      },
      "properties": {
        "id": 1261,
        "location": "Australia",
        "updated_at": "2023-08-17 22:19:24 UTC",
        "last_record_at": "2023-08-18 00:00:00 UTC"
      }
    },
    {
      "type": "Feature",
      "geometry": {
        "type": "Point",
        "coordinates": [
          145.833,
          -35.154
        ]
      },
      "properties": {
        "id": 1259,
        "location": "Australia",
        "updated_at": "2023-08-17 22:18:19 UTC",
        "last_record_at": "2023-08-18 00:00:00 UTC"
      }
    },
    {
      "type": "Feature",
      "geometry": {
        "type": "Point",
        "coordinates": [
          145.469,
          -35.396
        ]
      },
      "properties": {
        "id": 1258,
        "location": "Australia",
        "updated_at": "2023-07-16 08:54:49 UTC",
        "last_record_at": "2023-07-06 00:00:00 UTC"
      }
    },
    {
      "type": "Feature",
      "geometry": {
        "type": "Point",
        "coordinates": [
          115.65,
          -33.344
        ]
      },
      "properties": {
        "id": 1271,
        "location": "Bunbury, Australia",
        "updated_at": "2023-09-04 01:03:03 UTC",
        "last_record_at": "2023-07-06 00:00:00 UTC"
      }
    },
    {
      "type": "Feature",
      "geometry": {
        "type": "Point",
        "coordinates": [
          144.332,
          -37.385
        ]
      },
      "properties": {
        "id": 765,
        "location": "Australia",
        "updated_at": "2023-07-10 05:41:44 UTC",
        "last_record_at": "2023-07-10 00:00:00 UTC"
      }
    },
    {
      "type": "Feature",
      "geometry": {
        "type": "Point",
        "coordinates": [
          146.77,
          -19.25
        ]
      },
      "properties": {
        "id": 1035,
        "location": "Townsville, Australia",
        "updated_at": "2023-07-03 20:37:21 UTC",
        "last_record_at": "2023-07-04 00:00:00 UTC"
      }
    },
    {
      "type": "Feature",
      "geometry": {
        "type": "Point",
        "coordinates": [
          145.469,
          -17.27
        ]
      },
      "properties": {
        "id": 1138,
        "location": "Atherton, Australia",
        "updated_at": "2023-07-05 21:54:38 UTC",
        "last_record_at": "2023-07-05 00:00:00 UTC"
      }
    },
    {
      "type": "Feature",
      "geometry": {
        "type": "Point",
        "coordinates": [
          172.867,
          -43.691
        ]
      },
      "properties": {
        "id": 721,
        "location": "Akaroa, New Zealand",
        "updated_at": "2023-07-24 23:14:44 UTC",
        "last_record_at": "2023-07-23 00:00:00 UTC"
      }
    },
    {
      "type": "Feature",
      "geometry": {
        "type": "Point",
        "coordinates": [
          145.455,
          -35.402
        ]
      },
      "properties": {
        "id": 1263,
        "location": "Australia",
        "updated_at": "2023-06-28 09:19:14 UTC",
        "last_record_at": "2023-06-28 00:00:00 UTC"
      }
    },
    {
      "type": "Feature",
      "geometry": {
        "type": "Point",
        "coordinates": [
          145.856,
          -35.091
        ]
      },
      "properties": {
        "id": 1262,
        "location": "Australia",
        "updated_at": "2023-06-28 09:08:23 UTC",
        "last_record_at": "2023-06-28 00:00:00 UTC"
      }
    },
    {
      "type": "Feature",
      "geometry": {
        "type": "Point",
        "coordinates": [
          30.902,
          -25.534
        ]
      },
      "properties": {
        "id": 951,
        "location": "Nelspruit, South Africa",
        "updated_at": "2023-05-09 04:01:50 UTC",
        "last_record_at": "2023-05-09 00:00:00 UTC"
      }
    },
    {
      "type": "Feature",
      "geometry": {
        "type": "Point",
        "coordinates": [
          28.229,
          -25.707
        ]
      },
      "properties": {
        "id": 921,
        "location": "Pretoria, South Africa",
        "updated_at": "2023-05-08 13:12:41 UTC",
        "last_record_at": "2023-05-08 00:00:00 UTC"
      }
    },
    {
      "type": "Feature",
      "geometry": {
        "type": "Point",
        "coordinates": [
          29.45,
          -23.89
        ]
      },
      "properties": {
        "id": 939,
        "location": "Polokwane, South Africa",
        "updated_at": "2023-05-18 07:52:14 UTC",
        "last_record_at": "2023-05-16 00:00:00 UTC"
      }
    },
    {
      "type": "Feature",
      "geometry": {
        "type": "Point",
        "coordinates": [
          17.084,
          -22.57
        ]
      },
      "properties": {
        "id": 894,
        "location": "Windhoek, Namibia",
        "updated_at": "2023-05-03 07:26:58 UTC",
        "last_record_at": "2023-05-02 00:00:00 UTC"
      }
    }
  ]
}