{
  "type": "FeatureCollection",
  "features": [
    {
      "type": "Feature",
      "geometry": {
        "type": "Point",
        "coordinates": [
          152.351,
          -24.879
        ]
      },
      "properties": {
        "id": 947,
        "location": "Bundaberg, Australia",
        "updated_at": "2024-08-14 07:45:53 UTC",
        "last_record_at": "2024-08-14 00:00:00 UTC",
        "total_7_days": 103.0,
        "total_30_days": 104.5
      }
    },
    {
      "type": "Feature",
      "geometry": {
        "type": "Point",
        "coordinates": [
          152.395,
          -26.05
        ]
      },
      "properties": {
        "id": 1290,
        "location": "Gympie, Australia",
        "updated_at": "2024-08-15 04:24:14 UTC",
        "last_record_at": "2024-08-14 00:00:00 UTC",
        "total_7_days": 125.75,
        "total_30_days": 126.75
      }
    },
    {
      "type": "Feature",
      "geometry": {
        "type": "Point",
        "coordinates": [
          152.344,
          -27.587
        ]
      },
      "properties": {
        "id": 754,
        "location": "Toowoomba, Australia",
        "updated_at": "2024-08-15 06:45:41 UTC",
        "last_record_at": "2024-08-15 00:00:00 UTC",
        "total_7_days": 34.5,
        "total_30_days": 35.5
      }
    },
    {
      "type": "Feature",
      "geometry": {
        "type": "Point",
        "coordinates": [
          "133.000",
          "-27.000"
        ]
      },
      "properties": {
        "id": 515,
        "location": "Blackbutt, Australia",
        "updated_at": "2024-08-14 00:33:09 UTC",
        "last_record_at": "2024-08-13 00:00:00 UTC",
        "total_7_days": 53.0,
        "total_30_days": 58.0
      }
    },
    {
      "type": "Feature",
      "geometry": {
        "type": "Point",
        "coordinates": [
          26.22,
          -29.078
        ]
      },
      "properties": {
        "id": 768,
        "location": "Bloemfontein, South Africa",
        "updated_at": "2024-08-03 07:48:03 UTC",
        "last_record_at": "2024-08-02 00:00:00 UTC",
        "total_7_days": 0,
        "total_30_days": 4.0
      }
    },
    {
      "type": "Feature",
      "geometry": {
        "type": "Point",
        "coordinates": [
          150.786,
          -31.527
        ]
      },
      "properties": {
        "id": 299,
        "location": "Quirindi",
        "updated_at": "2024-08-15 06:26:09 UTC",
        "last_record_at": "2024-08-14 00:00:00 UTC",
        "total_7_days": 14.5,
        "total_30_days": 85.2
      }
    },
    {
      "type": "Feature",
      "geometry": {
        "type": "Point",
        "coordinates": [
          152.462,
          -31.898
        ]
      },
      "properties": {
        "id": 775,
        "location": "Taree, Australia",
        "updated_at": "2024-08-14 23:08:02 UTC",
        "last_record_at": "2024-08-14 00:00:00 UTC",
        "total_7_days": 18.0,
        "total_30_days": 40.0
      }
    },
    {
      "type": "Feature",
      "geometry": {
        "type": "Point",
        "coordinates": [
          121.861,
          -33.833
        ]
      },
      "properties": {
        "id": 904,
        "location": "Esperance, Australia",
        "updated_at": "2024-08-15 01:06:49 UTC",
        "last_record_at": "2024-08-15 00:00:00 UTC",
        "total_7_days": 7.7,
        "total_30_days": 94.5
      }
    },
    {
      "type": "Feature",
      "geometry": {
        "type": "Point",
        "coordinates": [
          133.0,
          -27.0
        ]
      },
      "properties": {
        "id": 1394,
        "location": "Australia",
        "updated_at": "2024-08-14 00:22:27 UTC",
        "last_record_at": "2024-08-14 00:00:00 UTC",
        "total_7_days": 128.0,
        "total_30_days": 128.0
      }
    },
    {
      "type": "Feature",
      "geometry": {
        "type": "Point",
        "coordinates": [
          -3.533,
          55.883
        ]
      },
      "properties": {
        "id": 938,
        "location": "Livingston, United Kingdom of Great Britain and Northern Ireland",
        "updated_at": "2024-08-07 12:59:24 UTC",
        "last_record_at": "2024-08-06 00:00:00 UTC",
        "total_7_days": 0,
        "total_30_days": 28.5
      }
    },
    {
      "type": "Feature",
      "geometry": {
        "type": "Point",
        "coordinates": [
          138.552,
          -34.898
        ]
      },
      "properties": {
        "id": 507,
        "location": "Beverley, Australia",
        "updated_at": "2024-08-15 08:25:24 UTC",
        "last_record_at": "2024-08-15 00:00:00 UTC",
        "total_7_days": 7.0,
        "total_30_days": 42.7
      }
    },
    {
      "type": "Feature",
      "geometry": {
        "type": "Point",
        "coordinates": [
          118.78,
          -32.87
        ]
      },
      "properties": {
        "id": 874,
        "location": "Australia",
        "updated_at": "2024-08-13 23:23:02 UTC",
        "last_record_at": "2024-08-14 00:00:00 UTC",
        "total_7_days": 1.75,
        "total_30_days": 54.5
      }
    },
    {
      "type": "Feature",
      "geometry": {
        "type": "Point",
        "coordinates": [
          144.93,
          -17.345
        ]
      },
      "properties": {
        "id": 818,
        "location": "Atherton, Australia",
        "updated_at": "2024-08-13 21:35:31 UTC",
        "last_record_at": "2024-08-14 00:00:00 UTC",
        "total_7_days": 9.0,
        "total_30_days": 9.0
      }
    },
    {
      "type": "Feature",
      "geometry": {
        "type": "Point",
        "coordinates": [
          152.938,
          -29.712
        ]
      },
      "properties": {
        "id": 1317,
        "location": "Grafton, Australia",
        "updated_at": "2024-08-14 21:31:05 UTC",
        "last_record_at": "2024-08-15 00:00:00 UTC",
        "total_7_days": 182.5,
        "total_30_days": 192.5
      }
    },
    {
      "type": "Feature",
      "geometry": {
        "type": "Point",
        "coordinates": [
          "133.000",
          "-27.000"
        ]
      },
      "properties": {
        "id": 712,
        "location": "Kenton Valley, Australia",
        "updated_at": "2024-08-14 22:53:55 UTC",
        "last_record_at": "2024-08-14 00:00:00 UTC",
        "total_7_days": 3.0,
        "total_30_days": 76.0
      }
    },
    {
      "type": "Feature",
      "geometry": {
        "type": "Point",
        "coordinates": [
          -3.53,
          50.7
        ]
      },
      "properties": {
        "id": 1210,
        "location": "Exeter, United Kingdom of Great Britain and Northern Ireland",
        "updated_at": "2024-08-13 15:54:07 UTC",
        "last_record_at": "2024-08-13 00:00:00 UTC",
        "total_7_days": 0.0,
        "total_30_days": 18.0
      }
    },
    {
      "type": "Feature",
      "geometry": {
        "type": "Point",
        "coordinates": [
          -2.733,
          52.717
        ]
      },
      "properties": {
        "id": 1028,
        "location": "Shrewsbury, United Kingdom of Great Britain and Northern Ireland",
        "updated_at": "2024-08-14 09:11:28 UTC",
        "last_record_at": "2024-08-14 00:00:00 UTC",
        "total_7_days": 25.0,
        "total_30_days": 60.0
      }
    },
    {
      "type": "Feature",
      "geometry": {
        "type": "Point",
        "coordinates": [
          150.469,
          -33.726
        ]
      },
      "properties": {
        "id": 720,
        "location": "Hazelbrook, Australia",
        "updated_at": "2024-08-15 00:52:35 UTC",
        "last_record_at": "2024-08-15 00:00:00 UTC",
        "total_7_days": 21.75,
        "total_30_days": 36.0
      }
    },
    {
      "type": "Feature",
      "geometry": {
        "type": "Point",
        "coordinates": [
          -85.86,
          11.25
        ]
      },
      "properties": {
        "id": 1249,
        "location": "San Juan del Sur, Nicaragua",
        "updated_at": "2024-08-12 22:13:14 UTC",
        "last_record_at": "2024-08-12 00:00:00 UTC",
        "total_7_days": 0.9,
        "total_30_days": 7.0
      }
    },
    {
      "type": "Feature",
      "geometry": {
        "type": "Point",
        "coordinates": [
          "133.000",
          "-27.000"
        ]
      },
      "properties": {
        "id": 714,
        "location": "Kersbrook, Australia",
        "updated_at": "2024-08-15 07:37:25 UTC",
        "last_record_at": "2024-08-15 00:00:00 UTC",
        "total_7_days": 5.5,
        "total_30_days": 58.5
      }
    },
    {
      "type": "Feature",
      "geometry": {
        "type": "Point",
        "coordinates": [
          133.0,
          -27.0
        ]
      },
      "properties": {
        "id": 813,
        "location": "Australia",
        "updated_at": "2024-08-08 09:21:47 UTC",
        "last_record_at": "2024-08-05 00:00:00 UTC",
        "total_7_days": 0,
        "total_30_days": 8.0
      }
    },
    {
      "type": "Feature",
      "geometry": {
        "type": "Point",
        "coordinates": [
          141.433,
          -31.95
        ]
      },
      "properties": {
        "id": 1209,
        "location": "Broken Hill, Australia",
        "updated_at": "2024-08-05 21:39:56 UTC",
        "last_record_at": "2024-08-05 00:00:00 UTC",
        "total_7_days": 0,
        "total_30_days": 5.0
      }
    },
    {
      "type": "Feature",
      "geometry": {
        "type": "Point",
        "coordinates": [
          115.801,
          -32.035
        ]
      },
      "properties": {
        "id": 571,
        "location": "Melville, Australia",
        "updated_at": "2024-08-15 00:54:37 UTC",
        "last_record_at": "2024-08-15 00:00:00 UTC",
        "total_7_days": 15.8,
        "total_30_days": 181.1
      }
    },
    {
      "type": "Feature",
      "geometry": {
        "type": "Point",
        "coordinates": [
          115.84,
          -31.955
        ]
      },
      "properties": {
        "id": 873,
        "location": "Perth, Australia",
        "updated_at": "2024-08-14 14:55:47 UTC",
        "last_record_at": "2024-08-12 00:00:00 UTC",
        "total_7_days": 4.5,
        "total_30_days": 160.5
      }
    },
    {
      "type": "Feature",
      "geometry": {
        "type": "Point",
        "coordinates": [
          145.283,
          -38.1
        ]
      },
      "properties": {
        "id": 836,
        "location": "Cranbourne, Australia",
        "updated_at": "2024-08-06 12:13:34 UTC",
        "last_record_at": "2024-08-04 00:00:00 UTC",
        "total_7_days": 0,
        "total_30_days": 48.5
      }
    },
    {
      "type": "Feature",
      "geometry": {
        "type": "Point",
        "coordinates": [
          148.444,
          -33.909
        ]
      },
      "properties": {
        "id": 465,
        "location": "Bumbaldry",
        "updated_at": "2024-08-15 03:58:29 UTC",
        "last_record_at": "2024-08-14 00:00:00 UTC",
        "total_7_days": 10.0,
        "total_30_days": 21.0
      }
    },
    {
      "type": "Feature",
      "geometry": {
        "type": "Point",
        "coordinates": [
          -92.748,
          44.033
        ]
      },
      "properties": {
        "id": 1248,
        "location": "Kasson, United States of America",
        "updated_at": "2024-08-08 19:57:51 UTC",
        "last_record_at": "2024-08-06 00:00:00 UTC",
        "total_7_days": 0,
        "total_30_days": 2.0
      }
    },
    {
      "type": "Feature",
      "geometry": {
        "type": "Point",
        "coordinates": [
          143.84,
          -37.56
        ]
      },
      "properties": {
        "id": 1280,
        "location": "Ballarat, Australia",
        "updated_at": "2024-08-08 22:55:40 UTC",
        "last_record_at": "2024-08-09 00:00:00 UTC",
        "total_7_days": 3.5,
        "total_30_days": 57.5
      }
    },
    {
      "type": "Feature",
      "geometry": {
        "type": "Point",
        "coordinates": [
          "24.000",
          "-29.000"
        ]
      },
      "properties": {
        "id": 694,
        "location": "Woodland Hills, South Africa",
        "updated_at": "2024-08-02 05:55:59 UTC",
        "last_record_at": "2024-08-01 00:00:00 UTC",
        "total_7_days": 0,
        "total_30_days": 6.0
      }
    },
    {
      "type": "Feature",
      "geometry": {
        "type": "Point",
        "coordinates": [
          118.78,
          -32.75
        ]
      },
      "properties": {
        "id": 917,
        "location": "Australia",
        "updated_at": "2024-08-14 00:28:10 UTC",
        "last_record_at": "2024-08-14 00:00:00 UTC",
        "total_7_days": 2.5,
        "total_30_days": 60.75
      }
    },
    {
      "type": "Feature",
      "geometry": {
        "type": "Point",
        "coordinates": [
          150.917,
          -31.103
        ]
      },
      "properties": {
        "id": 816,
        "location": "Tamworth, Australia",
        "updated_at": "2024-08-15 05:28:03 UTC",
        "last_record_at": "2024-08-15 00:00:00 UTC",
        "total_7_days": 26.0,
        "total_30_days": 112.0
      }
    },
    {
      "type": "Feature",
      "geometry": {
        "type": "Point",
        "coordinates": [
          153.133,
          -26.8
        ]
      },
      "properties": {
        "id": 837,
        "location": "Caloundra, Australia",
        "updated_at": "2024-08-14 03:57:43 UTC",
        "last_record_at": "2024-08-14 00:00:00 UTC",
        "total_7_days": 232.0,
        "total_30_days": 236.5
      }
    },
    {
      "type": "Feature",
      "geometry": {
        "type": "Point",
        "coordinates": [
          151.153,
          -28.639
        ]
      },
      "properties": {
        "id": 443,
        "location": "Brush Creek",
        "updated_at": "2024-08-15 07:05:47 UTC",
        "last_record_at": "2024-08-14 00:00:00 UTC",
        "total_7_days": 32.0,
        "total_30_days": 52.0
      }
    },
    {
      "type": "Feature",
      "geometry": {
        "type": "Point",
        "coordinates": [
          153.035,
          -27.455
        ]
      },
      "properties": {
        "id": 1313,
        "location": "Brisbane, Australia",
        "updated_at": "2024-08-14 21:08:34 UTC",
        "last_record_at": "2024-08-15 00:00:00 UTC",
        "total_7_days": 67.2,
        "total_30_days": 67.2
      }
    },
    {
      "type": "Feature",
      "geometry": {
        "type": "Point",
        "coordinates": [
          146.007,
          -17.808
        ]
      },
      "properties": {
        "id": 59,
        "location": "El arish",
        "updated_at": "2024-08-12 04:49:21 UTC",
        "last_record_at": "2024-08-12 00:00:00 UTC",
        "total_7_days": 62.5,
        "total_30_days": 165.5
      }
    },
    {
      "type": "Feature",
      "geometry": {
        "type": "Point",
        "coordinates": [
          141.573,
          -38.114
        ]
      },
      "properties": {
        "id": 152,
        "location": "Heywood, Australia",
        "updated_at": "2024-08-15 01:10:42 UTC",
        "last_record_at": "2024-08-14 00:00:00 UTC",
        "total_7_days": 5.0,
        "total_30_days": 74.5
      }
    },
    {
      "type": "Feature",
      "geometry": {
        "type": "Point",
        "coordinates": [
          133.0,
          -27.0
        ]
      },
      "properties": {
        "id": 1132,
        "location": "Australia",
        "updated_at": "2024-08-15 05:13:24 UTC",
        "last_record_at": "2024-08-14 00:00:00 UTC",
        "total_7_days": 224.0,
        "total_30_days": 224.0
      }
    },
    {
      "type": "Feature",
      "geometry": {
        "type": "Point",
        "coordinates": [
          174.323,
          -35.726
        ]
      },
      "properties": {
        "id": 1029,
        "location": "Whangarei, New Zealand",
        "updated_at": "2024-08-12 20:32:22 UTC",
        "last_record_at": "2024-08-12 00:00:00 UTC",
        "total_7_days": 7.0,
        "total_30_days": 218.0
      }
    },
    {
      "type": "Feature",
      "geometry": {
        "type": "Point",
        "coordinates": [
          153.396,
          -28.119
        ]
      },
      "properties": {
        "id": 936,
        "location": "Gold Coast, Australia",
        "updated_at": "2024-08-14 20:30:02 UTC",
        "last_record_at": "2024-08-15 00:00:00 UTC",
        "total_7_days": 139.0,
        "total_30_days": 141.0
      }
    },
    {
      "type": "Feature",
      "geometry": {
        "type": "Point",
        "coordinates": [
          153.349,
          -28.4
        ]
      },
      "properties": {
        "id": 1143,
        "location": "Australia",
        "updated_at": "2024-08-13 22:23:46 UTC",
        "last_record_at": "2024-08-14 00:00:00 UTC",
        "total_7_days": 110.0,
        "total_30_days": 114.0
      }
    },
    {
      "type": "Feature",
      "geometry": {
        "type": "Point",
        "coordinates": [
          152.919,
          -31.445
        ]
      },
      "properties": {
        "id": 810,
        "location": "Port Macquarie, Australia",
        "updated_at": "2024-08-13 23:52:41 UTC",
        "last_record_at": "2024-08-14 00:00:00 UTC",
        "total_7_days": 44.0,
        "total_30_days": 54.0
      }
    },
    {
      "type": "Feature",
      "geometry": {
        "type": "Point",
        "coordinates": [
          "174.000",
          "-41.000"
        ]
      },
      "properties": {
        "id": 652,
        "location": "Hikuai, New Zealand",
        "updated_at": "2024-08-01 22:52:53 UTC",
        "last_record_at": "2024-08-01 00:00:00 UTC",
        "total_7_days": 0,
        "total_30_days": 173.0
      }
    },
    {
      "type": "Feature",
      "geometry": {
        "type": "Point",
        "coordinates": [
          "133.000",
          "-27.000"
        ]
      },
      "properties": {
        "id": 733,
        "location": "Bundanoon, Australia",
        "updated_at": "2024-08-13 23:54:09 UTC",
        "last_record_at": "2024-08-13 00:00:00 UTC",
        "total_7_days": 21.0,
        "total_30_days": 32.0
      }
    },
    {
      "type": "Feature",
      "geometry": {
        "type": "Point",
        "coordinates": [
          153.474,
          -28.282
        ]
      },
      "properties": {
        "id": 1167,
        "location": "Australia",
        "updated_at": "2024-08-14 21:20:10 UTC",
        "last_record_at": "2024-08-15 00:00:00 UTC",
        "total_7_days": 166.0,
        "total_30_days": 166.0
      }
    },
    {
      "type": "Feature",
      "geometry": {
        "type": "Point",
        "coordinates": [
          -97.908,
          38.067
        ]
      },
      "properties": {
        "id": 1326,
        "location": "Hutchinson, United States of America",
        "updated_at": "2024-08-15 12:14:14 UTC",
        "last_record_at": "2024-08-15 00:00:00 UTC",
        "total_7_days": 1.89,
        "total_30_days": 3.59
      }
    },
    {
      "type": "Feature",
      "geometry": {
        "type": "Point",
        "coordinates": [
          -68.888,
          9.0
        ]
      },
      "properties": {
        "id": 1072,
        "location": "Acarigua, Venezuela (Bolivarian Republic of)",
        "updated_at": "2024-08-13 23:59:06 UTC",
        "last_record_at": "2024-08-13 00:00:00 UTC",
        "total_7_days": 19.0,
        "total_30_days": 185.0
      }
    },
    {
      "type": "Feature",
      "geometry": {
        "type": "Point",
        "coordinates": [
          145.75,
          -16.931
        ]
      },
      "properties": {
        "id": 1146,
        "location": "Cairns, Australia",
        "updated_at": "2024-08-12 01:36:15 UTC",
        "last_record_at": "2024-08-12 00:00:00 UTC",
        "total_7_days": 14.0,
        "total_30_days": 50.0
      }
    },
    {
      "type": "Feature",
      "geometry": {
        "type": "Point",
        "coordinates": [
          30.97,
          -25.474
        ]
      },
      "properties": {
        "id": 950,
        "location": "Nelspruit, South Africa",
        "updated_at": "2024-08-15 08:19:58 UTC",
        "last_record_at": "2024-08-15 00:00:00 UTC",
        "total_7_days": 0.0,
        "total_30_days": 0.0
      }
    },
    {
      "type": "Feature",
      "geometry": {
        "type": "Point",
        "coordinates": [
          "133.000",
          "-27.000"
        ]
      },
      "properties": {
        "id": 638,
        "location": "Sutton Forest, Australia",
        "updated_at": "2024-08-15 06:47:12 UTC",
        "last_record_at": "2024-08-15 00:00:00 UTC",
        "total_7_days": 17.0,
        "total_30_days": 29.0
      }
    },
    {
      "type": "Feature",
      "geometry": {
        "type": "Point",
        "coordinates": [
          174.763,
          -36.848
        ]
      },
      "properties": {
        "id": 767,
        "location": "Auckland, New Zealand",
        "updated_at": "2024-08-04 21:51:03 UTC",
        "last_record_at": "2024-08-04 00:00:00 UTC",
        "total_7_days": 0,
        "total_30_days": 114.0
      }
    },
    {
      "type": "Feature",
      "geometry": {
        "type": "Point",
        "coordinates": [
          18.435,
          -33.92
        ]
      },
      "properties": {
        "id": 1153,
        "location": "Cape Town, South Africa",
        "updated_at": "2024-08-11 15:42:15 UTC",
        "last_record_at": "2024-08-10 00:00:00 UTC",
        "total_7_days": 34.0,
        "total_30_days": 246.5
      }
    },
    {
      "type": "Feature",
      "geometry": {
        "type": "Point",
        "coordinates": [
          151.376,
          -33.521
        ]
      },
      "properties": {
        "id": 1273,
        "location": "Sydney, Australia",
        "updated_at": "2024-08-12 23:32:11 UTC",
        "last_record_at": "2024-08-13 00:00:00 UTC",
        "total_7_days": 12.0,
        "total_30_days": 19.0
      }
    },
    {
      "type": "Feature",
      "geometry": {
        "type": "Point",
        "coordinates": [
          115.705,
          -31.634
        ]
      },
      "properties": {
        "id": 764,
        "location": "Perth, Australia",
        "updated_at": "2024-08-15 10:07:50 UTC",
        "last_record_at": "2024-08-15 00:00:00 UTC",
        "total_7_days": 20.5,
        "total_30_days": 184.0
      }
    },
    {
      "type": "Feature",
      "geometry": {
        "type": "Point",
        "coordinates": [
          115.882,
          -32.12
        ]
      },
      "properties": {
        "id": 903,
        "location": "Perth, Australia",
        "updated_at": "2024-08-15 00:16:35 UTC",
        "last_record_at": "2024-08-15 00:00:00 UTC",
        "total_7_days": 27.5,
        "total_30_days": 256.0
      }
    },
    {
      "type": "Feature",
      "geometry": {
        "type": "Point",
        "coordinates": [
          -82.202,
          31.532
        ]
      },
      "properties": {
        "id": 1362,
        "location": "United States of America",
        "updated_at": "2024-08-08 02:11:51 UTC",
        "last_record_at": "2024-08-06 00:00:00 UTC",
        "total_7_days": 0,
        "total_30_days": 15.4
      }
    },
    {
      "type": "Feature",
      "geometry": {
        "type": "Point",
        "coordinates": [
          146.259,
          -20.081
        ]
      },
      "properties": {
        "id": 958,
        "location": "Charters Towers, Australia",
        "updated_at": "2024-08-12 22:55:01 UTC",
        "last_record_at": "2024-08-12 00:00:00 UTC",
        "total_7_days": 43.0,
        "total_30_days": 43.0
      }
    },
    {
      "type": "Feature",
      "geometry": {
        "type": "Point",
        "coordinates": [
          152.807,
          -30.611
        ]
      },
      "properties": {
        "id": 619,
        "location": "Argents Hill, Australia",
        "updated_at": "2024-08-15 07:54:54 UTC",
        "last_record_at": "2024-08-14 00:00:00 UTC",
        "total_7_days": 72.1,
        "total_30_days": 86.4
      }
    },
    {
      "type": "Feature",
      "geometry": {
        "type": "Point",
        "coordinates": [
          153.035,
          -27.455
        ]
      },
      "properties": {
        "id": 888,
        "location": "Brisbane, Australia",
        "updated_at": "2024-08-13 02:09:50 UTC",
        "last_record_at": "2024-08-13 00:00:00 UTC",
        "total_7_days": 9.0,
        "total_30_days": 9.0
      }
    },
    {
      "type": "Feature",
      "geometry": {
        "type": "Point",
        "coordinates": [
          151.94,
          28.9
        ]
      },
      "properties": {
        "id": 370,
        "location": "Wallangarra, Australia",
        "updated_at": "2024-08-06 07:53:20 UTC",
        "last_record_at": "2024-08-05 00:00:00 UTC",
        "total_7_days": 0,
        "total_30_days": 25.0
      }
    },
    {
      "type": "Feature",
      "geometry": {
        "type": "Point",
        "coordinates": [
          "133.000",
          "-27.000"
        ]
      },
      "properties": {
        "id": 395,
        "location": "Wangandary Upper, Australia",
        "updated_at": "2024-08-06 06:45:06 UTC",
        "last_record_at": "2024-08-05 00:00:00 UTC",
        "total_7_days": 0,
        "total_30_days": 34.0
      }
    },
    {
      "type": "Feature",
      "geometry": {
        "type": "Point",
        "coordinates": [
          149.585,
          -33.412
        ]
      },
      "properties": {
        "id": 445,
        "location": "Bathurst",
        "updated_at": "2024-08-15 08:21:48 UTC",
        "last_record_at": "2024-08-14 00:00:00 UTC",
        "total_7_days": 29.5,
        "total_30_days": 56.5
      }
    },
    {
      "type": "Feature",
      "geometry": {
        "type": "Point",
        "coordinates": [
          -2.487,
          51.826
        ]
      },
      "properties": {
        "id": 885,
        "location": "United Kingdom of Great Britain and Northern Ireland",
        "updated_at": "2024-08-14 06:49:35 UTC",
        "last_record_at": "2024-08-14 00:00:00 UTC",
        "total_7_days": 0.45,
        "total_30_days": 1.35
      }
    },
    {
      "type": "Feature",
      "geometry": {
        "type": "Point",
        "coordinates": [
          118.738,
          -32.708
        ]
      },
      "properties": {
        "id": 1301,
        "location": "Australia",
        "updated_at": "2024-08-14 09:04:47 UTC",
        "last_record_at": "2024-08-13 00:00:00 UTC",
        "total_7_days": 1.5,
        "total_30_days": 56.25
      }
    },
    {
      "type": "Feature",
      "geometry": {
        "type": "Point",
        "coordinates": [
          115.349,
          -33.656
        ]
      },
      "properties": {
        "id": 1324,
        "location": "Busselton, Australia",
        "updated_at": "2024-08-14 00:23:46 UTC",
        "last_record_at": "2024-08-14 00:00:00 UTC",
        "total_7_days": 39.0,
        "total_30_days": 224.0
      }
    },
    {
      "type": "Feature",
      "geometry": {
        "type": "Point",
        "coordinates": [
          119.069,
          -32.731
        ]
      },
      "properties": {
        "id": 1071,
        "location": "Australia",
        "updated_at": "2024-08-09 01:33:32 UTC",
        "last_record_at": "2024-08-08 00:00:00 UTC",
        "total_7_days": 0,
        "total_30_days": 66.0
      }
    },
    {
      "type": "Feature",
      "geometry": {
        "type": "Point",
        "coordinates": [
          149.57,
          -33.42
        ]
      },
      "properties": {
        "id": 952,
        "location": "Bathurst, Australia",
        "updated_at": "2024-08-14 22:37:11 UTC",
        "last_record_at": "2024-08-14 00:00:00 UTC",
        "total_7_days": 31.0,
        "total_30_days": 56.0
      }
    },
    {
      "type": "Feature",
      "geometry": {
        "type": "Point",
        "coordinates": [
          133.0,
          -27.0
        ]
      },
      "properties": {
        "id": 812,
        "location": "Australia",
        "updated_at": "2024-08-08 09:21:38 UTC",
        "last_record_at": "2024-08-05 00:00:00 UTC",
        "total_7_days": 0,
        "total_30_days": 9.5
      }
    },
    {
      "type": "Feature",
      "geometry": {
        "type": "Point",
        "coordinates": [
          -7.738,
          52.121
        ]
      },
      "properties": {
        "id": 1272,
        "location": "Waterford, Ireland",
        "updated_at": "2024-08-15 08:13:10 UTC",
        "last_record_at": "2024-08-14 00:00:00 UTC",
        "total_7_days": 11.0,
        "total_30_days": 39.0
      }
    },
    {
      "type": "Feature",
      "geometry": {
        "type": "Point",
        "coordinates": [
          115.747,
          -32.523
        ]
      },
      "properties": {
        "id": 1118,
        "location": "Mandurah, Australia",
        "updated_at": "2024-08-15 04:31:04 UTC",
        "last_record_at": "2024-08-14 00:00:00 UTC",
        "total_7_days": 21.0,
        "total_30_days": 208.1
      }
    },
    {
      "type": "Feature",
      "geometry": {
        "type": "Point",
        "coordinates": [
          151.153,
          -28.629
        ]
      },
      "properties": {
        "id": 486,
        "location": "Brush Creek",
        "updated_at": "2024-08-15 07:05:35 UTC",
        "last_record_at": "2024-08-14 00:00:00 UTC",
        "total_7_days": 31.0,
        "total_30_days": 50.5
      }
    },
    {
      "type": "Feature",
      "geometry": {
        "type": "Point",
        "coordinates": [
          152.35,
          -27.459
        ]
      },
      "properties": {
        "id": 129,
        "location": "Spring Creek",
        "updated_at": "2024-08-14 21:05:35 UTC",
        "last_record_at": "2024-08-14 00:00:00 UTC",
        "total_7_days": 42.0,
        "total_30_days": 42.0
      }
    },
    {
      "type": "Feature",
      "geometry": {
        "type": "Point",
        "coordinates": [
          153.477,
          -28.759
        ]
      },
      "properties": {
        "id": 892,
        "location": "Lismore, Australia",
        "updated_at": "2024-08-14 19:49:51 UTC",
        "last_record_at": "2024-08-14 00:00:00 UTC",
        "total_7_days": 216.7,
        "total_30_days": 216.9
      }
    },
    {
      "type": "Feature",
      "geometry": {
        "type": "Point",
        "coordinates": [
          19.031,
          -34.203
        ]
      },
      "properties": {
        "id": 1207,
        "location": "Hermanus, South Africa",
        "updated_at": "2024-08-14 05:12:55 UTC",
        "last_record_at": "2024-08-14 00:00:00 UTC",
        "total_7_days": 79.0,
        "total_30_days": 236.0
      }
    },
    {
      "type": "Feature",
      "geometry": {
        "type": "Point",
        "coordinates": [
          152.95,
          -27.083
        ]
      },
      "properties": {
        "id": 1286,
        "location": "Caboolture, Australia",
        "updated_at": "2024-08-15 00:39:22 UTC",
        "last_record_at": "2024-08-15 00:00:00 UTC",
        "total_7_days": 110.0,
        "total_30_days": 110.0
      }
    },
    {
      "type": "Feature",
      "geometry": {
        "type": "Point",
        "coordinates": [
          0.0,
          0.0
        ]
      },
      "properties": {
        "id": 653,
        "location": "Marlesford, Woodbridge, England",
        "updated_at": "2024-08-12 13:08:46 UTC",
        "last_record_at": "2024-08-09 00:00:00 UTC",
        "total_7_days": 1.0,
        "total_30_days": 8.0
      }
    },
    {
      "type": "Feature",
      "geometry": {
        "type": "Point",
        "coordinates": [
          -5.801,
          57.374
        ]
      },
      "properties": {
        "id": 1119,
        "location": "Stirling, United Kingdom of Great Britain and Northern Ireland",
        "updated_at": "2024-08-12 07:26:21 UTC",
        "last_record_at": "2024-08-11 00:00:00 UTC",
        "total_7_days": 49.7,
        "total_30_days": 61.8
      }
    },
    {
      "type": "Feature",
      "geometry": {
        "type": "Point",
        "coordinates": [
          152.671,
          -26.189
        ]
      },
      "properties": {
        "id": 1289,
        "location": "Gympie, Australia",
        "updated_at": "2024-08-14 01:46:32 UTC",
        "last_record_at": "2024-08-13 00:00:00 UTC",
        "total_7_days": 90.0,
        "total_30_days": 90.0
      }
    },
    {
      "type": "Feature",
      "geometry": {
        "type": "Point",
        "coordinates": [
          152.95,
          -27.083
        ]
      },
      "properties": {
        "id": 1135,
        "location": "Caboolture, Australia",
        "updated_at": "2024-08-14 22:59:37 UTC",
        "last_record_at": "2024-08-15 00:00:00 UTC",
        "total_7_days": 94.5,
        "total_30_days": 96.5
      }
    },
    {
      "type": "Feature",
      "geometry": {
        "type": "Point",
        "coordinates": [
          30.98,
          -29.865
        ]
      },
      "properties": {
        "id": 1079,
        "location": "Durban, South Africa",
        "updated_at": "2024-08-15 04:38:55 UTC",
        "last_record_at": "2024-08-13 00:00:00 UTC",
        "total_7_days": 2.5,
        "total_30_days": 2.5
      }
    },
    {
      "type": "Feature",
      "geometry": {
        "type": "Point",
        "coordinates": [
          153.568,
          -28.861
        ]
      },
      "properties": {
        "id": 941,
        "location": "Ballina, Australia",
        "updated_at": "2024-08-14 20:56:43 UTC",
        "last_record_at": "2024-08-14 00:00:00 UTC",
        "total_7_days": 264.0,
        "total_30_days": 272.0
      }
    },
    {
      "type": "Feature",
      "geometry": {
        "type": "Point",
        "coordinates": [
          150.298,
          -34.657
        ]
      },
      "properties": {
        "id": 643,
        "location": "Bundanoon, Australia",
        "updated_at": "2024-08-15 02:35:33 UTC",
        "last_record_at": "2024-08-15 00:00:00 UTC",
        "total_7_days": 19.0,
        "total_30_days": 32.8
      }
    },
    {
      "type": "Feature",
      "geometry": {
        "type": "Point",
        "coordinates": [
          150.485,
          -33.517
        ]
      },
      "properties": {
        "id": 485,
        "location": "Bilpin",
        "updated_at": "2024-08-14 21:41:53 UTC",
        "last_record_at": "2024-08-15 00:00:00 UTC",
        "total_7_days": 16.0,
        "total_30_days": 37.0
      }
    },
    {
      "type": "Feature",
      "geometry": {
        "type": "Point",
        "coordinates": [
          18.472,
          -33.937
        ]
      },
      "properties": {
        "id": 884,
        "location": "Cape Town, South Africa",
        "updated_at": "2024-08-11 09:26:33 UTC",
        "last_record_at": "2024-08-11 00:00:00 UTC",
        "total_7_days": 40.0,
        "total_30_days": 140.0
      }
    },
    {
      "type": "Feature",
      "geometry": {
        "type": "Point",
        "coordinates": [
          "133.000",
          "-27.000"
        ]
      },
      "properties": {
        "id": 748,
        "location": "Bolgart, Australia",
        "updated_at": "2024-08-15 00:11:34 UTC",
        "last_record_at": "2024-08-15 00:00:00 UTC",
        "total_7_days": 11.5,
        "total_30_days": 129.0
      }
    },
    {
      "type": "Feature",
      "geometry": {
        "type": "Point",
        "coordinates": [
          152.938,
          -29.712
        ]
      },
      "properties": {
        "id": 1142,
        "location": "Grafton, Australia",
        "updated_at": "2024-08-14 19:58:51 UTC",
        "last_record_at": "2024-08-14 00:00:00 UTC",
        "total_7_days": 97.0,
        "total_30_days": 109.0
      }
    },
    {
      "type": "Feature",
      "geometry": {
        "type": "Point",
        "coordinates": [
          -81.805,
          35.344
        ]
      },
      "properties": {
        "id": 1285,
        "location": "United States of America",
        "updated_at": "2024-08-13 13:17:08 UTC",
        "last_record_at": "2024-08-13 00:00:00 UTC",
        "total_7_days": 0.81,
        "total_30_days": 10.38
      }
    },
    {
      "type": "Feature",
      "geometry": {
        "type": "Point",
        "coordinates": [
          149.014,
          -34.626
        ]
      },
      "properties": {
        "id": 475,
        "location": "Blakney Creek",
        "updated_at": "2024-08-14 04:08:00 UTC",
        "last_record_at": "2024-08-13 00:00:00 UTC",
        "total_7_days": 8.0,
        "total_30_days": 35.0
      }
    },
    {
      "type": "Feature",
      "geometry": {
        "type": "Point",
        "coordinates": [
          152.02,
          -28.229
        ]
      },
      "properties": {
        "id": 882,
        "location": "Warwick, Australia",
        "updated_at": "2024-08-14 07:17:47 UTC",
        "last_record_at": "2024-08-14 00:00:00 UTC",
        "total_7_days": 20.0,
        "total_30_days": 33.5
      }
    },
    {
      "type": "Feature",
      "geometry": {
        "type": "Point",
        "coordinates": [
          -1.317,
          51.4
        ]
      },
      "properties": {
        "id": 1299,
        "location": "Newbury, United Kingdom of Great Britain and Northern Ireland",
        "updated_at": "2024-08-15 04:23:18 UTC",
        "last_record_at": "2024-08-14 00:00:00 UTC",
        "total_7_days": 3.0,
        "total_30_days": 15.0
      }
    },
    {
      "type": "Feature",
      "geometry": {
        "type": "Point",
        "coordinates": [
          151.113,
          -29.767
        ]
      },
      "properties": {
        "id": 1291,
        "location": "Inverell, Australia",
        "updated_at": "2024-08-14 21:17:50 UTC",
        "last_record_at": "2024-08-14 00:00:00 UTC",
        "total_7_days": 41.0,
        "total_30_days": 75.0
      }
    },
    {
      "type": "Feature",
      "geometry": {
        "type": "Point",
        "coordinates": [
          118.87,
          -32.78
        ]
      },
      "properties": {
        "id": 875,
        "location": "Narrogin, Australia",
        "updated_at": "2024-08-13 01:16:25 UTC",
        "last_record_at": "2024-08-13 00:00:00 UTC",
        "total_7_days": 1.0,
        "total_30_days": 57.5
      }
    },
    {
      "type": "Feature",
      "geometry": {
        "type": "Point",
        "coordinates": [
          152.02,
          -28.229
        ]
      },
      "properties": {
        "id": 940,
        "location": "Warwick, Australia",
        "updated_at": "2024-08-15 06:04:52 UTC",
        "last_record_at": "2024-08-14 00:00:00 UTC",
        "total_7_days": 14.0,
        "total_30_days": 40.0
      }
    },
    {
      "type": "Feature",
      "geometry": {
        "type": "Point",
        "coordinates": [
          "133.000",
          "-27.000"
        ]
      },
      "properties": {
        "id": 603,
        "location": "Barragga Bay, Australia",
        "updated_at": "2024-08-13 23:17:01 UTC",
        "last_record_at": "2024-08-14 00:00:00 UTC",
        "total_7_days": 1.6,
        "total_30_days": 1.6
      }
    },
    {
      "type": "Feature",
      "geometry": {
        "type": "Point",
        "coordinates": [
          117.333,
          -35.002
        ]
      },
      "properties": {
        "id": 501,
        "location": "Ocean Beach, Australia",
        "updated_at": "2024-08-14 22:52:55 UTC",
        "last_record_at": "2024-08-14 00:00:00 UTC",
        "total_7_days": 56.0,
        "total_30_days": 201.5
      }
    },
    {
      "type": "Feature",
      "geometry": {
        "type": "Point",
        "coordinates": [
          "133.000",
          "-27.000"
        ]
      },
      "properties": {
        "id": 704,
        "location": "Beechforest, Australia",
        "updated_at": "2024-08-15 05:07:55 UTC",
        "last_record_at": "2024-08-15 00:00:00 UTC",
        "total_7_days": 16.5,
        "total_30_days": 179.0
      }
    },
    {
      "type": "Feature",
      "geometry": {
        "type": "Point",
        "coordinates": [
          18.435,
          -33.92
        ]
      },
      "properties": {
        "id": 1429,
        "location": "Cape Town, South Africa",
        "updated_at": "2024-07-13 10:23:24 UTC",
        "last_record_at": "2024-07-13 00:00:00 UTC"
      }
    },
    {
      "type": "Feature",
      "geometry": {
        "type": "Point",
        "coordinates": [
          152.351,
          -24.879
        ]
      },
      "properties": {
        "id": 948,
        "location": "Bundaberg, Australia",
        "updated_at": "2024-07-02 09:09:10 UTC",
        "last_record_at": "2024-07-02 00:00:00 UTC"
      }
    },
    {
      "type": "Feature",
      "geometry": {
        "type": "Point",
        "coordinates": [
          80.74,
          16.08
        ]
      },
      "properties": {
        "id": 1077,
        "location": "Guntur, India",
        "updated_at": "2024-07-31 09:46:58 UTC",
        "last_record_at": "2024-07-31 00:00:00 UTC",
        "total_7_days": 0,
        "total_30_days": 52.34
      }
    },
    {
      "type": "Feature",
      "geometry": {
        "type": "Point",
        "coordinates": [
          173.247,
          -41.293
        ]
      },
      "properties": {
        "id": 1070,
        "location": "Nelson, New Zealand",
        "updated_at": "2024-07-29 19:48:02 UTC",
        "last_record_at": "2024-07-30 00:00:00 UTC",
        "total_7_days": 0,
        "total_30_days": 39.0
      }
    },
    {
      "type": "Feature",
      "geometry": {
        "type": "Point",
        "coordinates": [
          152.784,
          -26.592
        ]
      },
      "properties": {
        "id": 453,
        "location": "Coolabine",
        "updated_at": "2024-08-05 02:53:55 UTC",
        "last_record_at": "2024-07-28 00:00:00 UTC",
        "total_7_days": 0,
        "total_30_days": 2.5
      }
    },
    {
      "type": "Feature",
      "geometry": {
        "type": "Point",
        "coordinates": [
          "133.000",
          "-27.000"
        ]
      },
      "properties": {
        "id": 669,
        "location": "Ashburton, Australia",
        "updated_at": "2024-07-29 06:14:06 UTC",
        "last_record_at": "2024-07-29 00:00:00 UTC",
        "total_7_days": 0,
        "total_30_days": 4.8
      }
    },
    {
      "type": "Feature",
      "geometry": {
        "type": "Point",
        "coordinates": [
          80.72,
          16.074
        ]
      },
      "properties": {
        "id": 1078,
        "location": "Guntur, India",
        "updated_at": "2024-07-31 09:45:13 UTC",
        "last_record_at": "2024-07-31 00:00:00 UTC",
        "total_7_days": 0,
        "total_30_days": 45.0
      }
    },
    {
      "type": "Feature",
      "geometry": {
        "type": "Point",
        "coordinates": [
          "133.000",
          "-27.000"
        ]
      },
      "properties": {
        "id": 668,
        "location": "Ashburton, Australia",
        "updated_at": "2024-07-29 21:58:55 UTC",
        "last_record_at": "2024-07-30 00:00:00 UTC",
        "total_7_days": 0,
        "total_30_days": 32.5
      }
    },
    {
      "type": "Feature",
      "geometry": {
        "type": "Point",
        "coordinates": [
          133.0,
          -27.0
        ]
      },
      "properties": {
        "id": 122,
        "location": "Kilsyth, Yarra Ranges, Australia",
        "updated_at": "2024-08-01 08:57:46 UTC",
        "last_record_at": "2024-07-31 00:00:00 UTC",
        "total_7_days": 0,
        "total_30_days": 66.0
      }
    },
    {
      "type": "Feature",
      "geometry": {
        "type": "Point",
        "coordinates": [
          146.92,
          -36.06
        ]
      },
      "properties": {
        "id": 1292,
        "location": "Albury, Australia",
        "updated_at": "2024-08-04 21:32:05 UTC",
        "last_record_at": "2024-07-28 00:00:00 UTC",
        "total_7_days": 0,
        "total_30_days": 31.5
      }
    },
    {
      "type": "Feature",
      "geometry": {
        "type": "Point",
        "coordinates": [
          151.884,
          -25.246
        ]
      },
      "properties": {
        "id": 944,
        "location": "Bundaberg, Australia",
        "updated_at": "2024-07-09 08:44:44 UTC",
        "last_record_at": "2024-07-09 00:00:00 UTC"
      }
    },
    {
      "type": "Feature",
      "geometry": {
        "type": "Point",
        "coordinates": [
          138.532,
          -32.098
        ]
      },
      "properties": {
        "id": 1396,
        "location": "Australia",
        "updated_at": "2024-07-11 10:08:46 UTC",
        "last_record_at": "2024-07-07 00:00:00 UTC"
      }
    },
    {
      "type": "Feature",
      "geometry": {
        "type": "Point",
        "coordinates": [
          137.633,
          -33.933
        ]
      },
      "properties": {
        "id": 1323,
        "location": "Wallaroo, Australia",
        "updated_at": "2024-07-25 10:21:11 UTC",
        "last_record_at": "2024-07-24 00:00:00 UTC",
        "total_7_days": 0,
        "total_30_days": 22.0
      }
    },
    {
      "type": "Feature",
      "geometry": {
        "type": "Point",
        "coordinates": [
          133.0,
          -27.0
        ]
      },
      "properties": {
        "id": 1288,
        "location": "Australia",
        "updated_at": "2024-07-28 00:13:07 UTC",
        "last_record_at": "2024-07-27 00:00:00 UTC",
        "total_7_days": 0,
        "total_30_days": 9.0
      }
    },
    {
      "type": "Feature",
      "geometry": {
        "type": "Point",
        "coordinates": [
          151.946,
          -27.593
        ]
      },
      "properties": {
        "id": 710,
        "location": "Toowoomba, Australia",
        "updated_at": "2024-07-02 23:05:23 UTC",
        "last_record_at": "2024-07-02 00:00:00 UTC"
      }
    },
    {
      "type": "Feature",
      "geometry": {
        "type": "Point",
        "coordinates": [
          21.911,
          48.557
        ]
      },
      "properties": {
        "id": 1076,
        "location": "Kosice, Slovakia",
        "updated_at": "2024-07-18 10:48:32 UTC",
        "last_record_at": "2024-07-17 00:00:00 UTC",
        "total_7_days": 0,
        "total_30_days": 30.0
      }
    },
    {
      "type": "Feature",
      "geometry": {
        "type": "Point",
        "coordinates": [
          140.767,
          -36.316
        ]
      },
      "properties": {
        "id": 1030,
        "location": "Bordertown, Australia",
        "updated_at": "2024-07-19 00:28:40 UTC",
        "last_record_at": "2024-07-18 00:00:00 UTC",
        "total_7_days": 0,
        "total_30_days": 3.8
      }
    },
    {
      "type": "Feature",
      "geometry": {
        "type": "Point",
        "coordinates": [
          152.94,
          -27.905
        ]
      },
      "properties": {
        "id": 1395,
        "location": "Brisbane, Australia",
        "updated_at": "2024-07-05 01:14:30 UTC",
        "last_record_at": "2024-07-04 00:00:00 UTC"
      }
    },
    {
      "type": "Feature",
      "geometry": {
        "type": "Point",
        "coordinates": [
          138.0,
          -35.0
        ]
      },
      "properties": {
        "id": 1287,
        "location": "Australia",
        "updated_at": "2024-08-10 05:42:40 UTC",
        "last_record_at": "2024-07-28 00:00:00 UTC",
        "total_7_days": 0,
        "total_30_days": 76.4
      }
    },
    {
      "type": "Feature",
      "geometry": {
        "type": "Point",
        "coordinates": [
          -84.423,
          33.763
        ]
      },
      "properties": {
        "id": 1169,
        "location": "Atlanta, United States of America",
        "updated_at": "2024-07-31 09:11:30 UTC",
        "last_record_at": "2024-07-30 00:00:00 UTC",
        "total_7_days": 0,
        "total_30_days": 5.1
      }
    },
    {
      "type": "Feature",
      "geometry": {
        "type": "Point",
        "coordinates": [
          148.791,
          -26.559
        ]
      },
      "properties": {
        "id": 1428,
        "location": "Roma, Australia",
        "updated_at": "2024-07-13 04:41:04 UTC",
        "last_record_at": "2024-07-12 00:00:00 UTC"
      }
    },
    {
      "type": "Feature",
      "geometry": {
        "type": "Point",
        "coordinates": [
          149.583,
          -36.639
        ]
      },
      "properties": {
        "id": 1294,
        "location": "Cooma, Australia",
        "updated_at": "2024-07-28 00:17:09 UTC",
        "last_record_at": "2024-07-28 00:00:00 UTC",
        "total_7_days": 0,
        "total_30_days": 7.5
      }
    },
    {
      "type": "Feature",
      "geometry": {
        "type": "Point",
        "coordinates": [
          151.953,
          -24.99
        ]
      },
      "properties": {
        "id": 943,
        "location": "Bundaberg, Australia",
        "updated_at": "2024-07-07 06:50:26 UTC",
        "last_record_at": "2024-07-03 00:00:00 UTC"
      }
    },
    {
      "type": "Feature",
      "geometry": {
        "type": "Point",
        "coordinates": [
          143.58,
          -38.34
        ]
      },
      "properties": {
        "id": 814,
        "location": "Colac, Australia",
        "updated_at": "2024-07-31 00:59:08 UTC",
        "last_record_at": "2024-07-29 00:00:00 UTC",
        "total_7_days": 0,
        "total_30_days": 97.0
      }
    },
    {
      "type": "Feature",
      "geometry": {
        "type": "Point",
        "coordinates": [
          147.06,
          -38.11
        ]
      },
      "properties": {
        "id": 911,
        "location": "Sale, Australia",
        "updated_at": "2024-07-28 21:14:56 UTC",
        "last_record_at": "2024-07-29 00:00:00 UTC",
        "total_7_days": 0,
        "total_30_days": 19.0
      }
    },
    {
      "type": "Feature",
      "geometry": {
        "type": "Point",
        "coordinates": [
          137.737,
          -34.03
        ]
      },
      "properties": {
        "id": 1320,
        "location": "Wallaroo, Australia",
        "updated_at": "2024-07-25 10:24:16 UTC",
        "last_record_at": "2024-07-24 00:00:00 UTC",
        "total_7_days": 0,
        "total_30_days": 13.5
      }
    },
    {
      "type": "Feature",
      "geometry": {
        "type": "Point",
        "coordinates": [
          152.787,
          -25.364
        ]
      },
      "properties": {
        "id": 468,
        "location": "Sunshine Acres",
        "updated_at": "2024-07-10 10:34:14 UTC",
        "last_record_at": "2024-07-09 00:00:00 UTC"
      }
    },
    {
      "type": "Feature",
      "geometry": {
        "type": "Point",
        "coordinates": [
          117.892,
          -35.017
        ]
      },
      "properties": {
        "id": 1265,
        "location": "Albany, Australia",
        "updated_at": "2024-07-19 10:02:54 UTC",
        "last_record_at": "2024-07-19 00:00:00 UTC",
        "total_7_days": 0,
        "total_30_days": 17.0
      }
    },
    {
      "type": "Feature",
      "geometry": {
        "type": "Point",
        "coordinates": [
          147.61,
          -37.83
        ]
      },
      "properties": {
        "id": 815,
        "location": "Bairnsdale, Australia",
        "updated_at": "2024-07-28 22:29:48 UTC",
        "last_record_at": "2024-07-28 00:00:00 UTC",
        "total_7_days": 0,
        "total_30_days": 23.0
      }
    },
    {
      "type": "Feature",
      "geometry": {
        "type": "Point",
        "coordinates": [
          149.129,
          -35.283
        ]
      },
      "properties": {
        "id": 905,
        "location": "Canberra, Australia",
        "updated_at": "2024-07-08 22:11:58 UTC",
        "last_record_at": "2024-07-09 00:00:00 UTC"
      }
    },
    {
      "type": "Feature",
      "geometry": {
        "type": "Point",
        "coordinates": [
          137.633,
          -33.933
        ]
      },
      "properties": {
        "id": 1319,
        "location": "Wallaroo, Australia",
        "updated_at": "2024-07-24 12:09:59 UTC",
        "last_record_at": "2024-07-21 00:00:00 UTC",
        "total_7_days": 0,
        "total_30_days": 21.8
      }
    },
    {
      "type": "Feature",
      "geometry": {
        "type": "Point",
        "coordinates": [
          144.564,
          -37.421
        ]
      },
      "properties": {
        "id": 373,
        "location": "Macedon, Australia",
        "updated_at": "2024-07-28 21:21:58 UTC",
        "last_record_at": "2024-07-28 00:00:00 UTC",
        "total_7_days": 0,
        "total_30_days": 57.0
      }
    },
    {
      "type": "Feature",
      "geometry": {
        "type": "Point",
        "coordinates": [
          150.501,
          -34.076
        ]
      },
      "properties": {
        "id": 1282,
        "location": "Australia",
        "updated_at": "2024-07-08 21:42:31 UTC",
        "last_record_at": "2024-07-08 00:00:00 UTC"
      }
    },
    {
      "type": "Feature",
      "geometry": {
        "type": "Point",
        "coordinates": [
          115.349,
          -33.656
        ]
      },
      "properties": {
        "id": 1327,
        "location": "Busselton, Australia",
        "updated_at": "2024-06-13 07:51:55 UTC",
        "last_record_at": "2024-06-13 00:00:00 UTC"
      }
    },
    {
      "type": "Feature",
      "geometry": {
        "type": "Point",
        "coordinates": [
          25.912,
          -24.646
        ]
      },
      "properties": {
        "id": 833,
        "location": "Gaborone, Botswana",
        "updated_at": "2024-06-03 15:29:44 UTC",
        "last_record_at": "2024-06-02 00:00:00 UTC"
      }
    },
    {
      "type": "Feature",
      "geometry": {
        "type": "Point",
        "coordinates": [
          138.6,
          -34.935
        ]
      },
      "properties": {
        "id": 1397,
        "location": "Adelaide, Australia",
        "updated_at": "2024-07-08 04:21:14 UTC",
        "last_record_at": "2024-06-30 00:00:00 UTC"
      }
    },
    {
      "type": "Feature",
      "geometry": {
        "type": "Point",
        "coordinates": [
          27.703,
          -26.158
        ]
      },
      "properties": {
        "id": 1126,
        "location": "Johannesburg, South Africa",
        "updated_at": "2024-06-03 04:40:34 UTC",
        "last_record_at": "2024-06-02 00:00:00 UTC"
      }
    },
    {
      "type": "Feature",
      "geometry": {
        "type": "Point",
        "coordinates": [
          27.984,
          -26.011
        ]
      },
      "properties": {
        "id": 1124,
        "location": "Johannesburg, South Africa",
        "updated_at": "2024-06-03 15:38:01 UTC",
        "last_record_at": "2024-06-02 00:00:00 UTC"
      }
    },
    {
      "type": "Feature",
      "geometry": {
        "type": "Point",
        "coordinates": [
          27.971,
          -26.166
        ]
      },
      "properties": {
        "id": 776,
        "location": "Johannesburg, South Africa",
        "updated_at": "2024-06-03 07:01:41 UTC",
        "last_record_at": "2024-06-02 00:00:00 UTC"
      }
    },
    {
      "type": "Feature",
      "geometry": {
        "type": "Point",
        "coordinates": [
          -0.883,
          52.25
        ]
      },
      "properties": {
        "id": 830,
        "location": "Northampton, United Kingdom of Great Britain and Northern Ireland",
        "updated_at": "2024-06-08 15:01:29 UTC",
        "last_record_at": "2024-06-07 00:00:00 UTC"
      }
    },
    {
      "type": "Feature",
      "geometry": {
        "type": "Point",
        "coordinates": [
          26.851,
          -25.445
        ]
      },
      "properties": {
        "id": 1168,
        "location": "Rustenburg, South Africa",
        "updated_at": "2024-06-05 13:23:48 UTC",
        "last_record_at": "2024-06-03 00:00:00 UTC"
      }
    },
    {
      "type": "Feature",
      "geometry": {
        "type": "Point",
        "coordinates": [
          145.681,
          -17.557
        ]
      },
      "properties": {
        "id": 1137,
        "location": "Innisfail, Australia",
        "updated_at": "2024-05-31 04:24:03 UTC",
        "last_record_at": "2024-05-30 00:00:00 UTC"
      }
    },
    {
      "type": "Feature",
      "geometry": {
        "type": "Point",
        "coordinates": [
          28.229,
          -25.707
        ]
      },
      "properties": {
        "id": 921,
        "location": "Pretoria, South Africa",
        "updated_at": "2024-06-03 05:35:35 UTC",
        "last_record_at": "2024-05-02 00:00:00 UTC"
      }
    },
    {
      "type": "Feature",
      "geometry": {
        "type": "Point",
        "coordinates": [
          152.02,
          -28.229
        ]
      },
      "properties": {
        "id": 819,
        "location": "Warwick, Australia",
        "updated_at": "2024-05-11 23:07:02 UTC",
        "last_record_at": "2024-05-12 00:00:00 UTC"
      }
    },
    {
      "type": "Feature",
      "geometry": {
        "type": "Point",
        "coordinates": [
          37.26,
          -1.51
        ]
      },
      "properties": {
        "id": 1322,
        "location": "Machakos, Kenya",
        "updated_at": "2024-06-01 12:09:36 UTC",
        "last_record_at": "2024-05-31 00:00:00 UTC"
      }
    },
    {
      "type": "Feature",
      "geometry": {
        "type": "Point",
        "coordinates": [
          151.139,
          -33.824
        ]
      },
      "properties": {
        "id": 487,
        "location": "Hunters Hill",
        "updated_at": "2024-05-05 08:02:10 UTC",
        "last_record_at": "2024-05-04 00:00:00 UTC"
      }
    },
    {
      "type": "Feature",
      "geometry": {
        "type": "Point",
        "coordinates": [
          31.157,
          -25.681
        ]
      },
      "properties": {
        "id": 923,
        "location": "Nelspruit, South Africa",
        "updated_at": "2024-05-14 16:51:49 UTC",
        "last_record_at": "2024-05-14 00:00:00 UTC"
      }
    },
    {
      "type": "Feature",
      "geometry": {
        "type": "Point",
        "coordinates": [
          176.854,
          -39.418
        ]
      },
      "properties": {
        "id": 835,
        "location": "Napier, New Zealand",
        "updated_at": "2024-05-16 21:30:42 UTC",
        "last_record_at": "2024-05-15 00:00:00 UTC"
      }
    },
    {
      "type": "Feature",
      "geometry": {
        "type": "Point",
        "coordinates": [
          148.68,
          -33.83
        ]
      },
      "properties": {
        "id": 1321,
        "location": "Cowra, Australia",
        "updated_at": "2024-05-17 04:36:46 UTC",
        "last_record_at": "2024-05-11 00:00:00 UTC"
      }
    },
    {
      "type": "Feature",
      "geometry": {
        "type": "Point",
        "coordinates": [
          145.469,
          -17.27
        ]
      },
      "properties": {
        "id": 1148,
        "location": "Atherton, Australia",
        "updated_at": "2024-05-12 00:13:32 UTC",
        "last_record_at": "2024-05-10 00:00:00 UTC"
      }
    },
    {
      "type": "Feature",
      "geometry": {
        "type": "Point",
        "coordinates": [
          144.25,
          -23.45
        ]
      },
      "properties": {
        "id": 1158,
        "location": "Longreach, Australia",
        "updated_at": "2024-04-04 08:22:25 UTC",
        "last_record_at": "2024-04-03 00:00:00 UTC"
      }
    },
    {
      "type": "Feature",
      "geometry": {
        "type": "Point",
        "coordinates": [
          29.263,
          -1.685
        ]
      },
      "properties": {
        "id": 1318,
        "location": "Gisenyi, Rwanda",
        "updated_at": "2024-04-22 09:03:25 UTC",
        "last_record_at": "2024-04-21 00:00:00 UTC"
      }
    },
    {
      "type": "Feature",
      "geometry": {
        "type": "Point",
        "coordinates": [
          28.346,
          -26.477
        ]
      },
      "properties": {
        "id": 1315,
        "location": "Vereeniging, South Africa",
        "updated_at": "2024-04-09 05:03:03 UTC",
        "last_record_at": "2024-04-08 00:00:00 UTC"
      }
    },
    {
      "type": "Feature",
      "geometry": {
        "type": "Point",
        "coordinates": [
          144.25,
          -23.45
        ]
      },
      "properties": {
        "id": 959,
        "location": "Longreach, Australia",
        "updated_at": "2024-04-30 02:38:55 UTC",
        "last_record_at": "2024-04-04 00:00:00 UTC"
      }
    },
    {
      "type": "Feature",
      "geometry": {
        "type": "Point",
        "coordinates": [
          145.469,
          -17.27
        ]
      },
      "properties": {
        "id": 1164,
        "location": "Atherton, Australia",
        "updated_at": "2024-04-30 03:37:36 UTC",
        "last_record_at": "2024-04-30 00:00:00 UTC"
      }
    },
    {
      "type": "Feature",
      "geometry": {
        "type": "Point",
        "coordinates": [
          144.25,
          -23.45
        ]
      },
      "properties": {
        "id": 1157,
        "location": "Longreach, Australia",
        "updated_at": "2024-04-04 08:22:39 UTC",
        "last_record_at": "2024-04-04 00:00:00 UTC"
      }
    },
    {
      "type": "Feature",
      "geometry": {
        "type": "Point",
        "coordinates": [
          17.084,
          -22.57
        ]
      },
      "properties": {
        "id": 823,
        "location": "Windhoek, Namibia",
        "updated_at": "2024-04-07 17:06:43 UTC",
        "last_record_at": "2024-04-04 00:00:00 UTC"
      }
    },
    {
      "type": "Feature",
      "geometry": {
        "type": "Point",
        "coordinates": [
          28.264,
          -25.82
        ]
      },
      "properties": {
        "id": 992,
        "location": "Pretoria, South Africa",
        "updated_at": "2024-04-09 08:22:55 UTC",
        "last_record_at": "2024-04-09 00:00:00 UTC"
      }
    },
    {
      "type": "Feature",
      "geometry": {
        "type": "Point",
        "coordinates": [
          152.351,
          -24.879
        ]
      },
      "properties": {
        "id": 1283,
        "location": "Bundaberg, Australia",
        "updated_at": "2024-04-07 09:09:21 UTC",
        "last_record_at": "2024-04-07 00:00:00 UTC"
      }
    },
    {
      "type": "Feature",
      "geometry": {
        "type": "Point",
        "coordinates": [
          -90.649,
          38.501
        ]
      },
      "properties": {
        "id": 1145,
        "location": "Eureka, United States of America",
        "updated_at": "2024-03-24 13:06:39 UTC",
        "last_record_at": "2024-03-23 00:00:00 UTC"
      }
    },
    {
      "type": "Feature",
      "geometry": {
        "type": "Point",
        "coordinates": [
          152.953,
          -27.455
        ]
      },
      "properties": {
        "id": 38,
        "location": "The Gap, Australia",
        "updated_at": "2024-03-19 06:14:31 UTC",
        "last_record_at": "2024-03-19 00:00:00 UTC"
      }
    },
    {
      "type": "Feature",
      "geometry": {
        "type": "Point",
        "coordinates": [
          144.442,
          -37.396
        ]
      },
      "properties": {
        "id": 1203,
        "location": "Sunbury, Australia",
        "updated_at": "2024-03-15 03:06:46 UTC",
        "last_record_at": "2024-03-14 00:00:00 UTC"
      }
    },
    {
      "type": "Feature",
      "geometry": {
        "type": "Point",
        "coordinates": [
          28.03,
          -26.17
        ]
      },
      "properties": {
        "id": 1303,
        "location": "Johannesburg, South Africa",
        "updated_at": "2024-03-06 07:34:14 UTC",
        "last_record_at": "2024-03-06 00:00:00 UTC"
      }
    },
    {
      "type": "Feature",
      "geometry": {
        "type": "Point",
        "coordinates": [
          144.25,
          -23.45
        ]
      },
      "properties": {
        "id": 1163,
        "location": "Longreach, Australia",
        "updated_at": "2024-03-24 04:20:22 UTC",
        "last_record_at": "2024-03-24 00:00:00 UTC"
      }
    },
    {
      "type": "Feature",
      "geometry": {
        "type": "Point",
        "coordinates": [
          178.018,
          -38.663
        ]
      },
      "properties": {
        "id": 518,
        "location": "Gisborne, New Zealand",
        "updated_at": "2024-03-13 21:54:55 UTC",
        "last_record_at": "2024-03-13 00:00:00 UTC"
      }
    },
    {
      "type": "Feature",
      "geometry": {
        "type": "Point",
        "coordinates": [
          30.836,
          -16.783
        ]
      },
      "properties": {
        "id": 1277,
        "location": "Mazowe, Zimbabwe",
        "updated_at": "2024-03-11 07:54:34 UTC",
        "last_record_at": "2024-03-10 00:00:00 UTC"
      }
    },
    {
      "type": "Feature",
      "geometry": {
        "type": "Point",
        "coordinates": [
          32.167,
          -2.866
        ]
      },
      "properties": {
        "id": 1304,
        "location": "Geita, Tanzania, United Republic of",
        "updated_at": "2024-03-06 09:49:14 UTC",
        "last_record_at": "2024-03-06 00:00:00 UTC"
      }
    },
    {
      "type": "Feature",
      "geometry": {
        "type": "Point",
        "coordinates": [
          31.133,
          -26.317
        ]
      },
      "properties": {
        "id": 1300,
        "location": "Mbabane, Swaziland",
        "updated_at": "2024-02-20 13:10:46 UTC",
        "last_record_at": "2024-02-18 00:00:00 UTC"
      }
    },
    {
      "type": "Feature",
      "geometry": {
        "type": "Point",
        "coordinates": [
          30.03,
          -22.34
        ]
      },
      "properties": {
        "id": 1275,
        "location": "Musina, South Africa",
        "updated_at": "2024-02-10 10:14:06 UTC",
        "last_record_at": "2024-02-10 00:00:00 UTC"
      }
    },
    {
      "type": "Feature",
      "geometry": {
        "type": "Point",
        "coordinates": [
          117.037,
          -33.755
        ]
      },
      "properties": {
        "id": 1328,
        "location": "Bunbury, Australia",
        "updated_at": "2024-06-12 13:01:22 UTC",
        "last_record_at": "2024-02-11 00:00:00 UTC"
      }
    },
    {
      "type": "Feature",
      "geometry": {
        "type": "Point",
        "coordinates": [
          80.005,
          9.675
        ]
      },
      "properties": {
        "id": 1310,
        "location": "Jaffna, Sri Lanka",
        "updated_at": "2024-03-11 07:09:26 UTC",
        "last_record_at": "2024-02-01 00:00:00 UTC"
      }
    },
    {
      "type": "Feature",
      "geometry": {
        "type": "Point",
        "coordinates": [
          18.5,
          -12.5
        ]
      },
      "properties": {
        "id": 1128,
        "location": "Angola",
        "updated_at": "2024-02-02 07:42:53 UTC",
        "last_record_at": "2024-02-01 00:00:00 UTC"
      }
    },
    {
      "type": "Feature",
      "geometry": {
        "type": "Point",
        "coordinates": [
          115.878,
          -32.049
        ]
      },
      "properties": {
        "id": 138,
        "location": "Willetton, Australia",
        "updated_at": "2024-01-13 02:57:55 UTC",
        "last_record_at": "2024-01-13 00:00:00 UTC"
      }
    },
    {
      "type": "Feature",
      "geometry": {
        "type": "Point",
        "coordinates": [
          "133.000",
          "-27.000"
        ]
      },
      "properties": {
        "id": 555,
        "location": "Williams, Australia",
        "updated_at": "2024-02-28 06:59:29 UTC",
        "last_record_at": "2024-01-10 00:00:00 UTC"
      }
    },
    {
      "type": "Feature",
      "geometry": {
        "type": "Point",
        "coordinates": [
          151.956,
          -27.564
        ]
      },
      "properties": {
        "id": 1296,
        "location": "Toowoomba, Australia",
        "updated_at": "2024-02-03 06:41:24 UTC",
        "last_record_at": "2024-01-01 00:00:00 UTC"
      }
    },
    {
      "type": "Feature",
      "geometry": {
        "type": "Point",
        "coordinates": [
          144.25,
          -23.45
        ]
      },
      "properties": {
        "id": 1160,
        "location": "Longreach, Australia",
        "updated_at": "2024-01-30 00:07:51 UTC",
        "last_record_at": "2024-01-28 00:00:00 UTC"
      }
    },
    {
      "type": "Feature",
      "geometry": {
        "type": "Point",
        "coordinates": [
          151.956,
          -27.564
        ]
      },
      "properties": {
        "id": 1297,
        "location": "Toowoomba, Australia",
        "updated_at": "2024-02-03 06:44:28 UTC",
        "last_record_at": "2024-01-01 00:00:00 UTC"
      }
    },
    {
      "type": "Feature",
      "geometry": {
        "type": "Point",
        "coordinates": [
          80.4,
          9.4
        ]
      },
      "properties": {
        "id": 1306,
        "location": "Kilinochchi, Sri Lanka",
        "updated_at": "2024-03-11 04:52:22 UTC",
        "last_record_at": "2024-01-08 00:00:00 UTC"
      }
    },
    {
      "type": "Feature",
      "geometry": {
        "type": "Point",
        "coordinates": [
          144.25,
          -23.45
        ]
      },
      "properties": {
        "id": 1162,
        "location": "Longreach, Australia",
        "updated_at": "2024-01-30 00:07:14 UTC",
        "last_record_at": "2024-01-28 00:00:00 UTC"
      }
    },
    {
      "type": "Feature",
      "geometry": {
        "type": "Point",
        "coordinates": [
          119.317,
          -31.216
        ]
      },
      "properties": {
        "id": 1293,
        "location": "Southern Cross, Australia",
        "updated_at": "2024-01-17 05:53:04 UTC",
        "last_record_at": "2024-01-16 00:00:00 UTC"
      }
    },
    {
      "type": "Feature",
      "geometry": {
        "type": "Point",
        "coordinates": [
          153.035,
          -27.455
        ]
      },
      "properties": {
        "id": 887,
        "location": "Brisbane, Australia",
        "updated_at": "2024-01-29 02:12:59 UTC",
        "last_record_at": "2024-01-28 00:00:00 UTC"
      }
    },
    {
      "type": "Feature",
      "geometry": {
        "type": "Point",
        "coordinates": [
          144.25,
          -23.45
        ]
      },
      "properties": {
        "id": 1161,
        "location": "Longreach, Australia",
        "updated_at": "2024-01-30 00:07:35 UTC",
        "last_record_at": "2024-01-28 00:00:00 UTC"
      }
    },
    {
      "type": "Feature",
      "geometry": {
        "type": "Point",
        "coordinates": [
          144.396,
          -38.167
        ]
      },
      "properties": {
        "id": 928,
        "location": "Geelong, Australia",
        "updated_at": "2024-01-02 01:59:06 UTC",
        "last_record_at": "2024-01-02 00:00:00 UTC"
      }
    },
    {
      "type": "Feature",
      "geometry": {
        "type": "Point",
        "coordinates": [
          151.956,
          -27.564
        ]
      },
      "properties": {
        "id": 1298,
        "location": "Toowoomba, Australia",
        "updated_at": "2024-02-03 06:44:35 UTC",
        "last_record_at": "2024-01-03 00:00:00 UTC"
      }
    },
    {
      "type": "Feature",
      "geometry": {
        "type": "Point",
        "coordinates": [
          144.25,
          -23.45
        ]
      },
      "properties": {
        "id": 1159,
        "location": "Longreach, Australia",
        "updated_at": "2024-01-30 00:06:46 UTC",
        "last_record_at": "2024-01-28 00:00:00 UTC"
      }
    },
    {
      "type": "Feature",
      "geometry": {
        "type": "Point",
        "coordinates": [
          152.755,
          -26.37
        ]
      },
      "properties": {
        "id": 209,
        "location": "Coles Creek, Australia",
        "updated_at": "2024-01-01 02:52:04 UTC",
        "last_record_at": "2023-12-31 00:00:00 UTC"
      }
    },
    {
      "type": "Feature",
      "geometry": {
        "type": "Point",
        "coordinates": [
          117.375,
          -33.365
        ]
      },
      "properties": {
        "id": 1264,
        "location": "Australia",
        "updated_at": "2023-12-04 12:19:00 UTC",
        "last_record_at": "2023-12-04 00:00:00 UTC"
      }
    },
    {
      "type": "Feature",
      "geometry": {
        "type": "Point",
        "coordinates": [
          167.712,
          -45.446
        ]
      },
      "properties": {
        "id": 1284,
        "location": "Te Anau, New Zealand",
        "updated_at": "2023-12-24 20:06:08 UTC",
        "last_record_at": "2023-12-25 00:00:00 UTC"
      }
    },
    {
      "type": "Feature",
      "geometry": {
        "type": "Point",
        "coordinates": [
          "133.000",
          "-27.000"
        ]
      },
      "properties": {
        "id": 563,
        "location": "St Morris, Australia",
        "updated_at": "2024-01-04 07:32:32 UTC",
        "last_record_at": "2023-12-29 00:00:00 UTC"
      }
    },
    {
      "type": "Feature",
      "geometry": {
        "type": "Point",
        "coordinates": [
          130.781,
          -13.154
        ]
      },
      "properties": {
        "id": 1279,
        "location": "Darwin, Australia",
        "updated_at": "2023-11-28 09:13:22 UTC",
        "last_record_at": "2023-11-27 00:00:00 UTC"
      }
    },
    {
      "type": "Feature",
      "geometry": {
        "type": "Point",
        "coordinates": [
          153.035,
          -27.455
        ]
      },
      "properties": {
        "id": 1278,
        "location": "Brisbane, Australia",
        "updated_at": "2023-11-24 23:17:44 UTC",
        "last_record_at": "2023-11-25 00:00:00 UTC"
      }
    }
  ]
}